[
    {
        "state": "DZ",
        "name": "u2019Au00efn Tamdinnt",
        "city": "Tadjera",
        "prov": "Batna",
        "region": {},
        "latt": "35.23418",
        "longt": "6.48348",
        "address": "835 Cunningham Flats Apt. 684nSpearschester, OR 81635"
    },
    {
        "state": "DZ",
        "name": "Aouinet Tmeu00efda",
        "city": "Oum Djerane",
        "prov": "Saida",
        "region": {},
        "latt": "34.837151",
        "longt": "0.298751",
        "address": "729 Farmer Rapids Apt. 642nFitzgeraldstad, MO 73250"
    },
    {
        "state": "DZ",
        "name": "Teniet Oguib el Bel",
        "city": "Zoui",
        "prov": "Khenchela",
        "region": {},
        "latt": "35.233333",
        "longt": "7.383333",
        "address": "63820 Mercado CrossingnNew Jonathan, CA 31988"
    },
    {
        "state": "DZ",
        "name": "Zru00eebet Ammou00fbch",
        "city": "Cheraia",
        "prov": "Skikda",
        "region": {},
        "latt": "36.99667",
        "longt": "6.51556",
        "address": "787 Johnson Road Apt. 679nHubbardview, WY 60982"
    },
    {
        "state": "DZ",
        "name": "Oued Sefah",
        "city": "Lagaguena",
        "prov": "Au00efn Defla",
        "region": {},
        "latt": "36.023844",
        "longt": "2.341223",
        "address": "PSC 5824, Box 4262nAPO AP 70065"
    },
    {
        "state": "DZ",
        "name": "Koudiat Bou Rdimene",
        "city": "Ouled Rahmoun",
        "prov": "Constantine",
        "region": {},
        "latt": "36.146944",
        "longt": "6.73",
        "address": "6974 Mitchell TracenLake Isaiah, MO 01164"
    },
    {
        "state": "DZ",
        "name": "Kef Balouta",
        "city": "u2019Au00efn Boucif",
        "prov": "Medea",
        "region": {},
        "latt": "35.91265",
        "longt": "3.22042",
        "address": "47603 Gray Green Suite 518nLake Jonview, WI 48480"
    },
    {
        "state": "DZ",
        "name": "Koudia Faraoun",
        "city": "Douar Titinguel",
        "prov": "Mostaganem",
        "region": {},
        "latt": "36.23356",
        "longt": "0.50862",
        "address": "38715 Jackson Harbors Apt. 928nBassberg, GA 10978"
    },
    {
        "state": "DZ",
        "name": "Bordj Hamaoui",
        "city": "Besbes",
        "prov": "El Tarf",
        "region": {},
        "latt": "36.710896",
        "longt": "7.933439",
        "address": "62219 Griffin LightsnMannbury, CT 91125"
    },
    {
        "state": "DZ",
        "name": "Bir Bagam",
        "city": "El Ogla",
        "prov": "El Oued",
        "region": {},
        "latt": "33.23333",
        "longt": "6.98333",
        "address": "6259 Joseph AlleynSouth Monica, PA 82644"
    },
    {
        "state": "DZ",
        "name": "Bou Djamane",
        "city": "Taghzout",
        "prov": "Chlef",
        "region": {},
        "latt": "36.42448",
        "longt": "1.033966",
        "address": "6675 Keith Heights Apt. 407nJohnsonview, ND 04584"
    },
    {
        "state": "DZ",
        "name": "Mechta Au00efn el Kebira",
        "city": "Sidi Mu00e9rouane",
        "prov": "Jijel",
        "region": {},
        "latt": "36.58947",
        "longt": "6.28582",
        "address": "146 Fields Mills Apt. 314nWest Bradley, GA 92007"
    },
    {
        "state": "DZ",
        "name": "Oued Djenibia",
        "city": "El Yourh",
        "prov": "Djelfa",
        "region": {},
        "latt": "34.376981",
        "longt": "3.09769",
        "address": "794 Peters Crossing Suite 372nOsborneport, CT 71269"
    },
    {
        "state": "DZ",
        "name": "Oued Lehguigane",
        "city": "Rouina",
        "prov": "Au00efn Defla",
        "region": {},
        "latt": "36.241026",
        "longt": "1.819481",
        "address": "9426 Lopez Common Suite 967nAmberside, WY 39533"
    },
    {
        "state": "DZ",
        "name": "Sidi Ben Hamou",
        "city": "Matmoura ech Choual",
        "prov": "Saida",
        "region": {},
        "latt": "34.95018",
        "longt": "0.38083",
        "address": "1322 Holder Corners Apt. 473nBrendanberg, DE 66805"
    },
    {
        "state": "DZ",
        "name": "Guesau00e2",
        "city": "Sidi Bakhti",
        "prov": "Djelfa",
        "region": {},
        "latt": "35.33008",
        "longt": "3.46899",
        "address": "019 Lisa Rue Suite 979nNorth Arthurview, AZ 95807"
    },
    {
        "state": "DZ",
        "name": "Koudiat Sidi el Mokhfi",
        "city": "Bou00fb Arfa",
        "prov": "Blida",
        "region": {},
        "latt": "36.39988",
        "longt": "2.7837",
        "address": "3393 Joshua Ports Apt. 441nWest Lisaville, NH 42349"
    },
    {
        "state": "DZ",
        "name": "Ouled Rouadhi",
        "city": "Ouled Rouadhi",
        "prov": "Chlef",
        "region": {},
        "latt": "36.228419",
        "longt": "1.399306",
        "address": "650 Hudson IslandnWest Philliptown, WV 20912"
    },
    {
        "state": "DZ",
        "name": "Irhil Alouanene",
        "city": "Amizour",
        "prov": "Bu00e9jau00efa",
        "region": {},
        "latt": "36.638821",
        "longt": "4.931593",
        "address": "81430 Debra HeightsnAliciaburgh, NH 06983"
    },
    {
        "state": "DZ",
        "name": "Mu2019djahi",
        "city": "M'zaoura",
        "prov": "Mascara",
        "region": {},
        "latt": "35.41864",
        "longt": "0.01458",
        "address": "261 Hernandez MountainsnVeronicaburgh, VA 00814"
    },
    {
        "state": "DZ",
        "name": "Matemore",
        "city": "Mostaganem",
        "prov": "Mostaganem",
        "region": {},
        "latt": "35.93433",
        "longt": "0.09366",
        "address": "43809 Richard Mountains Apt. 811nLake Kristinhaven, ME 62757"
    },
    {
        "state": "DZ",
        "name": "Djebel Rabah",
        "city": "Boukaat el Abau00efb",
        "prov": "Chlef",
        "region": {},
        "latt": "36.02443",
        "longt": "1.34543",
        "address": "636 Richard Fork Suite 516nEast Robertberg, CT 04836"
    },
    {
        "state": "DZ",
        "name": "Oued Sedjef et Tine",
        "city": "Sedjef et Tine",
        "prov": "Batna",
        "region": {},
        "latt": "35.289527",
        "longt": "5.733505",
        "address": "PSC 7360, Box 5257nAPO AA 56350"
    },
    {
        "state": "DZ",
        "name": "Mechta Au00efn el Kebira",
        "city": "Sidi Mu00e9rouane",
        "prov": "Jijel",
        "region": {},
        "latt": "36.58947",
        "longt": "6.28582",
        "address": "503 Cassandra CourtsnNorth Alexandra, NY 25879"
    },
    {
        "state": "DZ",
        "name": "Koudiat Sidi el Mokhfi",
        "city": "Bou00fb Arfa",
        "prov": "Blida",
        "region": {},
        "latt": "36.39988",
        "longt": "2.7837",
        "address": "2604 Patterson Plaza Apt. 180nPort Samantha, DC 09491"
    },
    {
        "state": "DZ",
        "name": "Tamassit",
        "city": "Arhribs",
        "prov": "Tizi Ouzou",
        "region": {},
        "latt": "36.8",
        "longt": "4.35",
        "address": "88710 Garcia ThroughwaynBrownfurt, ID 46467"
    },
    {
        "state": "DZ",
        "name": "Koudiat Sifania",
        "city": "Sidi Ben Doghman",
        "prov": "Djelfa",
        "region": {},
        "latt": "35.033333",
        "longt": "3.25",
        "address": "8941 Taylor Park Suite 343nSamanthamouth, NE 11589"
    },
    {
        "state": "DZ",
        "name": "Chabet Zacha",
        "city": "Sidi Makhlouf",
        "prov": "Laghouat",
        "region": {},
        "latt": "34.12825",
        "longt": "3.08387",
        "address": "59267 Miller Tunnel Suite 906nLake Jason, NE 35917"
    },
    {
        "state": "DZ",
        "name": "Zru00eebet Beni Guendou00fbz",
        "city": "Ain ech Cheraya",
        "prov": "Skikda",
        "region": {},
        "latt": "36.88611",
        "longt": "6.70639",
        "address": "859 Joseph MissionnKeithmouth, CO 56550"
    },
    {
        "state": "DZ",
        "name": "Magdad",
        "city": "Magdad",
        "prov": "Tlemcen",
        "region": {},
        "latt": "35.07175",
        "longt": "-1.86465",
        "address": "0475 Alicia TrailnDavisshire, CA 54386"
    },
    {
        "state": "DZ",
        "name": "Issu00eedju00e2ne",
        "city": "Tahu00eefet",
        "prov": "Tamanrasset",
        "region": {},
        "latt": "23.03423",
        "longt": "5.98579",
        "address": "60292 Marshall Court Suite 450nEast Robertfurt, WI 22494"
    },
    {
        "state": "DZ",
        "name": "Oued Stita",
        "city": "Tizi Ouzou",
        "prov": "Tizi Ouzou",
        "region": {},
        "latt": "36.74226",
        "longt": "4.05743",
        "address": "005 May Causeway Apt. 580nRodgersland, DE 75057"
    },
    {
        "state": "DZ",
        "name": "Oued Mannreg",
        "city": "Tadjmout",
        "prov": "Laghouat",
        "region": {},
        "latt": "33.903933",
        "longt": "2.474605",
        "address": "5229 Terri FortnLake Jerry, MI 23933"
    },
    {
        "state": "DZ",
        "name": "Oued Bou Hamdu00e2ne",
        "city": "Tirhilt Ouadrar",
        "prov": "Blida",
        "region": {},
        "latt": "36.40728",
        "longt": "2.92159",
        "address": "24967 Teresa BrooksnEast Edward, WY 04952"
    },
    {
        "state": "DZ",
        "name": "Adrar Tefreg",
        "city": "Achabou",
        "prov": "Bu00e9jau00efa",
        "region": {},
        "latt": "36.33597",
        "longt": "4.71901",
        "address": "177 Christopher Mall Suite 727nNew Kelly, NV 73268"
    },
    {
        "state": "DZ",
        "name": "Garta",
        "city": "Sidi Okba",
        "prov": "Biskra",
        "region": {},
        "latt": "34.78975",
        "longt": "5.94811",
        "address": "0018 Adam InletnLake Benjaminchester, NV 57164"
    },
    {
        "state": "DZ",
        "name": "Mechta Zoui",
        "city": "Mechta Zoui",
        "prov": "Batna",
        "region": {},
        "latt": "35.74848",
        "longt": "6.23265",
        "address": "610 Bryan LightnLoriberg, NM 08121"
    },
    {
        "state": "DZ",
        "name": "Chau00e2bet Bourrane",
        "city": "El Mssatfa",
        "prov": "Tiaret",
        "region": {},
        "latt": "35.16265",
        "longt": "0.82052",
        "address": "5611 Brown Village Apt. 117nBrownchester, MI 57567"
    },
    {
        "state": "DZ",
        "name": "Chaba Bou Tennzer",
        "city": "Douar Zerama",
        "prov": "Mascara",
        "region": {},
        "latt": "35.498425",
        "longt": "0.337919",
        "address": "671 Phillips Flats Apt. 698nPort Michellebury, MN 49105"
    },
    {
        "state": "DZ",
        "name": "Sidi Mechennfar",
        "city": "Sebau00efn Au00efoun",
        "prov": "Tiaret",
        "region": {},
        "latt": "35.45064",
        "longt": "1.610312",
        "address": "5829 James FordnNew Andrew, OH 47560"
    },
    {
        "state": "DZ",
        "name": "Kabertene",
        "city": "Kabertene",
        "prov": "Adrar",
        "region": {},
        "latt": "28.43916",
        "longt": "-0.08304",
        "address": "64849 Haley CirclenSouth Angelatown, MS 93712"
    },
    {
        "state": "DZ",
        "name": "u2019Au00efn Tamdinnt",
        "city": "Tadjera",
        "prov": "Batna",
        "region": {},
        "latt": "35.23418",
        "longt": "6.48348",
        "address": "9768 Jesse Ville Apt. 669nEast Scott, TN 77820"
    },
    {
        "state": "DZ",
        "name": "Djebel Khalfoun",
        "city": "u2019Au00efn el Alleg",
        "prov": "Biskra",
        "region": {},
        "latt": "34.64708",
        "longt": "4.437956",
        "address": "Unit 9207 Box 3626nDPO AE 21546"
    },
    {
        "state": "DZ",
        "name": "Oued Bou Hamdu00e2ne",
        "city": "Tirhilt Ouadrar",
        "prov": "Blida",
        "region": {},
        "latt": "36.40728",
        "longt": "2.92159",
        "address": "213 Jonathan ExtensionsnNorth Chris, IA 34299"
    },
    {
        "state": "DZ",
        "name": "Ouled Rouadhi",
        "city": "Ouled Rouadhi",
        "prov": "Chlef",
        "region": {},
        "latt": "36.228419",
        "longt": "1.399306",
        "address": "18502 Turner Glen Suite 748nGregoryhaven, UT 41344"
    },
    {
        "state": "DZ",
        "name": "Sidi Beskot",
        "city": "Berrouaghia",
        "prov": "Medea",
        "region": {},
        "latt": "36.095228",
        "longt": "2.928777",
        "address": "Unit 5465 Box 6382nDPO AP 08044"
    },
    {
        "state": "DZ",
        "name": "Oued Bou Hamdu00e2ne",
        "city": "Tirhilt Ouadrar",
        "prov": "Blida",
        "region": {},
        "latt": "36.40728",
        "longt": "2.92159",
        "address": "6709 Calvin Roads Suite 310nPort Dustin, CT 92262"
    },
    {
        "state": "DZ",
        "name": "Mechta u2019Au00efn Kesku00eas",
        "city": "Mechta u2019Au00efn Kesku00eas",
        "prov": "Oum el Bouaghi",
        "region": {},
        "latt": "35.82823",
        "longt": "7.7491",
        "address": "52159 Joshua JunctionnSouth Roger, OK 76615"
    },
    {
        "state": "DZ",
        "name": "Tala Ou Rheras",
        "city": "Au00eft Bou Ziit",
        "prov": "Bu00e9jau00efa",
        "region": {},
        "latt": "36.660599",
        "longt": "4.994895",
        "address": "8384 Jorge HarbornEast Brian, NC 01263"
    },
    {
        "state": "DZ",
        "name": "Chau00e2bet Bourrane",
        "city": "El Mssatfa",
        "prov": "Tiaret",
        "region": {},
        "latt": "35.16265",
        "longt": "0.82052",
        "address": "98324 Steele VillagenCynthiaberg, MS 66295"
    },
    {
        "state": "DZ",
        "name": "Mechta Au00efn el Kebira",
        "city": "Sidi Mu00e9rouane",
        "prov": "Jijel",
        "region": {},
        "latt": "36.58947",
        "longt": "6.28582",
        "address": "250 Powers CrossingnBernardstad, NV 02716"
    },
    {
        "state": "DZ",
        "name": "El Ouu00eedu00eer",
        "city": "El Ouidir",
        "prov": "Skikda",
        "region": {},
        "latt": "36.97852",
        "longt": "7.50949",
        "address": "2137 Daisy GrovenNew Rachel, TX 85299"
    },
    {
        "state": "DZ",
        "name": "Dar el Hadj el Habib",
        "city": "Dar el Hadj el Habib",
        "prov": "Sidi Bel Abbu00e8s",
        "region": {},
        "latt": "35.21481",
        "longt": "-0.36188",
        "address": "USS SmithnFPO AP 57667"
    },
    {
        "state": "DZ",
        "name": "Wilaya de Mostaganem",
        "city": "Sour",
        "prov": "Mostaganem",
        "region": {},
        "latt": "36",
        "longt": "0.33333",
        "address": "67488 Faulkner IslenDiazview, TN 52756"
    },
    {
        "state": "DZ",
        "name": "Irhil Alouanene",
        "city": "Amizour",
        "prov": "Bu00e9jau00efa",
        "region": {},
        "latt": "36.638821",
        "longt": "4.931593",
        "address": "24055 Weiss KeysnWilliamsburgh, AZ 07403"
    },
    {
        "state": "DZ",
        "name": "Mechta Au00efn el Kebira",
        "city": "Sidi Mu00e9rouane",
        "prov": "Jijel",
        "region": {},
        "latt": "36.58947",
        "longt": "6.28582",
        "address": "24520 Holland Ports Suite 076nNew Maryfort, OH 25089"
    },
    {
        "state": "DZ",
        "name": "El Adoui",
        "city": "Touazi",
        "prov": "Djelfa",
        "region": {},
        "latt": "34.76667",
        "longt": "2.8",
        "address": "6714 Kelly SquaresnSouth Thomasmouth, WI 79255"
    },
    {
        "state": "DZ",
        "name": "Wilaya de Mostaganem",
        "city": "Sour",
        "prov": "Mostaganem",
        "region": {},
        "latt": "36",
        "longt": "0.33333",
        "address": "96548 Tracy FallsnRichardstad, MO 31441"
    },
    {
        "state": "DZ",
        "name": "Zaouia Sidi Moussa",
        "city": "Bordj Omar Driss",
        "prov": "Illizi",
        "region": {},
        "latt": "28.102877",
        "longt": "6.74804",
        "address": "PSC 2051, Box 4908nAPO AP 38341"
    },
    {
        "state": "DZ",
        "name": "Oued Ben Adjil",
        "city": "Gueseria",
        "prov": "Djelfa",
        "region": {},
        "latt": "35.462084",
        "longt": "3.488488",
        "address": "78605 Brown IslandnAlextown, AL 14166"
    },
    {
        "state": "DZ",
        "name": "Bled Khozzana",
        "city": "Ternanech",
        "prov": "Tiaret",
        "region": {},
        "latt": "35.01262",
        "longt": "0.98689",
        "address": "46942 Carter SpringsnMillerberg, NC 41033"
    },
    {
        "state": "DZ",
        "name": "Akbou",
        "city": "Akbou",
        "prov": "Bu00e9jau00efa",
        "region": {},
        "latt": "36.4575",
        "longt": "4.53494",
        "address": "623 Jenna Manor Apt. 098nSilvachester, SC 22701"
    },
    {
        "state": "DZ",
        "name": "Sidi Ben Hamou",
        "city": "Matmoura ech Choual",
        "prov": "Saida",
        "region": {},
        "latt": "34.95018",
        "longt": "0.38083",
        "address": "2254 Allison Lock Apt. 133nNorth Amy, CA 73683"
    },
    {
        "state": "DZ",
        "name": "Oued Lehguigane",
        "city": "Rouina",
        "prov": "Au00efn Defla",
        "region": {},
        "latt": "36.241026",
        "longt": "1.819481",
        "address": "43986 Benjamin PassagenNew Charlesborough, MD 87541"
    },
    {
        "state": "DZ",
        "name": "Oued Lehguigane",
        "city": "Rouina",
        "prov": "Au00efn Defla",
        "region": {},
        "latt": "36.241026",
        "longt": "1.819481",
        "address": "8609 Shaw Summit Apt. 952nWalshfort, NH 52974"
    },
    {
        "state": "DZ",
        "name": "Djebel el Alahoum",
        "city": "Bordj du Cheu00efkh",
        "prov": "Souk Ahras",
        "region": {},
        "latt": "36.194083",
        "longt": "8.219424",
        "address": "27522 Odonnell ParkwaynWest Donnatown, OK 69871"
    },
    {
        "state": "DZ",
        "name": "El Adoui",
        "city": "Touazi",
        "prov": "Djelfa",
        "region": {},
        "latt": "34.76667",
        "longt": "2.8",
        "address": "49589 Robert Ridge Suite 077nGomezhaven, ID 41944"
    },
    {
        "state": "DZ",
        "name": "Ru00e2s Addala Mellel",
        "city": "Douar M'Haba",
        "prov": "Tipaza",
        "region": {},
        "latt": "36.58333",
        "longt": "1.93333",
        "address": "7117 Cheryl BridgenEast Kevinfurt, LA 41373"
    },
    {
        "state": "DZ",
        "name": "Dau00efet Oulad Serour",
        "city": "Mosbah",
        "prov": "Saida",
        "region": {},
        "latt": "34.4197",
        "longt": "0.16328",
        "address": "91139 Collins Roads Apt. 333nNew Renee, OR 83700"
    },
    {
        "state": "DZ",
        "name": "Irhil Alouanene",
        "city": "Amizour",
        "prov": "Bu00e9jau00efa",
        "region": {},
        "latt": "36.638821",
        "longt": "4.931593",
        "address": "774 Nguyen Junctions Suite 491nSaraburgh, MS 90447"
    },
    {
        "state": "DZ",
        "name": "Oued Lehguigane",
        "city": "Rouina",
        "prov": "Au00efn Defla",
        "region": {},
        "latt": "36.241026",
        "longt": "1.819481",
        "address": "Unit 9258 Box 1811nDPO AE 96936"
    },
    {
        "state": "DZ",
        "name": "Hadjar el Hamra",
        "city": "El Ghicha",
        "prov": "Laghouat",
        "region": {},
        "latt": "33.90317",
        "longt": "2.16138",
        "address": "5335 Darlene ParksnAmyville, ND 77807"
    },
    {
        "state": "DZ",
        "name": "Sidi Ben Hamou",
        "city": "Matmoura ech Choual",
        "prov": "Saida",
        "region": {},
        "latt": "34.95018",
        "longt": "0.38083",
        "address": "928 Michelle Rapids Apt. 083nDanielchester, WY 78263"
    },
    {
        "state": "DZ",
        "name": "El Khobna",
        "city": "El Khobna",
        "prov": "Ouargla",
        "region": {},
        "latt": "33.10028",
        "longt": "6.4075",
        "address": "016 Paul Island Apt. 861nPort Danielfurt, IA 59117"
    },
    {
        "state": "DZ",
        "name": "u2019Au00efn Nedjau00efl",
        "city": "Tadzert",
        "prov": "Batna",
        "region": {},
        "latt": "35.307265",
        "longt": "5.526945",
        "address": "6619 Henson SpursnFosterborough, CO 05139"
    },
    {
        "state": "DZ",
        "name": "Djarallah",
        "city": "Djarallah",
        "prov": "Batna",
        "region": {},
        "latt": "35.07835",
        "longt": "6.35773",
        "address": "36107 Gary Path Suite 736nWest Danielhaven, SC 42943"
    },
    {
        "state": "DZ",
        "name": "Oued Sefah",
        "city": "Lagaguena",
        "prov": "Au00efn Defla",
        "region": {},
        "latt": "36.023844",
        "longt": "2.341223",
        "address": "000 Anthony Neck Apt. 412nToniborough, IA 27375"
    },
    {
        "state": "DZ",
        "name": "Zru00eebet Beni Guendou00fbz",
        "city": "Ain ech Cheraya",
        "prov": "Skikda",
        "region": {},
        "latt": "36.88611",
        "longt": "6.70639",
        "address": "650 Mary Harbors Suite 735nBiancaborough, MN 26664"
    },
    {
        "state": "DZ",
        "name": "Irhil Alouanene",
        "city": "Amizour",
        "prov": "Bu00e9jau00efa",
        "region": {},
        "latt": "36.638821",
        "longt": "4.931593",
        "address": "02953 Jeffrey HighwaynSouth Erikabury, OR 64248"
    },
    {
        "state": "DZ",
        "name": "Aberiou00fbn",
        "city": "Tifirassene",
        "prov": "Jijel",
        "region": {},
        "latt": "36.85",
        "longt": "6.23333",
        "address": "USNS VillanuevanFPO AA 28585"
    },
    {
        "state": "DZ",
        "name": "Moul el Laham",
        "city": "u2019Au00efn Oueba",
        "prov": "Tiaret",
        "region": {},
        "latt": "34.99318",
        "longt": "1.3197",
        "address": "377 Michelle Forges Suite 142nBullockville, NC 78604"
    },
    {
        "state": "DZ",
        "name": "Bordj Hamaoui",
        "city": "Besbes",
        "prov": "El Tarf",
        "region": {},
        "latt": "36.710896",
        "longt": "7.933439",
        "address": "354 Brian FallsnRichardston, LA 12097"
    },
    {
        "state": "DZ",
        "name": "Oued Kef Labiod",
        "city": "El Houachi",
        "prov": "M'Sila",
        "region": {},
        "latt": "35.70333",
        "longt": "5.03672",
        "address": "9155 Martinez FortnGrahamhaven, ME 11932"
    },
    {
        "state": "DZ",
        "name": "Chaba Bou Tennzer",
        "city": "Douar Zerama",
        "prov": "Mascara",
        "region": {},
        "latt": "35.498425",
        "longt": "0.337919",
        "address": "33232 Wendy InletnNorth Carmenside, KS 64442"
    },
    {
        "state": "DZ",
        "name": "Djebel Medarreg",
        "city": "Tenira",
        "prov": "Sidi Bel Abbu00e8s",
        "region": {},
        "latt": "35.01369",
        "longt": "-0.49011",
        "address": "991 Thomas OrchardnRobertchester, MN 41383"
    },
    {
        "state": "DZ",
        "name": "Commune de Zemmora",
        "city": "Zemoura",
        "prov": "Relizane",
        "region": {},
        "latt": "35.716667",
        "longt": "0.75",
        "address": "590 Katherine CirclesnNorth Fernando, WV 49833"
    },
    {
        "state": "DZ",
        "name": "Kassar Ouglele",
        "city": "Mechtat Medjouda Loutania",
        "prov": "El Tarf",
        "region": {},
        "latt": "36.71675",
        "longt": "8.42335",
        "address": "Unit 2048 Box 9155nDPO AA 33176"
    },
    {
        "state": "DZ",
        "name": "Mechta Tabesbast",
        "city": "Mechta Tabesbast",
        "prov": "Mila",
        "region": {},
        "latt": "36.281599",
        "longt": "6.172397",
        "address": "52193 Riley ShoalsnHollowayborough, CO 14240"
    },
    {
        "state": "DZ",
        "name": "Wilaya de Mostaganem",
        "city": "Sour",
        "prov": "Mostaganem",
        "region": {},
        "latt": "36",
        "longt": "0.33333",
        "address": "PSC 9128, Box 6027nAPO AP 47523"
    },
    {
        "state": "DZ",
        "name": "Koudiat Bou Rdimene",
        "city": "Ouled Rahmoun",
        "prov": "Constantine",
        "region": {},
        "latt": "36.146944",
        "longt": "6.73",
        "address": "78802 Butler ViaductnMurphymouth, NM 33923"
    },
    {
        "state": "DZ",
        "name": "Sidi Bou Messabeh",
        "city": "Khemis Miliana",
        "prov": "Au00efn Defla",
        "region": {},
        "latt": "36.305398",
        "longt": "2.22483",
        "address": "5157 Scott Orchard Apt. 023nRobinsonville, GA 30983"
    },
    {
        "state": "DZ",
        "name": "Ferme Riccio",
        "city": "Boufatis",
        "prov": "Oran",
        "region": {},
        "latt": "35.68853",
        "longt": "-0.40379",
        "address": "9734 Brown DrivenBrownport, NV 25244"
    },
    {
        "state": "DZ",
        "name": "Bled el Ghocel",
        "city": "Remchi",
        "prov": "Tlemcen",
        "region": {},
        "latt": "35.031111",
        "longt": "-1.374722",
        "address": "28544 Alec HillsnLake Karenton, VT 79997"
    },
    {
        "state": "DZ",
        "name": "Mercure Alger Grand Hotel",
        "city": "Bab Ezzouar",
        "prov": "Boumerdes",
        "region": {},
        "latt": "36.71381",
        "longt": "3.19607",
        "address": "3061 Walker ShoalnWest Sharonburgh, NJ 98534"
    },
    {
        "state": "DZ",
        "name": "Sidi Mechennfar",
        "city": "Sebau00efn Au00efoun",
        "prov": "Tiaret",
        "region": {},
        "latt": "35.45064",
        "longt": "1.610312",
        "address": "68669 Hall Locks Suite 201nEast Shelly, AR 03801"
    },
    {
        "state": "DZ",
        "name": "Douar Merzoughi",
        "city": "Douar Merzoughi",
        "prov": "Medea",
        "region": {},
        "latt": "35.602304",
        "longt": "2.377448",
        "address": "08768 Elizabeth Port Suite 204nWest Melvin, HI 13611"
    },
    {
        "state": "DZ",
        "name": "Djebel Guezoul",
        "city": "Tiaret",
        "prov": "Tiaret",
        "region": {},
        "latt": "35.408027",
        "longt": "1.355826",
        "address": "7869 Hawkins PortsnEast Jacobmouth, MS 97681"
    },
    {
        "state": "DZ",
        "name": "Oued Kef Labiod",
        "city": "El Houachi",
        "prov": "M'Sila",
        "region": {},
        "latt": "35.70333",
        "longt": "5.03672",
        "address": "072 Murphy GatewaynPort Angelaport, LA 45844"
    },
    {
        "state": "DZ",
        "name": "u2019Au00efn Tamdinnt",
        "city": "Tadjera",
        "prov": "Batna",
        "region": {},
        "latt": "35.23418",
        "longt": "6.48348",
        "address": "5247 Erica Crossing Apt. 424nNelsonberg, WI 64038"
    },
    {
        "state": "DZ",
        "name": "Chaba Bou Tennzer",
        "city": "Douar Zerama",
        "prov": "Mascara",
        "region": {},
        "latt": "35.498425",
        "longt": "0.337919",
        "address": "270 Crystal FordsnPort Julieborough, SD 75039"
    },
    {
        "state": "DZ",
        "name": "Djebel Mou00fbnu00eet",
        "city": "u2019Ouchba",
        "prov": "Tlemcen",
        "region": {},
        "latt": "34.883333",
        "longt": "-1.2",
        "address": "901 Christopher Ports Suite 647nWest Timothy, ID 63921"
    },
    {
        "state": "DZ",
        "name": "Ich Ou Agab",
        "city": "Oulhadj",
        "prov": "Khenchela",
        "region": {},
        "latt": "34.92392",
        "longt": "6.73889",
        "address": "4979 Richard Brook Apt. 998nGonzalezside, ND 08536"
    },
    {
        "state": "DZ",
        "name": "Mzaret Sidi Khelif",
        "city": "Didouche Mourad",
        "prov": "Constantine",
        "region": {},
        "latt": "36.418333",
        "longt": "6.696111",
        "address": "38298 Andrea Falls Suite 269nNew Nicoleside, OK 82019"
    },
    {
        "state": "DZ",
        "name": "Djebel Medarreg",
        "city": "Tenira",
        "prov": "Sidi Bel Abbu00e8s",
        "region": {},
        "latt": "35.01369",
        "longt": "-0.49011",
        "address": "825 Kyle Course Suite 539nMorganstad, ID 69437"
    },
    {
        "state": "DZ",
        "name": "Chabet Merra",
        "city": "Mechta Sidi Mu00e2ch",
        "prov": "Guelma",
        "region": {},
        "latt": "36.15861",
        "longt": "7.17194",
        "address": "651 Thompson HarborsnNicholaston, CT 15493"
    },
    {
        "state": "DZ",
        "name": "Guernet Belrha",
        "city": "Au00efn Touta",
        "prov": "Batna",
        "region": {},
        "latt": "35.368052",
        "longt": "5.819315",
        "address": "PSC 6124, Box 5674nAPO AE 55678"
    },
    {
        "state": "DZ",
        "name": "Djebel Rabah",
        "city": "Boukaat el Abau00efb",
        "prov": "Chlef",
        "region": {},
        "latt": "36.02443",
        "longt": "1.34543",
        "address": "4159 Rogers RownPort Mackenzie, MT 65622"
    },
    {
        "state": "DZ",
        "name": "Commune de Touggourt",
        "city": "Touggourt",
        "prov": "Ouargla",
        "region": {},
        "latt": "33.1",
        "longt": "6.06667",
        "address": "576 Olson Falls Suite 766nWest Kevin, CT 97549"
    },
    {
        "state": "DZ",
        "name": "Commune du2019Ouled Maalah",
        "city": "Takhemaret",
        "prov": "Mostaganem",
        "region": {},
        "latt": "36.08333",
        "longt": "0.66667",
        "address": "Unit 5135 Box 2083nDPO AE 89372"
    },
    {
        "state": "DZ",
        "name": "Mechta Ouled Messaoud",
        "city": "Barika",
        "prov": "Batna",
        "region": {},
        "latt": "35.36466",
        "longt": "5.30837",
        "address": "310 Jeffrey AlleynTimothyton, RI 82242"
    },
    {
        "state": "DZ",
        "name": "Mechta Redjas",
        "city": "Mechta Redjas",
        "prov": "Mila",
        "region": {},
        "latt": "36.42827",
        "longt": "6.12035",
        "address": "21789 Kane Roads Apt. 482nEast Kristinton, ND 96163"
    },
    {
        "state": "DZ",
        "name": "Rehed el Kriane",
        "city": "El Melah",
        "prov": "El Tarf",
        "region": {},
        "latt": "36.85639",
        "longt": "8.30361",
        "address": "34712 Amber ValleysnPhillipsbury, AR 66222"
    },
    {
        "state": "DZ",
        "name": "Bled el Kherba",
        "city": "Abdelmoumen",
        "prov": "Tiaret",
        "region": {},
        "latt": "35.27449",
        "longt": "1.46091",
        "address": "1254 Vazquez PlazanAdamsland, LA 24234"
    },
    {
        "state": "DZ",
        "name": "Oued Sefah",
        "city": "Lagaguena",
        "prov": "Au00efn Defla",
        "region": {},
        "latt": "36.023844",
        "longt": "2.341223",
        "address": "38979 Rebecca Forest Apt. 581nWest Rhonda, NC 43984"
    },
    {
        "state": "DZ",
        "name": "Sidi Abd er Rahmane",
        "city": "Ech Chelh",
        "prov": "Chlef",
        "region": {},
        "latt": "36.528264",
        "longt": "1.456313",
        "address": "Unit 9418 Box 1120nDPO AA 66484"
    },
    {
        "state": "DZ",
        "name": "Oued Sefah",
        "city": "Lagaguena",
        "prov": "Au00efn Defla",
        "region": {},
        "latt": "36.023844",
        "longt": "2.341223",
        "address": "2470 Mary StreetnSouth Stevenfort, NC 10951"
    },
    {
        "state": "DZ",
        "name": "Commune de Zemmora",
        "city": "Zemoura",
        "prov": "Relizane",
        "region": {},
        "latt": "35.716667",
        "longt": "0.75",
        "address": "11338 Arroyo Branch Apt. 904nKellyfort, VA 16655"
    },
    {
        "state": "DZ",
        "name": "Sidi Abd er Rahmane",
        "city": "Ech Chelh",
        "prov": "Chlef",
        "region": {},
        "latt": "36.528264",
        "longt": "1.456313",
        "address": "28898 Kathleen Turnpike Apt. 826nSouth Joshua, KY 57355"
    },
    {
        "state": "DZ",
        "name": "Teniet Bou Ouachi",
        "city": "Mechtat el Djemal",
        "prov": "Tissemsilt",
        "region": {},
        "latt": "35.84645",
        "longt": "1.87283",
        "address": "USCGC MontgomerynFPO AP 04409"
    },
    {
        "state": "DZ",
        "name": "Citu00e9 Khelifa Ben Mahmoud Pubic Garden",
        "city": "Ain el Bya",
        "prov": "Oran",
        "region": {},
        "latt": "35.8525",
        "longt": "-0.32358",
        "address": "USNS GarcianFPO AP 85442"
    },
    {
        "state": "DZ",
        "name": "Djebel Rabah",
        "city": "Boukaat el Abau00efb",
        "prov": "Chlef",
        "region": {},
        "latt": "36.02443",
        "longt": "1.34543",
        "address": "76534 Shaw LoopnPort Lisamouth, MA 28068"
    },
    {
        "state": "DZ",
        "name": "Ouled Rouadhi",
        "city": "Ouled Rouadhi",
        "prov": "Chlef",
        "region": {},
        "latt": "36.228419",
        "longt": "1.399306",
        "address": "486 Hawkins Motorway Apt. 949nLake Cathy, WY 13332"
    },
    {
        "state": "DZ",
        "name": "Chau00e2bet Bourrane",
        "city": "El Mssatfa",
        "prov": "Tiaret",
        "region": {},
        "latt": "35.16265",
        "longt": "0.82052",
        "address": "10225 Vaughan Track Apt. 822nRiggsbury, MS 03831"
    },
    {
        "state": "DZ",
        "name": "u2019Au00efn el Bey",
        "city": "u2019Au00efn el Bey",
        "prov": "Tu00e9bessa",
        "region": {},
        "latt": "35.48668",
        "longt": "8.31921",
        "address": "264 Wilson VillagenWest Sherri, KS 09093"
    },
    {
        "state": "DZ",
        "name": "Commune de Ben Su2019Rour",
        "city": "Ben Su2019rourr",
        "prov": "M'Sila",
        "region": {},
        "latt": "35.05",
        "longt": "4.56667",
        "address": "555 Winters FallsnNew Erikburgh, ID 50425"
    },
    {
        "state": "DZ",
        "name": "Oued el Aar",
        "city": "Mechtat el Hennchir",
        "prov": "Guelma",
        "region": {},
        "latt": "36.22677",
        "longt": "7.31552",
        "address": "USCGC YoungnFPO AP 54817"
    },
    {
        "state": "DZ",
        "name": "Zru00eebet Beni Guendou00fbz",
        "city": "Ain ech Cheraya",
        "prov": "Skikda",
        "region": {},
        "latt": "36.88611",
        "longt": "6.70639",
        "address": "9771 Aguilar TurnpikenLake Jonathan, IL 48416"
    },
    {
        "state": "DZ",
        "name": "Djebel Teniet er Rih",
        "city": "Tenezara",
        "prov": "Sidi Bel Abbu00e8s",
        "region": {},
        "latt": "34.91667",
        "longt": "-0.65",
        "address": "9957 Pace ManorsnWest Maria, DC 93384"
    },
    {
        "state": "DZ",
        "name": "Meridjet el Kala",
        "city": "Jijel",
        "prov": "Jijel",
        "region": {},
        "latt": "36.81667",
        "longt": "5.73333",
        "address": "45386 Tracy RivernPort Janet, NC 70267"
    },
    {
        "state": "DZ",
        "name": "Chaba Bou Tennzer",
        "city": "Douar Zerama",
        "prov": "Mascara",
        "region": {},
        "latt": "35.498425",
        "longt": "0.337919",
        "address": "1324 Dana TracknNorth Kellychester, PA 78762"
    },
    {
        "state": "DZ",
        "name": "Chabet Zacha",
        "city": "Sidi Makhlouf",
        "prov": "Laghouat",
        "region": {},
        "latt": "34.12825",
        "longt": "3.08387",
        "address": "9373 Derek CrossroadnNew Davidfurt, DE 39469"
    },
    {
        "state": "DZ",
        "name": "Zru00eebet Beni Guendou00fbz",
        "city": "Ain ech Cheraya",
        "prov": "Skikda",
        "region": {},
        "latt": "36.88611",
        "longt": "6.70639",
        "address": "Unit 6881 Box 9484nDPO AP 95907"
    },
    {
        "state": "DZ",
        "name": "Sidi Beskot",
        "city": "Berrouaghia",
        "prov": "Medea",
        "region": {},
        "latt": "36.095228",
        "longt": "2.928777",
        "address": "1185 Campbell Alley Suite 699nSharonfurt, AK 36713"
    },
    {
        "state": "DZ",
        "name": "u2019Au00efn Mbarek",
        "city": "Mechta Ouled Ben Amar",
        "prov": "Batna",
        "region": {},
        "latt": "35.32262",
        "longt": "5.0571",
        "address": "2566 Christian SpringsnEast Nicholasberg, VT 27283"
    },
    {
        "state": "DZ",
        "name": "Commune du2019Ouled Maalah",
        "city": "Takhemaret",
        "prov": "Mostaganem",
        "region": {},
        "latt": "36.08333",
        "longt": "0.66667",
        "address": "3975 Jose PlainsnBrittanytown, OR 11258"
    },
    {
        "state": "DZ",
        "name": "Djebel Rabah",
        "city": "Boukaat el Abau00efb",
        "prov": "Chlef",
        "region": {},
        "latt": "36.02443",
        "longt": "1.34543",
        "address": "110 Jean Lake Suite 334nRobinsonport, IA 25736"
    },
    {
        "state": "DZ",
        "name": "Mechtat Salah Bey",
        "city": "Au00efn Smara",
        "prov": "Constantine",
        "region": {},
        "latt": "36.33278",
        "longt": "6.51611",
        "address": "2537 Debra PortsnEast Brian, NE 70390"
    },
    {
        "state": "DZ",
        "name": "Oulad Ayad",
        "city": "Oulad Ayad",
        "prov": "Jijel",
        "region": {},
        "latt": "36.63957",
        "longt": "5.59524",
        "address": "01103 Howard Plains Apt. 252nAlexanderfort, DE 12232"
    },
    {
        "state": "DZ",
        "name": "Oulad Ayad",
        "city": "Oulad Ayad",
        "prov": "Jijel",
        "region": {},
        "latt": "36.63957",
        "longt": "5.59524",
        "address": "USNV MitchellnFPO AP 43642"
    },
    {
        "state": "DZ",
        "name": "Djarallah",
        "city": "Djarallah",
        "prov": "Batna",
        "region": {},
        "latt": "35.07835",
        "longt": "6.35773",
        "address": "451 Charles CanyonnMariehaven, MT 10251"
    },
    {
        "state": "DZ",
        "name": "Oued el Aar",
        "city": "Mechtat el Hennchir",
        "prov": "Guelma",
        "region": {},
        "latt": "36.22677",
        "longt": "7.31552",
        "address": "042 Gabriella GlennLake Karen, ID 06201"
    },
    {
        "state": "DZ",
        "name": "Bled el Ma Lassoued",
        "city": "Mechta Ben Meriem",
        "prov": "Tu00e9bessa",
        "region": {},
        "latt": "35.25",
        "longt": "8.25",
        "address": "21796 Miller PortsnEast Daniel, GA 21906"
    },
    {
        "state": "DZ",
        "name": "Irhil Alouanene",
        "city": "Amizour",
        "prov": "Bu00e9jau00efa",
        "region": {},
        "latt": "36.638821",
        "longt": "4.931593",
        "address": "4330 Emily ParkwaysnLake Keithton, DC 19898"
    },
    {
        "state": "DZ",
        "name": "Wilaya de Mostaganem",
        "city": "Sour",
        "prov": "Mostaganem",
        "region": {},
        "latt": "36",
        "longt": "0.33333",
        "address": "708 Nicole Mews Suite 167nNorth Tanya, MO 61421"
    },
    {
        "state": "DZ",
        "name": "Teniet Bou Ouachi",
        "city": "Mechtat el Djemal",
        "prov": "Tissemsilt",
        "region": {},
        "latt": "35.84645",
        "longt": "1.87283",
        "address": "048 Denise SummitnLake Davidfort, NJ 04699"
    },
    {
        "state": "DZ",
        "name": "Kassar Ouglele",
        "city": "Mechtat Medjouda Loutania",
        "prov": "El Tarf",
        "region": {},
        "latt": "36.71675",
        "longt": "8.42335",
        "address": "042 Tina Drive Suite 302nMartinchester, TN 88735"
    },
    {
        "state": "DZ",
        "name": "Krebna",
        "city": "Krebna",
        "prov": "El Oued",
        "region": {},
        "latt": "33.41233",
        "longt": "6.95434",
        "address": "10691 Tiffany VistanSouth Ashley, HI 25776"
    },
    {
        "state": "DZ",
        "name": "Commune de Zemmora",
        "city": "Zemoura",
        "prov": "Relizane",
        "region": {},
        "latt": "35.716667",
        "longt": "0.75",
        "address": "4386 Yvonne LandingnMcmillanmouth, SC 39447"
    },
    {
        "state": "DZ",
        "name": "Oued el Bourhari",
        "city": "Lardjem",
        "prov": "Tissemsilt",
        "region": {},
        "latt": "35.766667",
        "longt": "1.533333",
        "address": "51301 Mcdonald Isle Suite 989nNorth Jessicaville, MA 23539"
    },
    {
        "state": "DZ",
        "name": "Zaouia Sidi Bekri",
        "city": "Zaouia Sidi Bekri",
        "prov": "Adrar",
        "region": {},
        "latt": "27.79246",
        "longt": "-0.24679",
        "address": "2436 Ayala Bypass Suite 451nSouth Sharonview, NE 67005"
    },
    {
        "state": "DZ",
        "name": "Mzouria",
        "city": "M'Sila",
        "prov": "M'Sila",
        "region": {},
        "latt": "35.68574",
        "longt": "4.47721",
        "address": "92788 Fry Rest Suite 749nBuckleyborough, AL 75389"
    },
    {
        "state": "DZ",
        "name": "Oued el Bourhari",
        "city": "Lardjem",
        "prov": "Tissemsilt",
        "region": {},
        "latt": "35.766667",
        "longt": "1.533333",
        "address": "42386 Angel Via Suite 678nNorth Meghan, NV 48049"
    },
    {
        "state": "DZ",
        "name": "Zru00eebet Beni Guendou00fbz",
        "city": "Ain ech Cheraya",
        "prov": "Skikda",
        "region": {},
        "latt": "36.88611",
        "longt": "6.70639",
        "address": "705 Amy PathnRuthside, KY 38080"
    },
    {
        "state": "DZ",
        "name": "Ganntara Ben Died",
        "city": "Mechta el Fessiki",
        "prov": "Mila",
        "region": {},
        "latt": "36.15",
        "longt": "5.966667",
        "address": "4574 Timothy SquaresnPhillipsview, FL 50437"
    },
    {
        "state": "DZ",
        "name": "Oued Bou Hamdu00e2ne",
        "city": "Tirhilt Ouadrar",
        "prov": "Blida",
        "region": {},
        "latt": "36.40728",
        "longt": "2.92159",
        "address": "498 Melvin WallnPort Kevin, AR 42340"
    },
    {
        "state": "DZ",
        "name": "Kifene er Rakhma",
        "city": "Sidi Salem",
        "prov": "Tu00e9bessa",
        "region": {},
        "latt": "34.51667",
        "longt": "7.45",
        "address": "4000 Lane Coves Apt. 811nValencialand, NE 26256"
    },
    {
        "state": "DZ",
        "name": "Commune du2019Ouarizane",
        "city": "Ouarizane",
        "prov": "Relizane",
        "region": {},
        "latt": "36.03333",
        "longt": "0.9",
        "address": "358 Ruiz Inlet Apt. 507nEast Shelly, SD 31479"
    },
    {
        "state": "DZ",
        "name": "Akbou",
        "city": "Akbou",
        "prov": "Bu00e9jau00efa",
        "region": {},
        "latt": "36.4575",
        "longt": "4.53494",
        "address": "28191 Kimberly Drive Suite 457nJohnsonmouth, AR 61293"
    },
    {
        "state": "DZ",
        "name": "u2019Au00efn Roumada",
        "city": "Ouled Bessem",
        "prov": "Tissemsilt",
        "region": {},
        "latt": "35.73196",
        "longt": "1.82052",
        "address": "Unit 9118 Box 7928nDPO AP 16508"
    },
    {
        "state": "DZ",
        "name": "Djebel Rabah",
        "city": "Boukaat el Abau00efb",
        "prov": "Chlef",
        "region": {},
        "latt": "36.02443",
        "longt": "1.34543",
        "address": "50633 Courtney StreetsnLake Lisaview, DC 30079"
    },
    {
        "state": "DZ",
        "name": "Chaba Bou Tennzer",
        "city": "Douar Zerama",
        "prov": "Mascara",
        "region": {},
        "latt": "35.498425",
        "longt": "0.337919",
        "address": "929 Karen LandnMartineztown, NJ 67590"
    },
    {
        "state": "DZ",
        "name": "El Guattar",
        "city": "Douar Brourate",
        "prov": "Mascara",
        "region": {},
        "latt": "35.44324",
        "longt": "0.0662",
        "address": "19628 Sandra Trail Suite 508nEast Peterberg, NC 16262"
    },
    {
        "state": "DZ",
        "name": "u2019Au00efn Tamdinnt",
        "city": "Tadjera",
        "prov": "Batna",
        "region": {},
        "latt": "35.23418",
        "longt": "6.48348",
        "address": "USNV DavisnFPO AA 04104"
    },
    {
        "state": "DZ",
        "name": "Sidi Ben Hamou",
        "city": "Matmoura ech Choual",
        "prov": "Saida",
        "region": {},
        "latt": "34.95018",
        "longt": "0.38083",
        "address": "16036 Jamie Ferry Apt. 890nLake Tyler, CA 57301"
    },
    {
        "state": "DZ",
        "name": "Commune du2019Ouled Maalah",
        "city": "Takhemaret",
        "prov": "Mostaganem",
        "region": {},
        "latt": "36.08333",
        "longt": "0.66667",
        "address": "PSC 5860, Box 7459nAPO AE 23124"
    },
    {
        "state": "DZ",
        "name": "Fedj ed Dedjal",
        "city": "Fedj ed Dedjal",
        "prov": "Tu00e9bessa",
        "region": {},
        "latt": "35.71608",
        "longt": "8.176219",
        "address": "0216 Malone NecknLake Lisaborough, WY 36276"
    },
    {
        "state": "DZ",
        "name": "Chaba Bou Tennzer",
        "city": "Douar Zerama",
        "prov": "Mascara",
        "region": {},
        "latt": "35.498425",
        "longt": "0.337919",
        "address": "41159 Hunt Forge Apt. 819nJamieberg, TX 86752"
    },
    {
        "state": "DZ",
        "name": "Sidi Abd er Rahmane",
        "city": "Ech Chelh",
        "prov": "Chlef",
        "region": {},
        "latt": "36.528264",
        "longt": "1.456313",
        "address": "18339 Kim PrairienLake Stacey, ME 97797"
    },
    {
        "state": "DZ",
        "name": "Dar Kbira",
        "city": "Dar Srhira",
        "prov": "Bordj Bou Arru00e9ridj",
        "region": {},
        "latt": "35.99279",
        "longt": "4.46392",
        "address": "74341 Joshua TrailnSouth Matthewville, TX 65214"
    },
    {
        "state": "DZ",
        "name": "Bled el Kherba",
        "city": "Abdelmoumen",
        "prov": "Tiaret",
        "region": {},
        "latt": "35.27449",
        "longt": "1.46091",
        "address": "02040 Lori ShoalsnRobertsfurt, OH 90095"
    },
    {
        "state": "DZ",
        "name": "Bordj Hamaoui",
        "city": "Besbes",
        "prov": "El Tarf",
        "region": {},
        "latt": "36.710896",
        "longt": "7.933439",
        "address": "795 Kelly Ferry Apt. 735nClementsburgh, DC 44669"
    },
    {
        "state": "DZ",
        "name": "Takroumt Aouana",
        "city": "Takroumt Aouana",
        "prov": "Batna",
        "region": {},
        "latt": "34.97708",
        "longt": "6.03956",
        "address": "23931 Kelly VillagenCindychester, OK 91422"
    },
    {
        "state": "DZ",
        "name": "u2019Au00efn Roumada",
        "city": "Ouled Bessem",
        "prov": "Tissemsilt",
        "region": {},
        "latt": "35.73196",
        "longt": "1.82052",
        "address": "745 Brandon SquaresnPort Benjaminville, MT 94294"
    },
    {
        "state": "DZ",
        "name": "Oued Lehguigane",
        "city": "Rouina",
        "prov": "Au00efn Defla",
        "region": {},
        "latt": "36.241026",
        "longt": "1.819481",
        "address": "71285 Clifford Garden Apt. 394nJonesborough, WA 22399"
    },
    {
        "state": "DZ",
        "name": "Bou Djamane",
        "city": "Taghzout",
        "prov": "Chlef",
        "region": {},
        "latt": "36.42448",
        "longt": "1.033966",
        "address": "160 Nicole HillnDavisberg, NE 45529"
    },
    {
        "state": "DZ",
        "name": "Zru00eebet Ammou00fbch",
        "city": "Cheraia",
        "prov": "Skikda",
        "region": {},
        "latt": "36.99667",
        "longt": "6.51556",
        "address": "51087 James Mountains Suite 060nNorth Nicole, KS 63458"
    },
    {
        "state": "DZ",
        "name": "Commune de Zemmora",
        "city": "Zemoura",
        "prov": "Relizane",
        "region": {},
        "latt": "35.716667",
        "longt": "0.75",
        "address": "003 Erin Viaduct Suite 541nLake Markview, IA 63808"
    },
    {
        "state": "DZ",
        "name": "Oued Bou Hamdu00e2ne",
        "city": "Tirhilt Ouadrar",
        "prov": "Blida",
        "region": {},
        "latt": "36.40728",
        "longt": "2.92159",
        "address": "3565 White ShorenNew Destinyshire, IN 39622"
    },
    {
        "state": "DZ",
        "name": "Sidi Beskot",
        "city": "Berrouaghia",
        "prov": "Medea",
        "region": {},
        "latt": "36.095228",
        "longt": "2.928777",
        "address": "26812 Lisa Way Apt. 982nArthurmouth, SC 68769"
    },
    {
        "state": "DZ",
        "name": "Nzaouat Oulad Moulay",
        "city": "Stile",
        "prov": "El Oued",
        "region": {},
        "latt": "34.22173",
        "longt": "5.92783",
        "address": "PSC 5481, Box 4419nAPO AP 86911"
    },
    {
        "state": "DZ",
        "name": "Hammar Merzich",
        "city": "Tessala",
        "prov": "Sidi Bel Abbu00e8s",
        "region": {},
        "latt": "35.196876",
        "longt": "-0.808225",
        "address": "937 Cruz Hollow Suite 441nNew Denise, NY 36870"
    },
    {
        "state": "DZ",
        "name": "Oued Lehguigane",
        "city": "Rouina",
        "prov": "Au00efn Defla",
        "region": {},
        "latt": "36.241026",
        "longt": "1.819481",
        "address": "193 Rios DividenNew Sean, IN 42502"
    },
    {
        "state": "DZ",
        "name": "Bled Khozzana",
        "city": "Ternanech",
        "prov": "Tiaret",
        "region": {},
        "latt": "35.01262",
        "longt": "0.98689",
        "address": "097 Martinez Squares Suite 610nSanchezfurt, RI 80984"
    },
    {
        "state": "DZ",
        "name": "Tinnzert",
        "city": "Mechta Ain Hallal",
        "prov": "Su00e9tif",
        "region": {},
        "latt": "35.77057",
        "longt": "5.39932",
        "address": "582 Lyons Valleys Suite 871nKelleymouth, OH 34509"
    },
    {
        "state": "DZ",
        "name": "Commune de Zemmora",
        "city": "Zemoura",
        "prov": "Relizane",
        "region": {},
        "latt": "35.716667",
        "longt": "0.75",
        "address": "64412 Amanda Mission Suite 651nLake Julieside, MT 77510"
    },
    {
        "state": "DZ",
        "name": "Chaba Bou Tennzer",
        "city": "Douar Zerama",
        "prov": "Mascara",
        "region": {},
        "latt": "35.498425",
        "longt": "0.337919",
        "address": "PSC 6164, Box 9652nAPO AA 38870"
    },
    {
        "state": "DZ",
        "name": "Kassar Ouglele",
        "city": "Mechtat Medjouda Loutania",
        "prov": "El Tarf",
        "region": {},
        "latt": "36.71675",
        "longt": "8.42335",
        "address": "15379 Anderson Lights Apt. 509nEast Jeremy, KS 96336"
    },
    {
        "state": "DZ",
        "name": "u2019Au00efn Teboucha",
        "city": "'Ain Teboucha",
        "prov": "M'Sila",
        "region": {},
        "latt": "35.58947",
        "longt": "4.83544",
        "address": "19490 Nguyen StravenuenSouth Joseph, DC 41406"
    },
    {
        "state": "DZ",
        "name": "Ouled Rouadhi",
        "city": "Ouled Rouadhi",
        "prov": "Chlef",
        "region": {},
        "latt": "36.228419",
        "longt": "1.399306",
        "address": "416 Jamie Mountain Apt. 816nCarrton, NY 11783"
    },
    {
        "state": "DZ",
        "name": "Oued Tagnana",
        "city": "Ouakda",
        "prov": "Bu00e9char",
        "region": {},
        "latt": "31.672696",
        "longt": "-2.134136",
        "address": "106 Mills Station Suite 321nDebramouth, CO 50629"
    },
    {
        "state": "DZ",
        "name": "Gadet Ben Rbia",
        "city": "u2019Au00efn Mzira",
        "prov": "Tiaret",
        "region": {},
        "latt": "34.87691",
        "longt": "1.02131",
        "address": "54623 Williams LightsnWest Erikaport, AZ 97655"
    },
    {
        "state": "DZ",
        "name": "Tala Ou Rheras",
        "city": "Au00eft Bou Ziit",
        "prov": "Bu00e9jau00efa",
        "region": {},
        "latt": "36.660599",
        "longt": "4.994895",
        "address": "80712 Perez Stravenue Apt. 811nProctorview, KY 24927"
    },
    {
        "state": "DZ",
        "name": "Douar Merzoughi",
        "city": "Douar Merzoughi",
        "prov": "Medea",
        "region": {},
        "latt": "35.602304",
        "longt": "2.377448",
        "address": "47555 Young IslandsnPort David, NH 25284"
    },
    {
        "state": "DZ",
        "name": "Mechta Au00efn el Kebira",
        "city": "Sidi Mu00e9rouane",
        "prov": "Jijel",
        "region": {},
        "latt": "36.58947",
        "longt": "6.28582",
        "address": "2289 Pugh GlennEast Anthony, AL 17890"
    },
    {
        "state": "DZ",
        "name": "Oued Mannreg",
        "city": "Tadjmout",
        "prov": "Laghouat",
        "region": {},
        "latt": "33.903933",
        "longt": "2.474605",
        "address": "3047 Donna ManorsnNorth Jessicaside, NE 37586"
    },
    {
        "state": "DZ",
        "name": "Bled el Kherba",
        "city": "Abdelmoumen",
        "prov": "Tiaret",
        "region": {},
        "latt": "35.27449",
        "longt": "1.46091",
        "address": "6244 Morgan Curve Apt. 491nWest Jessicaborough, WI 88049"
    },
    {
        "state": "DZ",
        "name": "Douar Merzoughi",
        "city": "Douar Merzoughi",
        "prov": "Medea",
        "region": {},
        "latt": "35.602304",
        "longt": "2.377448",
        "address": "144 Barnes IslandnNorth Katiemouth, SC 24385"
    },
    {
        "state": "DZ",
        "name": "Zru00eebet Beni Guendou00fbz",
        "city": "Ain ech Cheraya",
        "prov": "Skikda",
        "region": {},
        "latt": "36.88611",
        "longt": "6.70639",
        "address": "Unit 7150 Box 1744nDPO AP 65259"
    },
    {
        "state": "DZ",
        "name": "Ferme Riccio",
        "city": "Boufatis",
        "prov": "Oran",
        "region": {},
        "latt": "35.68853",
        "longt": "-0.40379",
        "address": "5392 Robert VillagesnNorth Chelseastad, KY 21281"
    },
    {
        "state": "DZ",
        "name": "Oued Lehguigane",
        "city": "Rouina",
        "prov": "Au00efn Defla",
        "region": {},
        "latt": "36.241026",
        "longt": "1.819481",
        "address": "407 James ThroughwaynSmithburgh, TX 85510"
    },
    {
        "state": "DZ",
        "name": "Rehed el Kriane",
        "city": "El Melah",
        "prov": "El Tarf",
        "region": {},
        "latt": "36.85639",
        "longt": "8.30361",
        "address": "482 Strickland Crest Suite 596nJoannborough, CA 25447"
    },
    {
        "state": "DZ",
        "name": "Koudiat Sidi el Mokhfi",
        "city": "Bou00fb Arfa",
        "prov": "Blida",
        "region": {},
        "latt": "36.39988",
        "longt": "2.7837",
        "address": "42011 Green Fall Suite 092nZoeville, DC 52523"
    },
    {
        "state": "DZ",
        "name": "Foru00eat des Azerous",
        "city": "Taourirt Tazegouart",
        "prov": "Bouira",
        "region": {},
        "latt": "36.367499",
        "longt": "4.097773",
        "address": "84179 Moore LoopnSimmonsport, KY 27326"
    },
    {
        "state": "DZ",
        "name": "Ililane",
        "city": "Makouda",
        "prov": "Boumerdes",
        "region": {},
        "latt": "36.81808",
        "longt": "4.0516",
        "address": "2335 Garrett Shoal Suite 829nWest Jessica, WY 80321"
    },
    {
        "state": "DZ",
        "name": "Dechret Djouara",
        "city": "Draa el Mizan",
        "prov": "Bouira",
        "region": {},
        "latt": "36.522239",
        "longt": "3.770928",
        "address": "11688 Guzman Ports Suite 441nPort Erinside, KS 82054"
    },
    {
        "state": "DZ",
        "name": "Mechtat Salah Bey",
        "city": "Au00efn Smara",
        "prov": "Constantine",
        "region": {},
        "latt": "36.33278",
        "longt": "6.51611",
        "address": "84962 Herman CampnPort Michaelhaven, DC 87961"
    },
    {
        "state": "DZ",
        "name": "Koudiat Sidi el Mokhfi",
        "city": "Bou00fb Arfa",
        "prov": "Blida",
        "region": {},
        "latt": "36.39988",
        "longt": "2.7837",
        "address": "6800 Morales Springs Suite 644nEast Derrickborough, KS 34762"
    },
    {
        "state": "DZ",
        "name": "Bordj Hamaoui",
        "city": "Besbes",
        "prov": "El Tarf",
        "region": {},
        "latt": "36.710896",
        "longt": "7.933439",
        "address": "Unit 1150 Box 1693nDPO AE 43539"
    },
    {
        "state": "DZ",
        "name": "Zru00eebet Beni Guendou00fbz",
        "city": "Ain ech Cheraya",
        "prov": "Skikda",
        "region": {},
        "latt": "36.88611",
        "longt": "6.70639",
        "address": "434 Roberts DalenSouth Benjamin, IA 75789"
    },
    {
        "state": "DZ",
        "name": "Irhil Alouanene",
        "city": "Amizour",
        "prov": "Bu00e9jau00efa",
        "region": {},
        "latt": "36.638821",
        "longt": "4.931593",
        "address": "8927 Walker Plain Suite 095nMoorehaven, MA 68946"
    },
    {
        "state": "DZ",
        "name": "Djebel Tiberguemt",
        "city": "Rebahia",
        "prov": "Saida",
        "region": {},
        "latt": "34.9008",
        "longt": "0.0753",
        "address": "Unit 8701 Box 3324nDPO AP 19080"
    },
    {
        "state": "DZ",
        "name": "Mercure Alger Grand Hotel",
        "city": "Bab Ezzouar",
        "prov": "Boumerdes",
        "region": {},
        "latt": "36.71381",
        "longt": "3.19607",
        "address": "889 Ann SquaresnCarrollfort, MO 34511"
    },
    {
        "state": "DZ",
        "name": "Djebel Teniet er Rih",
        "city": "Tenezara",
        "prov": "Sidi Bel Abbu00e8s",
        "region": {},
        "latt": "34.91667",
        "longt": "-0.65",
        "address": "3336 Christine Mountains Apt. 353nNew Stanleyburgh, WY 62308"
    },
    {
        "state": "DZ",
        "name": "Commune de Ben Su2019Rour",
        "city": "Ben Su2019rourr",
        "prov": "M'Sila",
        "region": {},
        "latt": "35.05",
        "longt": "4.56667",
        "address": "73631 Kimberly RunnBradleyburgh, ID 52626"
    },
    {
        "state": "DZ",
        "name": "Mzaret Sidi Khelif",
        "city": "Didouche Mourad",
        "prov": "Constantine",
        "region": {},
        "latt": "36.418333",
        "longt": "6.696111",
        "address": "Unit 5795 Box 8235nDPO AP 54238"
    },
    {
        "state": "DZ",
        "name": "Djebel Rabah",
        "city": "Boukaat el Abau00efb",
        "prov": "Chlef",
        "region": {},
        "latt": "36.02443",
        "longt": "1.34543",
        "address": "999 Lisa Estate Apt. 899nAlejandroburgh, KY 21612"
    },
    {
        "state": "DZ",
        "name": "Commune du2019Ouarizane",
        "city": "Ouarizane",
        "prov": "Relizane",
        "region": {},
        "latt": "36.03333",
        "longt": "0.9",
        "address": "USNS TerrynFPO AP 22969"
    },
    {
        "state": "DZ",
        "name": "Oued Bou Hamdu00e2ne",
        "city": "Tirhilt Ouadrar",
        "prov": "Blida",
        "region": {},
        "latt": "36.40728",
        "longt": "2.92159",
        "address": "86405 Miller Expressway Suite 171nWest Caitlin, OH 07255"
    },
    {
        "state": "DZ",
        "name": "Magdad",
        "city": "Magdad",
        "prov": "Tlemcen",
        "region": {},
        "latt": "35.07175",
        "longt": "-1.86465",
        "address": "PSC 5802, Box 1100nAPO AA 17078"
    },
    {
        "state": "DZ",
        "name": "Mercure Alger Grand Hotel",
        "city": "Bab Ezzouar",
        "prov": "Boumerdes",
        "region": {},
        "latt": "36.71381",
        "longt": "3.19607",
        "address": "7135 Michael ShoalnMichaelborough, GA 33184"
    },
    {
        "state": "DZ",
        "name": "Wilaya de Mostaganem",
        "city": "Sour",
        "prov": "Mostaganem",
        "region": {},
        "latt": "36",
        "longt": "0.33333",
        "address": "1317 Michael Road Suite 322nPort Jacqueline, AZ 35841"
    },
    {
        "state": "DZ",
        "name": "Dechret Beni Zidu00e2z",
        "city": "Dechret Beni Zidu00e2z",
        "prov": "Tlemcen",
        "region": {},
        "latt": "34.60839",
        "longt": "-1.597277",
        "address": "62965 Pratt Harbor Apt. 379nNew James, NV 94023"
    },
    {
        "state": "DZ",
        "name": "Koudia Dir Rabah",
        "city": "Mechta Tizguine",
        "prov": "M'Sila",
        "region": {},
        "latt": "35.94043",
        "longt": "4.58917",
        "address": "259 Joe ParkwaynNew Jerryton, PA 67835"
    },
    {
        "state": "DZ",
        "name": "Koudiat Sidi el Mokhfi",
        "city": "Bou00fb Arfa",
        "prov": "Blida",
        "region": {},
        "latt": "36.39988",
        "longt": "2.7837",
        "address": "86898 Daniel BranchnMejialand, IA 92670"
    },
    {
        "state": "DZ",
        "name": "Oued Mezzoudj",
        "city": "Taberdga",
        "prov": "Khenchela",
        "region": {},
        "latt": "35.03304",
        "longt": "6.9918",
        "address": "53529 Gordon PlainsnStaceyshire, NC 86408"
    },
    {
        "state": "DZ",
        "name": "Guelma Belkheir",
        "city": "Guelma",
        "prov": "Guelma",
        "region": {},
        "latt": "36.45333",
        "longt": "7.47056",
        "address": "56670 Heidi Shores Apt. 693nNew Jamesfort, AK 42115"
    },
    {
        "state": "DZ",
        "name": "Dar el Hadj el Habib",
        "city": "Dar el Hadj el Habib",
        "prov": "Sidi Bel Abbu00e8s",
        "region": {},
        "latt": "35.21481",
        "longt": "-0.36188",
        "address": "07987 Cain Rapids Apt. 845nNew Johnny, NC 15450"
    },
    {
        "state": "DZ",
        "name": "Chaba Bou Tennzer",
        "city": "Douar Zerama",
        "prov": "Mascara",
        "region": {},
        "latt": "35.498425",
        "longt": "0.337919",
        "address": "1398 Steven Streets Suite 629nEast Alejandrotown, ID 62596"
    },
    {
        "state": "DZ",
        "name": "Setar Mlouk",
        "city": "Biskra",
        "prov": "Biskra",
        "region": {},
        "latt": "34.84404",
        "longt": "5.72256",
        "address": "751 Tyler Villages Apt. 118nYvonneland, AK 14566"
    },
    {
        "state": "DZ",
        "name": "Koudia Dir Rabah",
        "city": "Mechta Tizguine",
        "prov": "M'Sila",
        "region": {},
        "latt": "35.94043",
        "longt": "4.58917",
        "address": "PSC 0577, Box 2842nAPO AP 60955"
    },
    {
        "state": "DZ",
        "name": "Wilaya de Mostaganem",
        "city": "Sour",
        "prov": "Mostaganem",
        "region": {},
        "latt": "36",
        "longt": "0.33333",
        "address": "1596 Tina Turnpike Suite 837nLake Tammy, DC 35202"
    },
    {
        "state": "DZ",
        "name": "Oued Mezzoudj",
        "city": "Taberdga",
        "prov": "Khenchela",
        "region": {},
        "latt": "35.03304",
        "longt": "6.9918",
        "address": "945 Nathan Garden Suite 655nColleenbury, RI 97791"
    },
    {
        "state": "DZ",
        "name": "Bled el Ghocel",
        "city": "Remchi",
        "prov": "Tlemcen",
        "region": {},
        "latt": "35.031111",
        "longt": "-1.374722",
        "address": "63750 Atkinson Gateway Apt. 167nJohnnyview, DC 20832"
    },
    {
        "state": "DZ",
        "name": "Oulad Ayad",
        "city": "Oulad Ayad",
        "prov": "Jijel",
        "region": {},
        "latt": "36.63957",
        "longt": "5.59524",
        "address": "41828 Jason Isle Apt. 797nColeborough, OK 60592"
    },
    {
        "state": "DZ",
        "name": "Er Remla",
        "city": "Er Remla",
        "prov": "Bouira",
        "region": {},
        "latt": "36.09775",
        "longt": "3.80768",
        "address": "787 Andrew Valley Suite 245nRiveraton, DC 33973"
    },
    {
        "state": "DZ",
        "name": "Tlidjen",
        "city": "Tlidjen",
        "prov": "Tu00e9bessa",
        "region": {},
        "latt": "35.11821",
        "longt": "7.76722",
        "address": "570 David ManornPort Rebeccashire, NM 96079"
    },
    {
        "state": "DZ",
        "name": "u2019Au00efn Bou Helissa",
        "city": "Arbaouat",
        "prov": "El Bayadh",
        "region": {},
        "latt": "33.10414",
        "longt": "0.51115",
        "address": "Unit 3577 Box 3727nDPO AP 07069"
    },
    {
        "state": "DZ",
        "name": "Chaba Bou Tennzer",
        "city": "Douar Zerama",
        "prov": "Mascara",
        "region": {},
        "latt": "35.498425",
        "longt": "0.337919",
        "address": "5183 Melinda Fields Suite 857nEast Gloria, IA 63082"
    },
    {
        "state": "DZ",
        "name": "Sidi Abd er Rahmane",
        "city": "Ech Chelh",
        "prov": "Chlef",
        "region": {},
        "latt": "36.528264",
        "longt": "1.456313",
        "address": "PSC 2256, Box 2443nAPO AP 19140"
    },
    {
        "state": "DZ",
        "name": "Guesau00e2",
        "city": "Sidi Bakhti",
        "prov": "Djelfa",
        "region": {},
        "latt": "35.33008",
        "longt": "3.46899",
        "address": "2991 Davis Burg Apt. 658nMeghanland, IN 21327"
    },
    {
        "state": "DZ",
        "name": "Sidi Abd er Rahmane",
        "city": "Ech Chelh",
        "prov": "Chlef",
        "region": {},
        "latt": "36.528264",
        "longt": "1.456313",
        "address": "036 Jackson Underpass Suite 080nRichardsonshire, OH 59914"
    },
    {
        "state": "DZ",
        "name": "Sidi Abd er Rahmane",
        "city": "Ech Chelh",
        "prov": "Chlef",
        "region": {},
        "latt": "36.528264",
        "longt": "1.456313",
        "address": "95229 Perry LoopnTinaview, AZ 24303"
    },
    {
        "state": "DZ",
        "name": "Mu2019djahi",
        "city": "M'zaoura",
        "prov": "Mascara",
        "region": {},
        "latt": "35.41864",
        "longt": "0.01458",
        "address": "2403 Griffin FieldsnAndersonview, CT 94400"
    },
    {
        "state": "DZ",
        "name": "Sidi Abd er Rahmane",
        "city": "Ech Chelh",
        "prov": "Chlef",
        "region": {},
        "latt": "36.528264",
        "longt": "1.456313",
        "address": "319 Oliver DrivesnCookmouth, DE 08661"
    },
    {
        "state": "DZ",
        "name": "Ouldjet Tikarbas",
        "city": "Tarik Ibn Ziad",
        "prov": "Au00efn Defla",
        "region": {},
        "latt": "36.021252",
        "longt": "2.145531",
        "address": "169 Amy MountnCruzland, AZ 30976"
    },
    {
        "state": "DZ",
        "name": "Mechtat Salah Bey",
        "city": "Au00efn Smara",
        "prov": "Constantine",
        "region": {},
        "latt": "36.33278",
        "longt": "6.51611",
        "address": "041 Brandi Club Apt. 279nEricland, NJ 63094"
    },
    {
        "state": "DZ",
        "name": "Commune de Zemmora",
        "city": "Zemoura",
        "prov": "Relizane",
        "region": {},
        "latt": "35.716667",
        "longt": "0.75",
        "address": "55514 Christopher ForgesnTraceyville, PA 06073"
    },
    {
        "state": "DZ",
        "name": "Sidi Ben Hamou",
        "city": "Matmoura ech Choual",
        "prov": "Saida",
        "region": {},
        "latt": "34.95018",
        "longt": "0.38083",
        "address": "103 Christopher View Apt. 848nWest Matthewburgh, DE 23555"
    },
    {
        "state": "DZ",
        "name": "Bled el Ghocel",
        "city": "Remchi",
        "prov": "Tlemcen",
        "region": {},
        "latt": "35.031111",
        "longt": "-1.374722",
        "address": "USNS VargasnFPO AA 57960"
    },
    {
        "state": "DZ",
        "name": "Mechta u2019Au00efn Kesku00eas",
        "city": "Mechta u2019Au00efn Kesku00eas",
        "prov": "Oum el Bouaghi",
        "region": {},
        "latt": "35.82823",
        "longt": "7.7491",
        "address": "144 Jeffery Throughway Suite 455nJesuston, WV 86818"
    },
    {
        "state": "DZ",
        "name": "Ru00e2s Addala Mellel",
        "city": "Douar M'Haba",
        "prov": "Tipaza",
        "region": {},
        "latt": "36.58333",
        "longt": "1.93333",
        "address": "602 Rodney IslenNorth Dustinfurt, MI 01739"
    },
    {
        "state": "DZ",
        "name": "Foru00eat des Azerous",
        "city": "Taourirt Tazegouart",
        "prov": "Bouira",
        "region": {},
        "latt": "36.367499",
        "longt": "4.097773",
        "address": "322 Stevenson PathnWest Michaelfurt, NH 10575"
    },
    {
        "state": "DZ",
        "name": "Oued Bou Hamdu00e2ne",
        "city": "Tirhilt Ouadrar",
        "prov": "Blida",
        "region": {},
        "latt": "36.40728",
        "longt": "2.92159",
        "address": "93720 Emma WallnJuliebury, WY 14548"
    },
    {
        "state": "DZ",
        "name": "Mechta u2019Au00efn Kesku00eas",
        "city": "Mechta u2019Au00efn Kesku00eas",
        "prov": "Oum el Bouaghi",
        "region": {},
        "latt": "35.82823",
        "longt": "7.7491",
        "address": "7538 Jeff Oval Suite 796nDavidtown, CO 92613"
    },
    {
        "state": "DZ",
        "name": "Commune du2019Ouarizane",
        "city": "Ouarizane",
        "prov": "Relizane",
        "region": {},
        "latt": "36.03333",
        "longt": "0.9",
        "address": "Unit 6053 Box 8404nDPO AE 21705"
    },
    {
        "state": "DZ",
        "name": "Sidi el Aklal",
        "city": "Zrau00efa",
        "prov": "Batna",
        "region": {},
        "latt": "35.788053",
        "longt": "5.673851",
        "address": "PSC 5375, Box 1209nAPO AA 99598"
    },
    {
        "state": "DZ",
        "name": "Oued el Aar",
        "city": "Mechtat el Hennchir",
        "prov": "Guelma",
        "region": {},
        "latt": "36.22677",
        "longt": "7.31552",
        "address": "7721 Karen CausewaynCindymouth, VT 31801"
    },
    {
        "state": "DZ",
        "name": "Sidi Ben Hamou",
        "city": "Matmoura ech Choual",
        "prov": "Saida",
        "region": {},
        "latt": "34.95018",
        "longt": "0.38083",
        "address": "67810 Walker PlainsnFergusonstad, MD 42618"
    },
    {
        "state": "DZ",
        "name": "Oued Istene",
        "city": "Isten",
        "prov": "Tamanrasset",
        "region": {},
        "latt": "23.76441",
        "longt": "6.02443",
        "address": "393 Andrew Lakes Suite 533nPort Joel, MO 31768"
    },
    {
        "state": "DZ",
        "name": "Irhzer Imdoussene",
        "city": "Freha",
        "prov": "Tizi Ouzou",
        "region": {},
        "latt": "36.726012",
        "longt": "4.268697",
        "address": "8056 Juan SpringnPort James, NJ 67462"
    },
    {
        "state": "DZ",
        "name": "Oued Sefah",
        "city": "Lagaguena",
        "prov": "Au00efn Defla",
        "region": {},
        "latt": "36.023844",
        "longt": "2.341223",
        "address": "64826 Steven Cove Suite 341nMitchellburgh, NC 70285"
    },
    {
        "state": "DZ",
        "name": "Teniet Beu00efda",
        "city": "Fais",
        "prov": "Batna",
        "region": {},
        "latt": "35.54811",
        "longt": "6.68405",
        "address": "28156 Erin ParksnEast Brianborough, RI 42666"
    },
    {
        "state": "DZ",
        "name": "Oued Mertoutek",
        "city": "Mertou00fbtek",
        "prov": "Tamanrasset",
        "region": {},
        "latt": "24.2",
        "longt": "5.56667",
        "address": "590 Elliott Point Apt. 261nThompsonmouth, AZ 54019"
    },
    {
        "state": "DZ",
        "name": "Bled el Ghocel",
        "city": "Remchi",
        "prov": "Tlemcen",
        "region": {},
        "latt": "35.031111",
        "longt": "-1.374722",
        "address": "3049 Patel Trail Apt. 627nSouth Anthonyfurt, CT 75111"
    },
    {
        "state": "DZ",
        "name": "Oued Bou Hamdu00e2ne",
        "city": "Tirhilt Ouadrar",
        "prov": "Blida",
        "region": {},
        "latt": "36.40728",
        "longt": "2.92159",
        "address": "4770 Toni CrestnNicholastown, ND 01397"
    },
    {
        "state": "DZ",
        "name": "Kef Balouta",
        "city": "u2019Au00efn Boucif",
        "prov": "Medea",
        "region": {},
        "latt": "35.91265",
        "longt": "3.22042",
        "address": "332 Johnson CrossroadnScottstad, IN 82374"
    },
    {
        "state": "DZ",
        "name": "Matemore",
        "city": "Mostaganem",
        "prov": "Mostaganem",
        "region": {},
        "latt": "35.93433",
        "longt": "0.09366",
        "address": "3348 Matthew LodgenNorth Brian, KS 63195"
    },
    {
        "state": "DZ",
        "name": "Koudiat Sidi el Mokhfi",
        "city": "Bou00fb Arfa",
        "prov": "Blida",
        "region": {},
        "latt": "36.39988",
        "longt": "2.7837",
        "address": "0889 Amanda Summit Suite 610nEdwardfurt, MA 72588"
    },
    {
        "state": "DZ",
        "name": "Chabet Zacha",
        "city": "Sidi Makhlouf",
        "prov": "Laghouat",
        "region": {},
        "latt": "34.12825",
        "longt": "3.08387",
        "address": "2351 Watson TunnelnAndreaton, RI 98513"
    },
    {
        "state": "DZ",
        "name": "Commune de Zemmora",
        "city": "Zemoura",
        "prov": "Relizane",
        "region": {},
        "latt": "35.716667",
        "longt": "0.75",
        "address": "1152 Myers Summit Suite 743nEast Robertburgh, WI 19523"
    },
    {
        "state": "DZ",
        "name": "Oued el Bourhari",
        "city": "Lardjem",
        "prov": "Tissemsilt",
        "region": {},
        "latt": "35.766667",
        "longt": "1.533333",
        "address": "USNV RobbinsnFPO AP 33459"
    },
    {
        "state": "DZ",
        "name": "Commune de Zemmora",
        "city": "Zemoura",
        "prov": "Relizane",
        "region": {},
        "latt": "35.716667",
        "longt": "0.75",
        "address": "0587 Mckenzie Inlet Suite 746nSouth Robert, HI 01880"
    },
    {
        "state": "DZ",
        "name": "Hadjar el Hamra",
        "city": "El Ghicha",
        "prov": "Laghouat",
        "region": {},
        "latt": "33.90317",
        "longt": "2.16138",
        "address": "3381 Juan MountainsnMelvinchester, DC 93204"
    },
    {
        "state": "DZ",
        "name": "Oued Lehguigane",
        "city": "Rouina",
        "prov": "Au00efn Defla",
        "region": {},
        "latt": "36.241026",
        "longt": "1.819481",
        "address": "PSC 1506, Box 4492nAPO AP 60277"
    },
    {
        "state": "DZ",
        "name": "Oued Lehguigane",
        "city": "Rouina",
        "prov": "Au00efn Defla",
        "region": {},
        "latt": "36.241026",
        "longt": "1.819481",
        "address": "498 Allison Shoal Suite 344nSouth Rebecca, DC 18891"
    },
    {
        "state": "DZ",
        "name": "Ifregh",
        "city": "I-n-Amguel",
        "prov": "Tamanrasset",
        "region": {},
        "latt": "23.69704",
        "longt": "5.15008",
        "address": "701 Joseph PrairienNorth Codychester, ID 28414"
    },
    {
        "state": "DZ",
        "name": "Abbasside Palace",
        "city": "Zeralda",
        "prov": "Tipaza",
        "region": {},
        "latt": "36.7412",
        "longt": "2.84483",
        "address": "25011 Eric LocksnNorth James, NY 68552"
    },
    {
        "state": "DZ",
        "name": "Ouldjet Tikarbas",
        "city": "Tarik Ibn Ziad",
        "prov": "Au00efn Defla",
        "region": {},
        "latt": "36.021252",
        "longt": "2.145531",
        "address": "5704 Mark SummitnGinahaven, ID 33876"
    },
    {
        "state": "DZ",
        "name": "Krount et Taabane",
        "city": "Tazleft",
        "prov": "Biskra",
        "region": {},
        "latt": "35.0185",
        "longt": "5.96014",
        "address": "32287 Fields Freeway Suite 218nNorth Sandra, DE 72160"
    },
    {
        "state": "DZ",
        "name": "Hippone",
        "city": "Annaba",
        "prov": "Annaba",
        "region": {},
        "latt": "36.89498",
        "longt": "7.74467",
        "address": "775 Baker TrailnBergberg, ME 18028"
    },
    {
        "state": "DZ",
        "name": "Oued Djenibia",
        "city": "El Yourh",
        "prov": "Djelfa",
        "region": {},
        "latt": "34.376981",
        "longt": "3.09769",
        "address": "PSC 6231, Box 8635nAPO AE 55708"
    },
    {
        "state": "DZ",
        "name": "Oulad Noun",
        "city": "Timimoun",
        "prov": "Adrar",
        "region": {},
        "latt": "29.25136",
        "longt": "0.21628",
        "address": "49024 White PortsnTeresatown, PA 64719"
    },
    {
        "state": "DZ",
        "name": "Irhil Alouanene",
        "city": "Amizour",
        "prov": "Bu00e9jau00efa",
        "region": {},
        "latt": "36.638821",
        "longt": "4.931593",
        "address": "424 Richard ManornTerrelltown, CT 38849"
    },
    {
        "state": "DZ",
        "name": "Dar el Hadj el Habib",
        "city": "Dar el Hadj el Habib",
        "prov": "Sidi Bel Abbu00e8s",
        "region": {},
        "latt": "35.21481",
        "longt": "-0.36188",
        "address": "691 Chan Stream Apt. 140nSandrafort, NM 34956"
    },
    {
        "state": "DZ",
        "name": "Ouldjet Tikarbas",
        "city": "Tarik Ibn Ziad",
        "prov": "Au00efn Defla",
        "region": {},
        "latt": "36.021252",
        "longt": "2.145531",
        "address": "64584 Johnny Crossing Apt. 936nWest Kimberly, HI 84467"
    },
    {
        "state": "DZ",
        "name": "Abbasside Palace",
        "city": "Zeralda",
        "prov": "Tipaza",
        "region": {},
        "latt": "36.7412",
        "longt": "2.84483",
        "address": "8762 Melody DrivenSouth Robin, ME 12974"
    },
    {
        "state": "DZ",
        "name": "Moul el Laham",
        "city": "u2019Au00efn Oueba",
        "prov": "Tiaret",
        "region": {},
        "latt": "34.99318",
        "longt": "1.3197",
        "address": "1362 Michael Parks Suite 151nLisaview, DC 65111"
    },
    {
        "state": "DZ",
        "name": "Wilaya de Mostaganem",
        "city": "Sour",
        "prov": "Mostaganem",
        "region": {},
        "latt": "36",
        "longt": "0.33333",
        "address": "PSC 6160, Box 5139nAPO AE 89066"
    },
    {
        "state": "DZ",
        "name": "Djebel Terrad",
        "city": "Dermel",
        "prov": "M'Sila",
        "region": {},
        "latt": "35.079388",
        "longt": "4.047023",
        "address": "USNS RubionFPO AA 80074"
    },
    {
        "state": "DZ",
        "name": "Bled el Kherba",
        "city": "Abdelmoumen",
        "prov": "Tiaret",
        "region": {},
        "latt": "35.27449",
        "longt": "1.46091",
        "address": "2005 King TrailnSouth Susan, VT 34991"
    },
    {
        "state": "DZ",
        "name": "Fedj ed Dedjal",
        "city": "Fedj ed Dedjal",
        "prov": "Tu00e9bessa",
        "region": {},
        "latt": "35.71608",
        "longt": "8.176219",
        "address": "8491 Peters SquarenMitchellside, AR 44162"
    },
    {
        "state": "DZ",
        "name": "Mu2019djahi",
        "city": "M'zaoura",
        "prov": "Mascara",
        "region": {},
        "latt": "35.41864",
        "longt": "0.01458",
        "address": "093 Benson Heights Apt. 910nEast Peterfort, DC 60953"
    },
    {
        "state": "DZ",
        "name": "Sidi Abd er Rahmane",
        "city": "Ech Chelh",
        "prov": "Chlef",
        "region": {},
        "latt": "36.528264",
        "longt": "1.456313",
        "address": "29408 Martinez RidgesnNorth Cheryl, WA 63254"
    },
    {
        "state": "DZ",
        "name": "Mu2019djahi",
        "city": "M'zaoura",
        "prov": "Mascara",
        "region": {},
        "latt": "35.41864",
        "longt": "0.01458",
        "address": "809 Hall SquaresnEast Nathanland, NJ 79788"
    },
    {
        "state": "DZ",
        "name": "Sidi Ben Hamou",
        "city": "Matmoura ech Choual",
        "prov": "Saida",
        "region": {},
        "latt": "34.95018",
        "longt": "0.38083",
        "address": "23361 Phillips Ville Apt. 281nKatrinaland, VT 99889"
    },
    {
        "state": "DZ",
        "name": "Oued Lehguigane",
        "city": "Rouina",
        "prov": "Au00efn Defla",
        "region": {},
        "latt": "36.241026",
        "longt": "1.819481",
        "address": "009 King TrailnWest Robertport, MO 71319"
    },
    {
        "state": "DZ",
        "name": "Bled Khozzana",
        "city": "Ternanech",
        "prov": "Tiaret",
        "region": {},
        "latt": "35.01262",
        "longt": "0.98689",
        "address": "84272 Bell Ports Apt. 714nKevinchester, AL 20379"
    },
    {
        "state": "DZ",
        "name": "Oued Bou Hamdu00e2ne",
        "city": "Tirhilt Ouadrar",
        "prov": "Blida",
        "region": {},
        "latt": "36.40728",
        "longt": "2.92159",
        "address": "38500 Elizabeth Village Apt. 346nJohnsonchester, MO 35717"
    },
    {
        "state": "DZ",
        "name": "Bled el Ghocel",
        "city": "Remchi",
        "prov": "Tlemcen",
        "region": {},
        "latt": "35.031111",
        "longt": "-1.374722",
        "address": "1891 Bowman Rapids Suite 950nPort Jeffreyburgh, MA 96201"
    },
    {
        "state": "DZ",
        "name": "Oued el Bourhari",
        "city": "Lardjem",
        "prov": "Tissemsilt",
        "region": {},
        "latt": "35.766667",
        "longt": "1.533333",
        "address": "78504 Donna Estates Apt. 374nLake Nicoleton, OH 78045"
    },
    {
        "state": "DZ",
        "name": "Meridjet el Kala",
        "city": "Jijel",
        "prov": "Jijel",
        "region": {},
        "latt": "36.81667",
        "longt": "5.73333",
        "address": "95776 Barbara Fork Suite 276nJordanville, IA 62962"
    },
    {
        "state": "DZ",
        "name": "Djarallah",
        "city": "Djarallah",
        "prov": "Batna",
        "region": {},
        "latt": "35.07835",
        "longt": "6.35773",
        "address": "618 Lopez Roads Suite 911nRyanport, DC 19641"
    },
    {
        "state": "DZ",
        "name": "Reggane Airport",
        "city": "Reggane-Plateau",
        "prov": "Adrar",
        "region": {},
        "latt": "26.7115",
        "longt": "0.28436",
        "address": "1962 Jill RestnTimothyville, NV 51449"
    },
    {
        "state": "DZ",
        "name": "Abbasside Palace",
        "city": "Zeralda",
        "prov": "Tipaza",
        "region": {},
        "latt": "36.7412",
        "longt": "2.84483",
        "address": "57022 Wood StravenuenNew Brittney, GA 75142"
    },
    {
        "state": "DZ",
        "name": "Malleg Rassou",
        "city": "Rahmane",
        "prov": "M'Sila",
        "region": {},
        "latt": "35.57783",
        "longt": "4.32579",
        "address": "309 Amanda Glens Apt. 341nDonnamouth, CO 61240"
    },
    {
        "state": "DZ",
        "name": "Bled Khozzana",
        "city": "Ternanech",
        "prov": "Tiaret",
        "region": {},
        "latt": "35.01262",
        "longt": "0.98689",
        "address": "10731 Fernandez Via Apt. 722nChadtown, WV 41154"
    },
    {
        "state": "DZ",
        "name": "Ouled Rouadhi",
        "city": "Ouled Rouadhi",
        "prov": "Chlef",
        "region": {},
        "latt": "36.228419",
        "longt": "1.399306",
        "address": "9524 Moss CausewaynLake Steven, CT 02967"
    },
    {
        "state": "DZ",
        "name": "Tinnzert",
        "city": "Mechta Ain Hallal",
        "prov": "Su00e9tif",
        "region": {},
        "latt": "35.77057",
        "longt": "5.39932",
        "address": "568 Jackson SquarenEast Jeanborough, VA 48935"
    },
    {
        "state": "DZ",
        "name": "Commune de Zemmora",
        "city": "Zemoura",
        "prov": "Relizane",
        "region": {},
        "latt": "35.716667",
        "longt": "0.75",
        "address": "4935 Brittany LakenPort Jeffrey, MD 56658"
    },
    {
        "state": "DZ",
        "name": "Hadjar el Hamra",
        "city": "El Ghicha",
        "prov": "Laghouat",
        "region": {},
        "latt": "33.90317",
        "longt": "2.16138",
        "address": "52510 Jose PathnSimpsonville, MD 87891"
    },
    {
        "state": "DZ",
        "name": "El Guattar",
        "city": "Douar Brourate",
        "prov": "Mascara",
        "region": {},
        "latt": "35.44324",
        "longt": "0.0662",
        "address": "190 Young Prairie Suite 383nPort Ashley, SD 24785"
    },
    {
        "state": "DZ",
        "name": "Djebel Tazbent",
        "city": "Hammamet",
        "prov": "Tu00e9bessa",
        "region": {},
        "latt": "35.381459",
        "longt": "7.945048",
        "address": "0321 Walker Mill Suite 656nPort Timothy, WV 59990"
    },
    {
        "state": "DZ",
        "name": "Koudiat Sidi el Mokhfi",
        "city": "Bou00fb Arfa",
        "prov": "Blida",
        "region": {},
        "latt": "36.39988",
        "longt": "2.7837",
        "address": "3109 Mitchell NecknAlvarezside, WA 36493"
    },
    {
        "state": "DZ",
        "name": "Oued el Bourhari",
        "city": "Lardjem",
        "prov": "Tissemsilt",
        "region": {},
        "latt": "35.766667",
        "longt": "1.533333",
        "address": "252 Proctor ExtensionnYoungmouth, NC 50539"
    },
    {
        "state": "DZ",
        "name": "Douar el Khouamliya",
        "city": "El Amria",
        "prov": "Au00efn Tu00e9mouchent",
        "region": {},
        "latt": "35.55",
        "longt": "-1.033333",
        "address": "4905 Renee Mews Apt. 271nEricfort, FL 30693"
    },
    {
        "state": "DZ",
        "name": "Mzaret Sidi Khelif",
        "city": "Didouche Mourad",
        "prov": "Constantine",
        "region": {},
        "latt": "36.418333",
        "longt": "6.696111",
        "address": "61606 David Street Suite 290nWest Shelby, NY 19282"
    },
    {
        "state": "DZ",
        "name": "Ouled Ben Abd er Rehim",
        "city": "Ouled Ben Abd er Rehim",
        "prov": "Relizane",
        "region": {},
        "latt": "35.61335",
        "longt": "1.05513",
        "address": "90885 Dylan Lakes Suite 075nHorneside, NM 69051"
    },
    {
        "state": "DZ",
        "name": "Chaba Bou Tennzer",
        "city": "Douar Zerama",
        "prov": "Mascara",
        "region": {},
        "latt": "35.498425",
        "longt": "0.337919",
        "address": "29126 Huang Isle Suite 717nSouth Danielchester, NE 52784"
    },
    {
        "state": "DZ",
        "name": "Mercure Alger Grand Hotel",
        "city": "Bab Ezzouar",
        "prov": "Boumerdes",
        "region": {},
        "latt": "36.71381",
        "longt": "3.19607",
        "address": "835 Christine Trail Apt. 994nHillshire, NJ 04943"
    },
    {
        "state": "DZ",
        "name": "Zru00eebet Beni Guendou00fbz",
        "city": "Ain ech Cheraya",
        "prov": "Skikda",
        "region": {},
        "latt": "36.88611",
        "longt": "6.70639",
        "address": "252 Hall Flat Apt. 144nTaylorshire, DC 73547"
    },
    {
        "state": "DZ",
        "name": "Bordj Hamaoui",
        "city": "Besbes",
        "prov": "El Tarf",
        "region": {},
        "latt": "36.710896",
        "longt": "7.933439",
        "address": "90493 Tony Shoals Apt. 735nPort Nicole, CA 12057"
    },
    {
        "state": "DZ",
        "name": "El Guattar",
        "city": "Douar Brourate",
        "prov": "Mascara",
        "region": {},
        "latt": "35.44324",
        "longt": "0.0662",
        "address": "3345 Joe Drive Suite 074nWest Stephen, MI 15142"
    },
    {
        "state": "DZ",
        "name": "Dar Kbira",
        "city": "Dar Srhira",
        "prov": "Bordj Bou Arru00e9ridj",
        "region": {},
        "latt": "35.99279",
        "longt": "4.46392",
        "address": "5397 Christopher Lake Suite 185nTranport, MS 54181"
    },
    {
        "state": "DZ",
        "name": "Koria",
        "city": "Arbatache",
        "prov": "Boumerdes",
        "region": {},
        "latt": "36.63233",
        "longt": "3.41934",
        "address": "004 Stephanie CirclesnSheltonstad, ND 93631"
    },
    {
        "state": "DZ",
        "name": "Commune de Zemmora",
        "city": "Zemoura",
        "prov": "Relizane",
        "region": {},
        "latt": "35.716667",
        "longt": "0.75",
        "address": "PSC 4292, Box 0311nAPO AP 33166"
    },
    {
        "state": "DZ",
        "name": "Bou Djamane",
        "city": "Taghzout",
        "prov": "Chlef",
        "region": {},
        "latt": "36.42448",
        "longt": "1.033966",
        "address": "19406 Thomas InletnMicheletown, AR 96696"
    },
    {
        "state": "DZ",
        "name": "Irhzer Imdoussene",
        "city": "Freha",
        "prov": "Tizi Ouzou",
        "region": {},
        "latt": "36.726012",
        "longt": "4.268697",
        "address": "613 Thompson MountainnEast Deborahburgh, WI 93190"
    },
    {
        "state": "DZ",
        "name": "Mechtat el Malahkal",
        "city": "Mechtat el Malahkal",
        "prov": "Batna",
        "region": {},
        "latt": "35.627394",
        "longt": "6.410933",
        "address": "8219 Clarke Dam Apt. 344nJarvisburgh, ND 06188"
    },
    {
        "state": "DZ",
        "name": "Djebel Tbassemt",
        "city": "Zoubia",
        "prov": "Bu00e9char",
        "region": {},
        "latt": "32.203269",
        "longt": "-1.014244",
        "address": "0435 Cruz EstatenPort Michelle, MO 99575"
    },
    {
        "state": "DZ",
        "name": "Teniet Bou Ouachi",
        "city": "Mechtat el Djemal",
        "prov": "Tissemsilt",
        "region": {},
        "latt": "35.84645",
        "longt": "1.87283",
        "address": "289 Tony Island Apt. 876nKellerchester, WA 13830"
    },
    {
        "state": "DZ",
        "name": "Oued Mezioued",
        "city": "Boussemghoun",
        "prov": "El Bayadh",
        "region": {},
        "latt": "32.91924",
        "longt": "-0.01503",
        "address": "62090 Jones Springs Suite 396nNorth Brandon, FL 93472"
    },
    {
        "state": "DZ",
        "name": "Argoub Ben Koura",
        "city": "u2019Au00efn Deheb",
        "prov": "Tiaret",
        "region": {},
        "latt": "34.83333",
        "longt": "1.51667",
        "address": "722 Selena Harbors Suite 243nDunnborough, SD 70206"
    },
    {
        "state": "DZ",
        "name": "Commune du2019Ouarizane",
        "city": "Ouarizane",
        "prov": "Relizane",
        "region": {},
        "latt": "36.03333",
        "longt": "0.9",
        "address": "PSC 8303, Box 0024nAPO AE 93474"
    },
    {
        "state": "DZ",
        "name": "El Guattar",
        "city": "Douar Brourate",
        "prov": "Mascara",
        "region": {},
        "latt": "35.44324",
        "longt": "0.0662",
        "address": "773 Derek Circle Suite 590nEast Victorside, NM 96424"
    },
    {
        "state": "DZ",
        "name": "u2019Au00efn Tamdinnt",
        "city": "Tadjera",
        "prov": "Batna",
        "region": {},
        "latt": "35.23418",
        "longt": "6.48348",
        "address": "3693 Ryan FerrynAdamton, SD 72620"
    },
    {
        "state": "DZ",
        "name": "Imourrene",
        "city": "Ilamane",
        "prov": "Tamanrasset",
        "region": {},
        "latt": "23.24809",
        "longt": "5.48811",
        "address": "208 Kaufman Forge Suite 156nDennisburgh, DC 91868"
    },
    {
        "state": "DZ",
        "name": "Chaba Bou Tennzer",
        "city": "Douar Zerama",
        "prov": "Mascara",
        "region": {},
        "latt": "35.498425",
        "longt": "0.337919",
        "address": "378 Austin RidgesnPort Haley, TX 29118"
    },
    {
        "state": "DZ",
        "name": "Tassalt",
        "city": "Douar Ben Nabi",
        "prov": "Mascara",
        "region": {},
        "latt": "35.04419",
        "longt": "0.47112",
        "address": "5357 Aaron Station Apt. 979nGabrielmouth, HI 90746"
    },
    {
        "state": "DZ",
        "name": "Au00efn el Meskouk",
        "city": "Bou Lateb",
        "prov": "Skikda",
        "region": {},
        "latt": "37.00333",
        "longt": "6.30667",
        "address": "0184 Sarah Ville Suite 145nLake Andrewport, WI 66397"
    },
    {
        "state": "DZ",
        "name": "Kassar Ouglele",
        "city": "Mechtat Medjouda Loutania",
        "prov": "El Tarf",
        "region": {},
        "latt": "36.71675",
        "longt": "8.42335",
        "address": "PSC 6648, Box 5722nAPO AP 89909"
    },
    {
        "state": "DZ",
        "name": "Oued Bou Hamdu00e2ne",
        "city": "Tirhilt Ouadrar",
        "prov": "Blida",
        "region": {},
        "latt": "36.40728",
        "longt": "2.92159",
        "address": "815 Burnett PortsnWest Adammouth, AL 02641"
    },
    {
        "state": "DZ",
        "name": "El Guattar",
        "city": "Douar Brourate",
        "prov": "Mascara",
        "region": {},
        "latt": "35.44324",
        "longt": "0.0662",
        "address": "7641 Tucker LandingnSouth Michaelport, NE 41722"
    },
    {
        "state": "DZ",
        "name": "Zru00eebet Beni Guendou00fbz",
        "city": "Ain ech Cheraya",
        "prov": "Skikda",
        "region": {},
        "latt": "36.88611",
        "longt": "6.70639",
        "address": "22756 Parker CovesnConnieville, NC 12392"
    },
    {
        "state": "DZ",
        "name": "Sidi Mechennfar",
        "city": "Sebau00efn Au00efoun",
        "prov": "Tiaret",
        "region": {},
        "latt": "35.45064",
        "longt": "1.610312",
        "address": "3283 George GreensnPort Amber, NJ 55902"
    },
    {
        "state": "DZ",
        "name": "Mechta u2019Au00efn Kesku00eas",
        "city": "Mechta u2019Au00efn Kesku00eas",
        "prov": "Oum el Bouaghi",
        "region": {},
        "latt": "35.82823",
        "longt": "7.7491",
        "address": "737 Garcia TurnpikenLake Dylan, ME 23668"
    },
    {
        "state": "DZ",
        "name": "Commune du2019Ouled Maalah",
        "city": "Takhemaret",
        "prov": "Mostaganem",
        "region": {},
        "latt": "36.08333",
        "longt": "0.66667",
        "address": "770 Steven ThroughwaynCodyborough, DE 63622"
    },
    {
        "state": "DZ",
        "name": "Akbou",
        "city": "Akbou",
        "prov": "Bu00e9jau00efa",
        "region": {},
        "latt": "36.4575",
        "longt": "4.53494",
        "address": "08878 John WallnMarvinmouth, ME 83108"
    },
    {
        "state": "DZ",
        "name": "El Guattar",
        "city": "Douar Brourate",
        "prov": "Mascara",
        "region": {},
        "latt": "35.44324",
        "longt": "0.0662",
        "address": "25021 Amber TurnpikenCharlesville, TN 63402"
    },
    {
        "state": "DZ",
        "name": "Dechret Djouara",
        "city": "Draa el Mizan",
        "prov": "Bouira",
        "region": {},
        "latt": "36.522239",
        "longt": "3.770928",
        "address": "PSC 0920, Box 5432nAPO AP 51599"
    },
    {
        "state": "DZ",
        "name": "Ferme Riccio",
        "city": "Boufatis",
        "prov": "Oran",
        "region": {},
        "latt": "35.68853",
        "longt": "-0.40379",
        "address": "791 Cindy KnollnCarmenfort, WA 55106"
    },
    {
        "state": "DZ",
        "name": "Ouled Ben Abd er Rehim",
        "city": "Ouled Ben Abd er Rehim",
        "prov": "Relizane",
        "region": {},
        "latt": "35.61335",
        "longt": "1.05513",
        "address": "368 Morris Fields Apt. 820nEast Thomaschester, OH 67580"
    },
    {
        "state": "DZ",
        "name": "Tassalt",
        "city": "Douar Ben Nabi",
        "prov": "Mascara",
        "region": {},
        "latt": "35.04419",
        "longt": "0.47112",
        "address": "706 Wright InletnRobinland, WA 93909"
    },
    {
        "state": "DZ",
        "name": "Sidi Beskot",
        "city": "Berrouaghia",
        "prov": "Medea",
        "region": {},
        "latt": "36.095228",
        "longt": "2.928777",
        "address": "6579 English Mills Suite 432nMaryshire, OH 23840"
    },
    {
        "state": "DZ",
        "name": "Adrar Tefreg",
        "city": "Achabou",
        "prov": "Bu00e9jau00efa",
        "region": {},
        "latt": "36.33597",
        "longt": "4.71901",
        "address": "836 Hoffman CampnLake Courtney, KS 22353"
    },
    {
        "state": "DZ",
        "name": "Chaba Bou Tennzer",
        "city": "Douar Zerama",
        "prov": "Mascara",
        "region": {},
        "latt": "35.498425",
        "longt": "0.337919",
        "address": "3423 Holland Knoll Apt. 016nValenciaview, NY 37603"
    },
    {
        "state": "DZ",
        "name": "Kef el Mektouba",
        "city": "Taouiala",
        "prov": "Laghouat",
        "region": {},
        "latt": "33.93227",
        "longt": "1.84451",
        "address": "7243 Crystal FreewaynRiveraview, VT 56632"
    },
    {
        "state": "DZ",
        "name": "Hennchir Bazzina",
        "city": "Mechtat er Rouis",
        "prov": "Tu00e9bessa",
        "region": {},
        "latt": "35.183333",
        "longt": "7.933333",
        "address": "33343 Brad Cliffs Apt. 165nBruceton, AZ 56503"
    },
    {
        "state": "DZ",
        "name": "u2019Au00efn el Bey",
        "city": "u2019Au00efn el Bey",
        "prov": "Tu00e9bessa",
        "region": {},
        "latt": "35.48668",
        "longt": "8.31921",
        "address": "118 Christopher Harbors Suite 980nEast Shelby, SD 58289"
    },
    {
        "state": "DZ",
        "name": "Zru00eebet Ammou00fbch",
        "city": "Cheraia",
        "prov": "Skikda",
        "region": {},
        "latt": "36.99667",
        "longt": "6.51556",
        "address": "Unit 5946 Box 7970nDPO AA 43424"
    },
    {
        "state": "DZ",
        "name": "El Guattar",
        "city": "Douar Brourate",
        "prov": "Mascara",
        "region": {},
        "latt": "35.44324",
        "longt": "0.0662",
        "address": "4375 Brenda Burgs Suite 935nPort Annaport, MS 74331"
    },
    {
        "state": "DZ",
        "name": "Ben Thiouss",
        "city": "Ben Thious",
        "prov": "Biskra",
        "region": {},
        "latt": "34.645663",
        "longt": "5.480399",
        "address": "1827 Gina Motorway Apt. 715nNew Kevin, NJ 66991"
    },
    {
        "state": "DZ",
        "name": "Sidi Lhassen",
        "city": "Sidi Bel Abbu00e8s",
        "prov": "Sidi Bel Abbu00e8s",
        "region": {},
        "latt": "35.163592",
        "longt": "-0.695923",
        "address": "7800 Andrew RuenWest Andrewchester, IN 88775"
    },
    {
        "state": "DZ",
        "name": "Chabet Merra",
        "city": "Mechta Sidi Mu00e2ch",
        "prov": "Guelma",
        "region": {},
        "latt": "36.15861",
        "longt": "7.17194",
        "address": "4018 Leah Circles Suite 511nWilsonshire, AL 29097"
    },