[
    {
        "state": "SY",
        "name": "u2018Umar Zawbu0101sh",
        "city": "u2018Umar Zawbu0101sh",
        "prov": "Al-Hasakah",
        "region": null,
        "latt": "36.97463",
        "longt": "40.75841",
        "address": "6379 Irwin IslandsnPort Andrewstad, DE 36610"
    },
    {
        "state": "SY",
        "name": "New Quneitra",
        "city": "Al Qunayu0163irah",
        "prov": "Quneitra",
        "region": null,
        "latt": "33.17204",
        "longt": "35.873113",
        "address": "342 Renee Knoll Suite 635nNew Samantha, GA 86969"
    },
    {
        "state": "SY",
        "name": "Jawwu0101nu012b",
        "city": "Waqam",
        "prov": "As-Suwayda",
        "region": null,
        "latt": "32.95",
        "longt": "36.46667",
        "address": "8901 Lauren ViewnPort Laurie, SD 91807"
    },
    {
        "state": "SY",
        "name": "Nu0101u1e29iyat ad Du012bmu0101s",
        "city": "Judaydat Yu0101bu016bs",
        "prov": "Rif-dimashq",
        "region": null,
        "latt": "33.65449",
        "longt": "35.99616",
        "address": "PSC 0008, Box 7752nAPO AP 84371"
    },
    {
        "state": "SY",
        "name": "Au015f u015eabu0101ghah",
        "city": "Tallbu012bsah",
        "prov": "Homs",
        "region": null,
        "latt": "34.82022",
        "longt": "36.68494",
        "address": "629 Anderson CirclesnDaviston, SD 28485"
    },
    {
        "state": "SY",
        "name": "Tu016bn al Qirq",
        "city": "Tun al Qirq",
        "prov": "Tartus",
        "region": null,
        "latt": "35.09157",
        "longt": "36.06387",
        "address": "PSC 5905, Box 3498nAPO AA 49236"
    },
    {
        "state": "SY",
        "name": "Bju0101riz",
        "city": "Saru0101qib",
        "prov": "Idlib",
        "region": null,
        "latt": "35.9",
        "longt": "36.76667",
        "address": "2987 Griffin Shore Suite 438nSandersmouth, NJ 31262"
    },
    {
        "state": "SY",
        "name": "Jediya",
        "city": "u015ealu0101khid",
        "prov": "As-Suwayda",
        "region": null,
        "latt": "32.863631",
        "longt": "36.53287",
        "address": "42203 Catherine DrivenWest Sylviachester, ME 47272"
    },
    {
        "state": "SY",
        "name": "Mouchraq",
        "city": "Mashru0101q",
        "prov": "Al-Hasakah",
        "region": null,
        "latt": "36.818928",
        "longt": "40.527387",
        "address": "Unit 1156 Box 8587nDPO AE 83498"
    },
    {
        "state": "SY",
        "name": "Ruwaysat u2018Afu012bf",
        "city": "Ruwaysat `Afif",
        "prov": "Latakia",
        "region": null,
        "latt": "35.44044",
        "longt": "35.99663",
        "address": "6326 Jacob SquaresnNew Phillipbury, MN 68567"
    },
    {
        "state": "SY",
        "name": "Armu016bjah",
        "city": "Armu016bjah",
        "prov": "Aleppo",
        "region": null,
        "latt": "36.6651",
        "longt": "37.11094",
        "address": "7832 Barrett PassnNorth Lori, WI 25180"
    },
    {
        "state": "SY",
        "name": "Bju0101riz",
        "city": "Saru0101qib",
        "prov": "Idlib",
        "region": null,
        "latt": "35.9",
        "longt": "36.76667",
        "address": "92450 Kaufman Street Suite 666nScottfort, DE 98101"
    },
    {
        "state": "SY",
        "name": "Sayl al Liu1e29qu0101b",
        "city": "Qu0101rah",
        "prov": "Rif-dimashq",
        "region": null,
        "latt": "34.098993",
        "longt": "36.786754",
        "address": "Unit 2037 Box 3230nDPO AE 49430"
    },
    {
        "state": "SY",
        "name": "Aru1e11 Ghabu012brah",
        "city": "u2018Utayzilah",
        "prov": "Hama",
        "region": null,
        "latt": "35.42539",
        "longt": "36.47852",
        "address": "08930 Garcia BurgnMorahaven, AZ 16237"
    },
    {
        "state": "SY",
        "name": "Nu0101u1e29iyat ad Du012bmu0101s",
        "city": "Judaydat Yu0101bu016bs",
        "prov": "Rif-dimashq",
        "region": null,
        "latt": "33.65449",
        "longt": "35.99616",
        "address": "74716 Edward PlazanSouth Mark, MN 73510"
    },
    {
        "state": "SY",
        "name": "u1e28ilbu0101yah",
        "city": "Mau2018lu016blu0101",
        "prov": "Rif-dimashq",
        "region": null,
        "latt": "33.83692",
        "longt": "36.55645",
        "address": "30025 Wood PortsnWilsonport, NY 85179"
    },
    {
        "state": "SY",
        "name": "Kafrayn",
        "city": "Al Kafrayn",
        "prov": "Rif-dimashq",
        "region": null,
        "latt": "33.438031",
        "longt": "36.548457",
        "address": "1212 Miles Spur Suite 894nWest Penny, MO 86027"
    },
    {
        "state": "SY",
        "name": "An Nuu015fayr",
        "city": "An Nuu015fayr",
        "prov": "Homs",
        "region": null,
        "latt": "34.761766",
        "longt": "37.452931",
        "address": "77968 Hall FallnMelissafurt, CO 89631"
    },
    {
        "state": "SY",
        "name": "Mawqiu2018 u2018Ayn as Sayl",
        "city": "Jisr ash Shughur",
        "prov": "Idlib",
        "region": null,
        "latt": "35.82525",
        "longt": "36.32147",
        "address": "364 Walker Cove Apt. 709nWest Stephanie, ID 42660"
    },
    {
        "state": "SY",
        "name": "u0639u0648u064au0633u0629",
        "city": "Al u1e28asakah",
        "prov": "Al-Hasakah",
        "region": null,
        "latt": "36.518413",
        "longt": "40.690168",
        "address": "7130 Davis SpringsnPort Lauramouth, LA 02648"
    },
    {
        "state": "SY",
        "name": "Tulaysiyah",
        "city": "u0162ulaysu012byah",
        "prov": "Hama",
        "region": null,
        "latt": "35.38094",
        "longt": "36.91372",
        "address": "4545 Justin Cliff Suite 575nPort Sara, GA 52533"
    },
    {
        "state": "SY",
        "name": "u2018Ayn ad Du0101r",
        "city": "`Ayn ad Dar",
        "prov": "Latakia",
        "region": null,
        "latt": "35.53756",
        "longt": "36.15498",
        "address": "658 Tonya Burg Apt. 466nJeremyview, IL 57879"
    },
    {
        "state": "SY",
        "name": "Al u1e28ibu0101l",
        "city": "Au015f u015eanamayn",
        "prov": "Daraa",
        "region": null,
        "latt": "33.10726",
        "longt": "36.22334",
        "address": "84874 Tony Flat Apt. 937nAngelahaven, IA 06977"
    },
    {
        "state": "SY",
        "name": "Quu015fayr",
        "city": "Quu015fayr",
        "prov": "Al-Hasakah",
        "region": null,
        "latt": "37.01862",
        "longt": "41.32867",
        "address": "76844 Allen Glens Apt. 383nCynthiaburgh, ID 31192"
    },
    {
        "state": "IL",
        "name": "Shemurat Shefeq HaYarden Hau1e94efoni",
        "city": "Almagor",
        "prov": "Northern District",
        "region": null,
        "latt": "32.89309",
        "longt": "35.60349",
        "address": "683 Sean PlacenEast Kimberly, WA 11823"
    },
    {
        "state": "SY",
        "name": "Wu0101du012b Daflu012b",
        "city": "Kafr Takhu0101ru012bm",
        "prov": "Idlib",
        "region": null,
        "latt": "36.14282",
        "longt": "36.52224",
        "address": "746 Owens ManorsnSouth Crystalchester, KY 55679"
    },
    {
        "state": "SY",
        "name": "u1e28allu016bbu012b Kabu012br",
        "city": "u1e28allu016bbu012b Kabu012br",
        "prov": "Aleppo",
        "region": null,
        "latt": "36.62049",
        "longt": "36.88032",
        "address": "6508 Perez Knolls Suite 905nNorth Henryton, KY 04674"
    },
    {
        "state": "SY",
        "name": "Jubb u2018Abd al u2018Azu012bz",
        "city": "Jubb u2018Abd al u2018Azu012bz",
        "prov": "Aleppo",
        "region": null,
        "latt": "35.56783",
        "longt": "38.27533",
        "address": "12643 Todd ValleynPort Kimberly, TX 90917"
    },
    {
        "state": "SY",
        "name": "Zawr al u1e28ayu015fah ash Sharqu012byah",
        "city": "u1e28alfu0101yu0101",
        "prov": "Hama",
        "region": null,
        "latt": "35.26551",
        "longt": "36.65295",
        "address": "261 Gardner MotorwaynNicholaschester, HI 73896"
    },
    {
        "state": "SY",
        "name": "Jawwu0101nu012b",
        "city": "Waqam",
        "prov": "As-Suwayda",
        "region": null,
        "latt": "32.95",
        "longt": "36.46667",
        "address": "49687 Soto CornersnCindytown, NV 45651"
    },
    {
        "state": "SY",
        "name": "Tu016bn al Qirq",
        "city": "Tun al Qirq",
        "prov": "Tartus",
        "region": null,
        "latt": "35.09157",
        "longt": "36.06387",
        "address": "5063 Paul TracenNorth Ruben, DE 71788"
    },
    {
        "state": "SY",
        "name": "Bayt Nu0101filah",
        "city": "Ad Durayku012bsh",
        "prov": "Tartus",
        "region": null,
        "latt": "34.941848",
        "longt": "36.13832",
        "address": "65808 Gibson HillsnAdamsberg, CA 79376"
    },
    {
        "state": "SY",
        "name": "Al u1e28ibu0101l",
        "city": "Au015f u015eanamayn",
        "prov": "Daraa",
        "region": null,
        "latt": "33.10726",
        "longt": "36.22334",
        "address": "2130 Albert VianSouth Stacey, MS 87518"
    },
    {
        "state": "SY",
        "name": "Dayru016bnah",
        "city": "Dayru016bnah",
        "prov": "Latakia",
        "region": null,
        "latt": "35.383036",
        "longt": "36.038106",
        "address": "1736 Jordan Loop Apt. 593nEast Olivia, NC 07889"
    },
    {
        "state": "SY",
        "name": "New Quneitra",
        "city": "Al Qunayu0163irah",
        "prov": "Quneitra",
        "region": null,
        "latt": "33.17204",
        "longt": "35.873113",
        "address": "9386 Angela AvenuenEast Ashleyville, WI 44383"
    },
    {
        "state": "SY",
        "name": "Al u1e28ibu0101l",
        "city": "Au015f u015eanamayn",
        "prov": "Daraa",
        "region": null,
        "latt": "33.10726",
        "longt": "36.22334",
        "address": "75792 Sanchez LightnNorth Tracy, DC 47051"
    },
    {
        "state": "SY",
        "name": "u2018Ayn ad Du0101r",
        "city": "`Ayn ad Dar",
        "prov": "Latakia",
        "region": null,
        "latt": "35.53756",
        "longt": "36.15498",
        "address": "3166 Wilson LodgenEast Deanna, CT 21410"
    },
    {
        "state": "SY",
        "name": "Khuwaybirah",
        "city": "Khuwaybirah",
        "prov": "Al-Hasakah",
        "region": null,
        "latt": "36.01568",
        "longt": "40.99685",
        "address": "008 Jason PikenFitzgeraldborough, PA 36532"
    },
    {
        "state": "SY",
        "name": "Yu016bnisu012byah",
        "city": "Yu016bnisu012byah",
        "prov": "Al-Hasakah",
        "region": null,
        "latt": "37.17556",
        "longt": "42.09083",
        "address": "0853 Brown Common Suite 541nPort Barbara, MO 29226"
    },
    {
        "state": "SY",
        "name": "Kafrayn",
        "city": "Al Kafrayn",
        "prov": "Rif-dimashq",
        "region": null,
        "latt": "33.438031",
        "longt": "36.548457",
        "address": "9848 Teresa Mountains Apt. 941nJimenezburgh, WY 05577"
    },
    {
        "state": "SY",
        "name": "Misqu0101n",
        "city": "Misqu0101n",
        "prov": "Aleppo",
        "region": null,
        "latt": "36.3987",
        "longt": "37.11237",
        "address": "01647 Price SpringnChristophertown, OK 69016"
    },
    {
        "state": "SY",
        "name": "Mughayru0101t",
        "city": "Maghu0101rat Khanu0101u015fir",
        "prov": "Aleppo",
        "region": null,
        "latt": "35.795822",
        "longt": "37.516919",
        "address": "PSC 9920, Box 0177nAPO AA 98120"
    },
    {
        "state": "SY",
        "name": "u1e28ilbu0101yah",
        "city": "Mau2018lu016blu0101",
        "prov": "Rif-dimashq",
        "region": null,
        "latt": "33.83692",
        "longt": "36.55645",
        "address": "PSC 6407, Box 8518nAPO AE 70950"
    },
    {
        "state": "SY",
        "name": "Wu0101du012b Daflu012b",
        "city": "Kafr Takhu0101ru012bm",
        "prov": "Idlib",
        "region": null,
        "latt": "36.14282",
        "longt": "36.52224",
        "address": "57951 Lisa Ville Suite 546nWilliamsmouth, CT 43778"
    },
    {
        "state": "SY",
        "name": "Tall al Fukhkhu0101r",
        "city": "Tall al Fukhkhar",
        "prov": "Idlib",
        "region": null,
        "latt": "35.83038",
        "longt": "37.0399",
        "address": "4171 Henry Island Apt. 362nMelissaland, TN 73133"
    },
    {
        "state": "SY",
        "name": "Sayl al Liu1e29qu0101b",
        "city": "Qu0101rah",
        "prov": "Rif-dimashq",
        "region": null,
        "latt": "34.098993",
        "longt": "36.786754",
        "address": "Unit 9028 Box 2908nDPO AP 29134"
    },
    {
        "state": "SY",
        "name": "Tchaqal Ku00e9bu00eer",
        "city": "Jaqu0101l Kabu012br",
        "prov": "Aleppo",
        "region": null,
        "latt": "36.508331",
        "longt": "37.765794",
        "address": "508 Short PinenKaitlynfort, OR 75404"
    },
    {
        "state": "SY",
        "name": "Aru1e11 Ghabu012brah",
        "city": "u2018Utayzilah",
        "prov": "Hama",
        "region": null,
        "latt": "35.42539",
        "longt": "36.47852",
        "address": "78739 Estrada Crest Apt. 254nLake Sonyamouth, NY 06602"
    },
    {
        "state": "SY",
        "name": "Tell Fadrhami",
        "city": "Shadu012bd",
        "prov": "Al-Hasakah",
        "region": null,
        "latt": "35.9",
        "longt": "40.866667",
        "address": "3513 Moreno SpringsnPort Cesar, ND 70988"
    },
    {
        "state": "SY",
        "name": "Shawkatlu012byah",
        "city": "Mukharram al Fawqu0101nu012b",
        "prov": "Homs",
        "region": null,
        "latt": "34.78975",
        "longt": "37.01169",
        "address": "19344 Pamela FlatnRobinton, RI 07274"
    },
    {
        "state": "SY",
        "name": "Tu016bn al Qirq",
        "city": "Tun al Qirq",
        "prov": "Tartus",
        "region": null,
        "latt": "35.09157",
        "longt": "36.06387",
        "address": "95682 Daniel PassnPort Michaelfort, MN 07000"
    },
    {
        "state": "SY",
        "name": "Tell Fadrhami",
        "city": "Shadu012bd",
        "prov": "Al-Hasakah",
        "region": null,
        "latt": "35.9",
        "longt": "40.866667",
        "address": "915 Russell VianSouth Peter, PA 64631"
    },
    {
        "state": "SY",
        "name": "Buwayu0163u012byah",
        "city": "Buwayu0163u012byah",
        "prov": "Ar-Raqqah",
        "region": null,
        "latt": "35.93333",
        "longt": "39.11667",
        "address": "756 Rebecca WalknPaulstad, NC 64138"
    },
    {
        "state": "SY",
        "name": "Tall u1e28ujayr",
        "city": "Al Wau2018rah",
        "prov": "Al-Hasakah",
        "region": null,
        "latt": "36.91499",
        "longt": "41.65075",
        "address": "3235 Keith CapenFullerfurt, PA 68317"
    },
    {
        "state": "SY",
        "name": "Tell el Maftou00fbh",
        "city": "Tadmur",
        "prov": "Homs",
        "region": null,
        "latt": "34.516667",
        "longt": "38.283333",
        "address": "7188 James MountnEast Adamberg, FL 66788"
    },
    {
        "state": "SY",
        "name": "Tu016bn al Qirq",
        "city": "Tun al Qirq",
        "prov": "Tartus",
        "region": null,
        "latt": "35.09157",
        "longt": "36.06387",
        "address": "612 Christopher ParkwaysnAmandaview, DC 84775"
    },
    {
        "state": "SY",
        "name": "Mawqiu2018 u2018Ayn as Sayl",
        "city": "Jisr ash Shughur",
        "prov": "Idlib",
        "region": null,
        "latt": "35.82525",
        "longt": "36.32147",
        "address": "69168 Brian View Apt. 118nKelleyport, CA 45512"
    },
    {
        "state": "SY",
        "name": "Qibu0101b u015eaghu012br",
        "city": "Qibab Saghir",
        "prov": "Aleppo",
        "region": null,
        "latt": "36.22659",
        "longt": "38.05248",
        "address": "Unit 1144 Box 4396nDPO AA 44697"
    },
    {
        "state": "SY",
        "name": "Misqu0101n",
        "city": "Misqu0101n",
        "prov": "Aleppo",
        "region": null,
        "latt": "36.3987",
        "longt": "37.11237",
        "address": "96038 Turner CapenLake Taylor, NV 46716"
    },
    {
        "state": "SY",
        "name": "Dayru016bnah",
        "city": "Dayru016bnah",
        "prov": "Latakia",
        "region": null,
        "latt": "35.383036",
        "longt": "36.038106",
        "address": "0662 Oliver EstatesnButlerville, ID 99366"
    },
    {
        "state": "SY",
        "name": "Bju0101riz",
        "city": "Saru0101qib",
        "prov": "Idlib",
        "region": null,
        "latt": "35.9",
        "longt": "36.76667",
        "address": "897 Tanner Plaza Apt. 784nPhillipsville, LA 32983"
    },
    {
        "state": "SY",
        "name": "Biu2019r al u1e28idu0101b",
        "city": "u1e28imu015f - u1e28amu0101h",
        "prov": "Deir ez-Zor",
        "region": null,
        "latt": "35.70308",
        "longt": "40.41161",
        "address": "02179 Green WalksnSouth Kristinaberg, ID 61482"
    },
    {
        "state": "SY",
        "name": "Au015f u015eabu0101ghah",
        "city": "Tallbu012bsah",
        "prov": "Homs",
        "region": null,
        "latt": "34.82022",
        "longt": "36.68494",
        "address": "USNV PearsonnFPO AA 22859"
    },
    {
        "state": "SY",
        "name": "An Nabu0101j",
        "city": "Bu012br Nabu0101j",
        "prov": "Ar-Raqqah",
        "region": null,
        "latt": "35.58333",
        "longt": "38.35",
        "address": "34438 Amber Streets Apt. 733nBrownville, WI 44319"
    },
    {
        "state": "SY",
        "name": "Aru1e11 as Sabu2018u012bnu012byah",
        "city": "Qambru012bsah",
        "prov": "Homs",
        "region": null,
        "latt": "34.33378",
        "longt": "36.91403",
        "address": "9417 Kelly Canyon Suite 958nEast Maryhaven, WV 13665"
    },
    {
        "state": "SY",
        "name": "Al Masu0101u0163ib",
        "city": "Shuqaydilah",
        "prov": "Aleppo",
        "region": null,
        "latt": "36.035071",
        "longt": "37.074508",
        "address": "61376 Hodges Via Suite 217nMathewtown, MT 39978"
    },
    {
        "state": "SY",
        "name": "Qubu2018 Shuu2018bat u1e28asnah",
        "city": "Ju016bsu012byah",
        "prov": "Homs",
        "region": null,
        "latt": "34.39886",
        "longt": "36.59902",
        "address": "80766 Hernandez Port Apt. 719nJasonton, SC 84536"
    },
    {
        "state": "SY",
        "name": "Kafrayn",
        "city": "Al Kafrayn",
        "prov": "Rif-dimashq",
        "region": null,
        "latt": "33.438031",
        "longt": "36.548457",
        "address": "8872 Murray Fields Apt. 782nWest Lauraside, WV 86684"
    },
    {
        "state": "SY",
        "name": "Misqu0101n",
        "city": "Misqu0101n",
        "prov": "Aleppo",
        "region": null,
        "latt": "36.3987",
        "longt": "37.11237",
        "address": "679 Smith HeightsnPotterville, DC 16892"
    },
    {
        "state": "SY",
        "name": "Ruwaysat u2018Afu012bf",
        "city": "Ruwaysat `Afif",
        "prov": "Latakia",
        "region": null,
        "latt": "35.44044",
        "longt": "35.99663",
        "address": "8519 Joe JunctionnRodriguezhaven, DC 71395"
    },
    {
        "state": "SY",
        "name": "Ruwaysat u2018Afu012bf",
        "city": "Ruwaysat `Afif",
        "prov": "Latakia",
        "region": null,
        "latt": "35.44044",
        "longt": "35.99663",
        "address": "Unit 3401 Box 9247nDPO AE 36414"
    },
    {
        "state": "SY",
        "name": "Zawr al u1e28ayu015fah ash Sharqu012byah",
        "city": "u1e28alfu0101yu0101",
        "prov": "Hama",
        "region": null,
        "latt": "35.26551",
        "longt": "36.65295",
        "address": "PSC 9525, Box 5100nAPO AA 68090"
    },
    {
        "state": "SY",
        "name": "Qibu0101b u015eaghu012br",
        "city": "Qibab Saghir",
        "prov": "Aleppo",
        "region": null,
        "latt": "36.22659",
        "longt": "38.05248",
        "address": "8607 Jones CampnNorth Jillian, SC 44474"
    },
    {
        "state": "SY",
        "name": "Bayt u2018Alu012b",
        "city": "Bayt u2018Alu012b",
        "prov": "Homs",
        "region": null,
        "latt": "34.52874",
        "longt": "36.38534",
        "address": "22853 Jerry Via Suite 167nGreentown, AK 56507"
    },
    {
        "state": "SY",
        "name": "Bu0101bu012bru012b Tau1e29tu0101",
        "city": "Bu0101bu012bru012b Tau1e29tu0101",
        "prov": "Aleppo",
        "region": null,
        "latt": "36.12547",
        "longt": "38.0516",
        "address": "377 Taylor CliffnSmithville, MS 33545"
    },
    {
        "state": "SY",
        "name": "Kheurbet Ndeu00efbi",
        "city": "Al Ghu0101riyah",
        "prov": "As-Suwayda",
        "region": "Salkhad District",
        "latt": "32.366667",
        "longt": "36.65",
        "address": "20247 Travis CoursenHortonland, VT 75860"
    },
    {
        "state": "SY",
        "name": "Al u1e28ibu0101l",
        "city": "Au015f u015eanamayn",
        "prov": "Daraa",
        "region": null,
        "latt": "33.10726",
        "longt": "36.22334",
        "address": "3269 Cox CrossroadnSouth Marthafort, MA 73300"
    },
    {
        "state": "SY",
        "name": "Tu016bn al Qirq",
        "city": "Tun al Qirq",
        "prov": "Tartus",
        "region": null,
        "latt": "35.09157",
        "longt": "36.06387",
        "address": "80539 Jenna MountainnSeanland, AK 15017"
    },
    {
        "state": "SY",
        "name": "Tell Fadrhami",
        "city": "Shadu012bd",
        "prov": "Al-Hasakah",
        "region": null,
        "latt": "35.9",
        "longt": "40.866667",
        "address": "4559 Stephens Spur Suite 291nEast Ianland, LA 41735"
    },
    {
        "state": "SY",
        "name": "u0639u0648u064au0633u0629",
        "city": "Al u1e28asakah",
        "prov": "Al-Hasakah",
        "region": null,
        "latt": "36.518413",
        "longt": "40.690168",
        "address": "848 Wallace ShoalnEast Jeffrey, VA 73738"
    },
    {
        "state": "SY",
        "name": "Mughayru0101t",
        "city": "Maghu0101rat Khanu0101u015fir",
        "prov": "Aleppo",
        "region": null,
        "latt": "35.795822",
        "longt": "37.516919",
        "address": "PSC 9074, Box 5766nAPO AE 85691"
    },
    {
        "state": "SY",
        "name": "Arabcha",
        "city": "u2018Arabshu0101h",
        "prov": "Aleppo",
        "region": null,
        "latt": "36.637569",
        "longt": "38.537994",
        "address": "21198 Wood MillsnNew Eric, SD 58506"
    },
    {
        "state": "SY",
        "name": "Biu2019r al u1e28idu0101b",
        "city": "u1e28imu015f - u1e28amu0101h",
        "prov": "Deir ez-Zor",
        "region": null,
        "latt": "35.70308",
        "longt": "40.41161",
        "address": "66330 Hernandez CenternChristymouth, TN 18060"
    },
    {
        "state": "SY",
        "name": "Misqu0101n",
        "city": "Misqu0101n",
        "prov": "Aleppo",
        "region": null,
        "latt": "36.3987",
        "longt": "37.11237",
        "address": "1377 Boyer Fork Suite 200nHolmesmouth, CA 33181"
    },
    {
        "state": "SY",
        "name": "Au012bn el Khadjiche",
        "city": "u2018Ayn al Jau1e29sh",
        "prov": "Aleppo",
        "region": null,
        "latt": "36.274832",
        "longt": "37.530254",
        "address": "66694 Bryan Highway Apt. 269nThompsonhaven, KS 55657"
    },
    {
        "state": "SY",
        "name": "Bayt u2018Alu012b",
        "city": "Bayt u2018Alu012b",
        "prov": "Homs",
        "region": null,
        "latt": "34.52874",
        "longt": "36.38534",
        "address": "407 Good DividenEast Heather, NE 43494"
    },
    {
        "state": "SY",
        "name": "Bayt Nu0101filah",
        "city": "Ad Durayku012bsh",
        "prov": "Tartus",
        "region": null,
        "latt": "34.941848",
        "longt": "36.13832",
        "address": "13789 Howell PlazanLake Anna, MI 28365"
    },
    {
        "state": "SY",
        "name": "Qabr al u2018Abd",
        "city": "Qabr al u2018Abd",
        "prov": "Al-Hasakah",
        "region": null,
        "latt": "36.72072",
        "longt": "41.01793",
        "address": "3927 Adam PathnGregorymouth, IA 42276"
    },
    {
        "state": "SY",
        "name": "u1e28ilbu0101yah",
        "city": "Mau2018lu016blu0101",
        "prov": "Rif-dimashq",
        "region": null,
        "latt": "33.83692",
        "longt": "36.55645",
        "address": "998 Micheal Manor Suite 556nSchwartzstad, AK 81503"
    },
    {
        "state": "SY",
        "name": "Al u1e28ibu0101l",
        "city": "Au015f u015eanamayn",
        "prov": "Daraa",
        "region": null,
        "latt": "33.10726",
        "longt": "36.22334",
        "address": "871 Jacqueline OrchardnPort Michaelside, MD 41453"
    },
    {
        "state": "SY",
        "name": "Khirbat ath Thanu012byah",
        "city": "Athru012byu0101",
        "prov": "Hama",
        "region": null,
        "latt": "35.35",
        "longt": "37.85",
        "address": "4906 Nguyen TerracenKingshire, UT 51929"
    },
    {
        "state": "SY",
        "name": "Shallu012btu0101",
        "city": "Zawr al Murshid Simu2018u0101n",
        "prov": "Homs",
        "region": null,
        "latt": "34.44189",
        "longt": "36.52221",
        "address": "8589 Mata Path Apt. 014nNicholemouth, MD 99002"
    },
    {
        "state": "SY",
        "name": "u2018Ayn ad Du0101r",
        "city": "`Ayn ad Dar",
        "prov": "Latakia",
        "region": null,
        "latt": "35.53756",
        "longt": "36.15498",
        "address": "14698 Lopez Mission Suite 356nLake Petermouth, NE 76108"
    },
    {
        "state": "SY",
        "name": "Sayl al Liu1e29qu0101b",
        "city": "Qu0101rah",
        "prov": "Rif-dimashq",
        "region": null,
        "latt": "34.098993",
        "longt": "36.786754",
        "address": "37196 Stevens Avenue Suite 556nNew Graceshire, MD 08354"
    },
    {
        "state": "SY",
        "name": "Bju0101riz",
        "city": "Saru0101qib",
        "prov": "Idlib",
        "region": null,
        "latt": "35.9",
        "longt": "36.76667",
        "address": "01518 Johnson Fords Apt. 937nPort Joseburgh, DC 41028"
    },
    {
        "state": "SY",
        "name": "Ruwaysat u2018Afu012bf",
        "city": "Ruwaysat `Afif",
        "prov": "Latakia",
        "region": null,
        "latt": "35.44044",
        "longt": "35.99663",
        "address": "8684 Zimmerman MewsnPort Douglas, NH 59539"
    },
    {
        "state": "SY",
        "name": "Qubu2018 Shuu2018bat u1e28asnah",
        "city": "Ju016bsu012byah",
        "prov": "Homs",
        "region": null,
        "latt": "34.39886",
        "longt": "36.59902",
        "address": "Unit 7828 Box 8651nDPO AA 60531"
    },
    {
        "state": "SY",
        "name": "Ju016brat ash Shaqafu0101n",
        "city": "Du0101rayyu0101",
        "prov": "Rif-dimashq",
        "region": null,
        "latt": "33.474",
        "longt": "36.19894",
        "address": "959 Jackson ParkwaysnLynchtown, NM 60772"
    },
    {
        "state": "SY",
        "name": "u1e28ayy al Bustu0101n",
        "city": "Harasta",
        "prov": "Rif-dimashq",
        "region": null,
        "latt": "33.5555",
        "longt": "36.35958",
        "address": "Unit 4206 Box 0419nDPO AA 15204"
    },
    {
        "state": "SY",
        "name": "Mu012brzat ash Shahu012bd",
        "city": "Mu012brzah ash Shahu012bd",
        "prov": "Aleppo",
        "region": null,
        "latt": "36.629784",
        "longt": "37.738549",
        "address": "9739 Jennifer Track Suite 973nNorth Jessicaview, ND 22823"
    },
    {
        "state": "SY",
        "name": "Kafrayn",
        "city": "Al Kafrayn",
        "prov": "Rif-dimashq",
        "region": null,
        "latt": "33.438031",
        "longt": "36.548457",
        "address": "PSC 5286, Box 3512nAPO AE 49258"
    },
    {
        "state": "SY",
        "name": "Qubu2018 Shuu2018bat u1e28asnah",
        "city": "Ju016bsu012byah",
        "prov": "Homs",
        "region": null,
        "latt": "34.39886",
        "longt": "36.59902",
        "address": "3471 Mathew FlatsnBriannaburgh, CA 28134"
    },
    {
        "state": "SY",
        "name": "u2018Ayn ad Du0101r",
        "city": "`Ayn ad Dar",
        "prov": "Latakia",
        "region": null,
        "latt": "35.53756",
        "longt": "36.15498",
        "address": "746 John PortnCrossside, CA 14580"
    },
    {
        "state": "SY",
        "name": "Al Masu0101u0163ib",
        "city": "Shuqaydilah",
        "prov": "Aleppo",
        "region": null,
        "latt": "36.035071",
        "longt": "37.074508",
        "address": "Unit 7436 Box 0132nDPO AA 66296"
    },
    {
        "state": "SY",
        "name": "u0648u0627u062fu064a u062cu064au0631u0627u0646",
        "city": "Bu012br Umm al Qabu0101bu012br",
        "prov": "Homs",
        "region": null,
        "latt": "34.631446",
        "longt": "38.029896",
        "address": "428 Sandoval Cliff Apt. 153nNew Nicole, MI 88894"
    },
    {
        "state": "SY",
        "name": "Ju016brat ash Shaqafu0101n",
        "city": "Du0101rayyu0101",
        "prov": "Rif-dimashq",
        "region": null,
        "latt": "33.474",
        "longt": "36.19894",
        "address": "214 Kevin SquaresnNorth Laura, DE 39008"
    },
    {
        "state": "SY",
        "name": "u2018Ayn ad Du0101r",
        "city": "`Ayn ad Dar",
        "prov": "Latakia",
        "region": null,
        "latt": "35.53756",
        "longt": "36.15498",
        "address": "28197 Kyle CenternBrockland, UT 67251"
    },
    {
        "state": "SY",
        "name": "Wu0101du012b Daflu012b",
        "city": "Kafr Takhu0101ru012bm",
        "prov": "Idlib",
        "region": null,
        "latt": "36.14282",
        "longt": "36.52224",
        "address": "476 Ortiz CirclesnMatthewfort, VA 06071"
    },
    {
        "state": "SY",
        "name": "u2018Ayn al u1e28amru0101",
        "city": "u2018Ayn al u1e28awm",
        "prov": "As-Suwayda",
        "region": null,
        "latt": "32.69308",
        "longt": "36.7032",
        "address": "8100 Jordan Dam Suite 201nNew Mary, WY 51350"
    },
    {
        "state": "SY",
        "name": "u2018Ayn ad Du0101r",
        "city": "`Ayn ad Dar",
        "prov": "Latakia",
        "region": null,
        "latt": "35.53756",
        "longt": "36.15498",
        "address": "048 Reynolds FieldnWest Jennifer, NY 56775"
    },
    {
        "state": "SY",
        "name": "Al Jinu0101",
        "city": "Al Jina",
        "prov": "Al-Hasakah",
        "region": null,
        "latt": "35.70996",
        "longt": "40.72846",
        "address": "7669 Harvey Creek Suite 458nNorth Zachary, AK 47268"
    },
    {
        "state": "SY",
        "name": "Al Jinu0101",
        "city": "Al Jina",
        "prov": "Al-Hasakah",
        "region": null,
        "latt": "35.70996",
        "longt": "40.72846",
        "address": "421 Sherry Trace Suite 090nSandersborough, CA 98943"
    },
    {
        "state": "SY",
        "name": "Al Masu0101u0163ib",
        "city": "Shuqaydilah",
        "prov": "Aleppo",
        "region": null,
        "latt": "36.035071",
        "longt": "37.074508",
        "address": "34090 Armstrong DrivenSouth Julie, NH 40677"
    },
    {
        "state": "SY",
        "name": "u2018Ayn ad Du0101r",
        "city": "`Ayn ad Dar",
        "prov": "Latakia",
        "region": null,
        "latt": "35.53756",
        "longt": "36.15498",
        "address": "084 Danny Plains Apt. 647nEast Sharonview, FL 99260"
    },
    {
        "state": "SY",
        "name": "New Quneitra",
        "city": "Al Qunayu0163irah",
        "prov": "Quneitra",
        "region": null,
        "latt": "33.17204",
        "longt": "35.873113",
        "address": "USNV HoustonnFPO AE 50913"
    },
    {
        "state": "SY",
        "name": "Zawr al u1e28ayu015fah ash Sharqu012byah",
        "city": "u1e28alfu0101yu0101",
        "prov": "Hama",
        "region": null,
        "latt": "35.26551",
        "longt": "36.65295",
        "address": "5306 King Groves Apt. 534nNorth Allison, UT 71935"
    },
    {
        "state": "SY",
        "name": "Ju016brat ash Shaqafu0101n",
        "city": "Du0101rayyu0101",
        "prov": "Rif-dimashq",
        "region": null,
        "latt": "33.474",
        "longt": "36.19894",
        "address": "3465 Kevin Parks Suite 949nSmallmouth, OR 08218"
    },
    {
        "state": "SY",
        "name": "Tell el Maftou00fbh",
        "city": "Tadmur",
        "prov": "Homs",
        "region": null,
        "latt": "34.516667",
        "longt": "38.283333",
        "address": "62505 Michelle FreewaynNorth Holly, DE 63975"
    },
    {
        "state": "SY",
        "name": "New Quneitra",
        "city": "Al Qunayu0163irah",
        "prov": "Quneitra",
        "region": null,
        "latt": "33.17204",
        "longt": "35.873113",
        "address": "5276 Walker StreetnPort Angelaland, NH 90730"
    },
    {
        "state": "SY",
        "name": "Nu0101u1e29iyat ad Du012bmu0101s",
        "city": "Judaydat Yu0101bu016bs",
        "prov": "Rif-dimashq",
        "region": null,
        "latt": "33.65449",
        "longt": "35.99616",
        "address": "5671 Rodney StreetsnMarkhaven, DE 30429"
    },
    {
        "state": "SY",
        "name": "u2018Ayn al Kabu012brah",
        "city": "Ad Duraykish",
        "prov": "Tartus",
        "region": null,
        "latt": "34.89696",
        "longt": "36.21023",
        "address": "260 Gonzalez Point Apt. 472nSouth Brooke, IL 26973"
    },
    {
        "state": "SY",
        "name": "u2018Ayn al Kabu012brah",
        "city": "Ad Duraykish",
        "prov": "Tartus",
        "region": null,
        "latt": "34.89696",
        "longt": "36.21023",
        "address": "7266 Lauren VistanDeborahport, GA 37082"
    },
    {
        "state": "SY",
        "name": "Ju016brat ash Shaqafu0101n",
        "city": "Du0101rayyu0101",
        "prov": "Rif-dimashq",
        "region": null,
        "latt": "33.474",
        "longt": "36.19894",
        "address": "413 King Road Suite 357nSouth Jessicashire, NM 80471"
    },
    {
        "state": "SY",
        "name": "u1e28ayy al Bustu0101n",
        "city": "Harasta",
        "prov": "Rif-dimashq",
        "region": null,
        "latt": "33.5555",
        "longt": "36.35958",
        "address": "990 Benjamin PointnLake Joshuaburgh, NM 54354"
    },
    {
        "state": "SY",
        "name": "Tu016bn al Qirq",
        "city": "Tun al Qirq",
        "prov": "Tartus",
        "region": null,
        "latt": "35.09157",
        "longt": "36.06387",
        "address": "2289 Patrick Drives Apt. 301nAlexanderside, NY 24984"
    },
    {
        "state": "SY",
        "name": "Shu0101rat Tall Nau2018ir",
        "city": "Mau2018arrat u0162ayrah",
        "prov": "Idlib",
        "region": null,
        "latt": "35.50645",
        "longt": "36.5973",
        "address": "734 Johns MillnNew Brenda, NH 45812"
    },
    {
        "state": "SY",
        "name": "Wu0101du012b Qannu0101u015f",
        "city": "u1e28ufayr",
        "prov": "Homs",
        "region": null,
        "latt": "34.13192",
        "longt": "37.24996",
        "address": "0169 Robinson ShoalnTaraside, AL 83627"
    },
    {
        "state": "SY",
        "name": "Qibu0101b u015eaghu012br",
        "city": "Qibab Saghir",
        "prov": "Aleppo",
        "region": null,
        "latt": "36.22659",
        "longt": "38.05248",
        "address": "07767 Elizabeth RampnArthurview, AZ 63131"
    },
    {
        "state": "SY",
        "name": "u1e28ayy al Bustu0101n",
        "city": "Harasta",
        "prov": "Rif-dimashq",
        "region": null,
        "latt": "33.5555",
        "longt": "36.35958",
        "address": "PSC 0184, Box 5203nAPO AP 84328"
    },
    {
        "state": "SY",
        "name": "u2018Ayn al Kabu012brah",
        "city": "Ad Duraykish",
        "prov": "Tartus",
        "region": null,
        "latt": "34.89696",
        "longt": "36.21023",
        "address": "73224 Jeffery PikenEast Kathleenshire, DC 81627"
    },
    {
        "state": "SY",
        "name": "Nu016bzanu0163u012b az Zarqu0101",
        "city": "Salqu012bn",
        "prov": "Idlib",
        "region": null,
        "latt": "36.17675",
        "longt": "36.4166",
        "address": "7114 Kathleen Path Apt. 676nYoungland, WV 24656"
    },
    {
        "state": "SY",
        "name": "Nu0101u1e29iyat ad Du012bmu0101s",
        "city": "Judaydat Yu0101bu016bs",
        "prov": "Rif-dimashq",
        "region": null,
        "latt": "33.65449",
        "longt": "35.99616",
        "address": "7208 Jamie Vista Apt. 778nSouth Jeremy, ME 18725"
    },
    {
        "state": "SY",
        "name": "Ruwaysat u2018Afu012bf",
        "city": "Ruwaysat `Afif",
        "prov": "Latakia",
        "region": null,
        "latt": "35.44044",
        "longt": "35.99663",
        "address": "9064 Thornton Estates Suite 270nLake Christopher, NJ 15157"
    },
    {
        "state": "SY",
        "name": "Sayl al Liu1e29qu0101b",
        "city": "Qu0101rah",
        "prov": "Rif-dimashq",
        "region": null,
        "latt": "34.098993",
        "longt": "36.786754",
        "address": "504 Charles Street Apt. 660nRollinsville, HI 42798"
    },
    {
        "state": "SY",
        "name": "Mawqiu2018 u2018Ayn as Sayl",
        "city": "Jisr ash Shughur",
        "prov": "Idlib",
        "region": null,
        "latt": "35.82525",
        "longt": "36.32147",
        "address": "561 Tran PortsnLoriland, DE 99911"
    },
    {
        "state": "SY",
        "name": "u2018Ayn al Kabu012brah",
        "city": "Ad Duraykish",
        "prov": "Tartus",
        "region": null,
        "latt": "34.89696",
        "longt": "36.21023",
        "address": "923 Davis VianWest Brent, SC 76368"
    },
    {
        "state": "SY",
        "name": "Ju016brat ash Shaqafu0101n",
        "city": "Du0101rayyu0101",
        "prov": "Rif-dimashq",
        "region": null,
        "latt": "33.474",
        "longt": "36.19894",
        "address": "8149 Carl PlazanMarystad, NC 44200"
    },
    {
        "state": "SY",
        "name": "Zawr al u1e28ayu015fah ash Sharqu012byah",
        "city": "u1e28alfu0101yu0101",
        "prov": "Hama",
        "region": null,
        "latt": "35.26551",
        "longt": "36.65295",
        "address": "619 Montes Pine Suite 086nKellerview, MS 77887"
    },
    {
        "state": "SY",
        "name": "Al Ashrafu012byah",
        "city": "`Afrin",
        "prov": "Aleppo",
        "region": null,
        "latt": "36.51067",
        "longt": "36.87833",
        "address": "732 Garner Harbors Apt. 273nColinfurt, TN 24670"
    },
    {
        "state": "SY",
        "name": "u2018Ayn al Kabu012brah",
        "city": "Ad Duraykish",
        "prov": "Tartus",
        "region": null,
        "latt": "34.89696",
        "longt": "36.21023",
        "address": "753 Peter Spurs Suite 113nRichardsonshire, KY 62798"
    },
    {
        "state": "SY",
        "name": "Zawr al u1e28ayu015fah ash Sharqu012byah",
        "city": "u1e28alfu0101yu0101",
        "prov": "Hama",
        "region": null,
        "latt": "35.26551",
        "longt": "36.65295",
        "address": "92222 Miller RuenNorth Michael, MD 09179"
    },
    {
        "state": "SY",
        "name": "Khirbat u2018Ubayd",
        "city": "Khirbat u2018Ubayd",
        "prov": "Al-Hasakah",
        "region": null,
        "latt": "37.207542",
        "longt": "42.185454",
        "address": "82090 Garcia CoursenPort Jacobhaven, WA 48083"
    },
    {
        "state": "SY",
        "name": "u1e28ilbu0101yah",
        "city": "Mau2018lu016blu0101",
        "prov": "Rif-dimashq",
        "region": null,
        "latt": "33.83692",
        "longt": "36.55645",
        "address": "42623 Misty Parkway Suite 703nNorth Debra, VT 11533"
    },
    {
        "state": "SY",
        "name": "Al Ashrafu012byah",
        "city": "`Afrin",
        "prov": "Aleppo",
        "region": null,
        "latt": "36.51067",
        "longt": "36.87833",
        "address": "1473 Allison SummitnWest Timothy, CO 14457"
    },
    {
        "state": "SY",
        "name": "Tu016bramu0101n",
        "city": "Tu016bramu0101n",
        "prov": "Aleppo",
        "region": null,
        "latt": "36.69923",
        "longt": "38.22158",
        "address": "USS MaynardnFPO AA 50046"
    },
    {
        "state": "SY",
        "name": "u0648u0627u062fu064a u062cu064au0631u0627u0646",
        "city": "Bu012br Umm al Qabu0101bu012br",
        "prov": "Homs",
        "region": null,
        "latt": "34.631446",
        "longt": "38.029896",
        "address": "USCGC PetersonnFPO AE 53678"
    },
    {
        "state": "SY",
        "name": "Tu016bn al Qirq",
        "city": "Tun al Qirq",
        "prov": "Tartus",
        "region": null,
        "latt": "35.09157",
        "longt": "36.06387",
        "address": "5320 Carol Parkways Suite 982nWest Patrickhaven, WI 15786"
    },
    {
        "state": "SY",
        "name": "Kafrayn",
        "city": "Al Kafrayn",
        "prov": "Rif-dimashq",
        "region": null,
        "latt": "33.438031",
        "longt": "36.548457",
        "address": "84220 King Square Apt. 535nJulieland, CA 09786"
    },
    {
        "state": "SY",
        "name": "Al u1e28au015fw",
        "city": "Al Hasw",
        "prov": "Al-Hasakah",
        "region": null,
        "latt": "36.18",
        "longt": "40.48167",
        "address": "USCGC HamiltonnFPO AE 82261"
    },
    {
        "state": "SY",
        "name": "New Quneitra",
        "city": "Al Qunayu0163irah",
        "prov": "Quneitra",
        "region": null,
        "latt": "33.17204",
        "longt": "35.873113",
        "address": "04438 Kaitlin FreewaynSouth Deanna, NH 17173"
    },
    {
        "state": "SY",
        "name": "u0639u0648u064au0633u0629",
        "city": "Al u1e28asakah",
        "prov": "Al-Hasakah",
        "region": null,
        "latt": "36.518413",
        "longt": "40.690168",
        "address": "14613 Deleon FlatsnMedinaborough, NE 15367"
    },
    {
        "state": "SY",
        "name": "Mawqiu2018 u2018Ayn as Sayl",
        "city": "Jisr ash Shughur",
        "prov": "Idlib",
        "region": null,
        "latt": "35.82525",
        "longt": "36.32147",
        "address": "Unit 1873 Box 0760nDPO AA 58776"
    },
    {
        "state": "SY",
        "name": "Tu016bramu0101n",
        "city": "Tu016bramu0101n",
        "prov": "Aleppo",
        "region": null,
        "latt": "36.69923",
        "longt": "38.22158",
        "address": "9840 Derek Turnpike Apt. 377nLake Debraton, NM 29050"
    },
    {
        "state": "SY",
        "name": "Zawr al u1e28ayu015fah ash Sharqu012byah",
        "city": "u1e28alfu0101yu0101",
        "prov": "Hama",
        "region": null,
        "latt": "35.26551",
        "longt": "36.65295",
        "address": "071 Rich PortnThompsonshire, FL 68785"
    },
    {
        "state": "SY",
        "name": "Tall al Fukhkhu0101r",
        "city": "Tall al Fukhkhar",
        "prov": "Idlib",
        "region": null,
        "latt": "35.83038",
        "longt": "37.0399",
        "address": "014 Anthony MillsnAntoniofort, ID 93973"
    },
    {
        "state": "SY",
        "name": "Tu016bramu0101n",
        "city": "Tu016bramu0101n",
        "prov": "Aleppo",
        "region": null,
        "latt": "36.69923",
        "longt": "38.22158",
        "address": "5344 Christopher CliffsnNew Jenny, MT 46838"
    },
    {
        "state": "SY",
        "name": "Au015f u015eabu0101ghah",
        "city": "Tallbu012bsah",
        "prov": "Homs",
        "region": null,
        "latt": "34.82022",
        "longt": "36.68494",
        "address": "058 Hood VillenWest Travisstad, SC 61755"
    },
    {
        "state": "SY",
        "name": "Tall al Fukhkhu0101r",
        "city": "Tall al Fukhkhar",
        "prov": "Idlib",
        "region": null,
        "latt": "35.83038",
        "longt": "37.0399",
        "address": "828 Tony Union Apt. 828nJanetville, NH 29344"
    },
    {
        "state": "SY",
        "name": "Au012bn el Khadjiche",
        "city": "u2018Ayn al Jau1e29sh",
        "prov": "Aleppo",
        "region": null,
        "latt": "36.274832",
        "longt": "37.530254",
        "address": "640 Brooke Island Apt. 078nLake Mark, ND 74218"
    },
    {
        "state": "SY",
        "name": "Rawu1e11ah",
        "city": "Rawu1e11ah",
        "prov": "Deir ez-Zor",
        "region": null,
        "latt": "35.90318",
        "longt": "39.79931",
        "address": "147 Bridges Lane Suite 387nJohnberg, ME 85671"
    },
    {
        "state": "SY",
        "name": "Kafrayn",
        "city": "Al Kafrayn",
        "prov": "Rif-dimashq",
        "region": null,
        "latt": "33.438031",
        "longt": "36.548457",
        "address": "131 Nicole Field Apt. 680nNew Aaronbury, CT 41468"
    },
    {
        "state": "SY",
        "name": "Misqu0101n",
        "city": "Misqu0101n",
        "prov": "Aleppo",
        "region": null,
        "latt": "36.3987",
        "longt": "37.11237",
        "address": "156 Shane Avenue Suite 041nButlerstad, ME 27047"
    },
    {
        "state": "SY",
        "name": "Qubu2018 Shuu2018bat u1e28asnah",
        "city": "Ju016bsu012byah",
        "prov": "Homs",
        "region": null,
        "latt": "34.39886",
        "longt": "36.59902",
        "address": "78550 Shawn FreewaynRebekahview, VA 40308"
    },
    {
        "state": "SY",
        "name": "Ju016brat ash Shaqafu0101n",
        "city": "Du0101rayyu0101",
        "prov": "Rif-dimashq",
        "region": null,
        "latt": "33.474",
        "longt": "36.19894",
        "address": "79732 Sharon Bypass Apt. 950nNorth Rebekahberg, MN 79999"
    },
    {
        "state": "SY",
        "name": "Dayr Simu2018u0101n",
        "city": "Dayr Simu2018u0101n",
        "prov": "Aleppo",
        "region": null,
        "latt": "36.32469",
        "longt": "36.83617",
        "address": "PSC 2638, Box 5959nAPO AP 94602"
    },
    {
        "state": "SY",
        "name": "Tall Amu012br",
        "city": "Tall Amu012br",
        "prov": "Al-Hasakah",
        "region": null,
        "latt": "36.93751",
        "longt": "40.36421",
        "address": "0795 Christopher Springs Suite 636nTaylorstad, MS 74768"
    },
    {
        "state": "SY",
        "name": "Ju016brat ash Shaqafu0101n",
        "city": "Du0101rayyu0101",
        "prov": "Rif-dimashq",
        "region": null,
        "latt": "33.474",
        "longt": "36.19894",
        "address": "Unit 4441 Box 0112nDPO AP 29023"
    },
    {
        "state": "SY",
        "name": "Al Masu0101u0163ib",
        "city": "Shuqaydilah",
        "prov": "Aleppo",
        "region": null,
        "latt": "36.035071",
        "longt": "37.074508",
        "address": "160 Hall MountainsnStevensborough, SD 16971"
    },
    {
        "state": "SY",
        "name": "Bayt u2018Alu012b",
        "city": "Bayt u2018Alu012b",
        "prov": "Homs",
        "region": null,
        "latt": "34.52874",
        "longt": "36.38534",
        "address": "Unit 4211 Box 1186nDPO AE 50395"
    },
    {
        "state": "SY",
        "name": "Sayl al Liu1e29qu0101b",
        "city": "Qu0101rah",
        "prov": "Rif-dimashq",
        "region": null,
        "latt": "34.098993",
        "longt": "36.786754",
        "address": "PSC 9404, Box 5123nAPO AP 39306"
    },
    {
        "state": "SY",
        "name": "Qibu0101b u015eaghu012br",
        "city": "Qibab Saghir",
        "prov": "Aleppo",
        "region": null,
        "latt": "36.22659",
        "longt": "38.05248",
        "address": "Unit 0387 Box 4498nDPO AE 39572"
    },
    {
        "state": "SY",
        "name": "Al Jurayyu0101t",
        "city": "Al Jurayyu0101t",
        "prov": "Aleppo",
        "region": null,
        "latt": "35.78515",
        "longt": "38.06262",
        "address": "238 Gilmore LocknBlackberg, OH 73345"
    },
    {
        "state": "SY",
        "name": "u1e28umaymah",
        "city": "u1e28umaymah",
        "prov": "Ar-Raqqah",
        "region": null,
        "latt": "36.63626",
        "longt": "38.80889",
        "address": "54103 Thomas Fort Suite 880nEast Derek, IL 61830"
    },
    {
        "state": "SY",
        "name": "Nu0101u1e29iyat ad Du012bmu0101s",
        "city": "Judaydat Yu0101bu016bs",
        "prov": "Rif-dimashq",
        "region": null,
        "latt": "33.65449",
        "longt": "35.99616",
        "address": "41076 Anthony Garden Apt. 706nSouth Jennifer, DE 09156"
    },
    {
        "state": "SY",
        "name": "Nu0101u1e29iyat ad Du012bmu0101s",
        "city": "Judaydat Yu0101bu016bs",
        "prov": "Rif-dimashq",
        "region": null,
        "latt": "33.65449",
        "longt": "35.99616",
        "address": "338 Guerrero ParkwaynValeriemouth, DE 38258"
    },
    {
        "state": "SY",
        "name": "Tchaqal Ku00e9bu00eer",
        "city": "Jaqu0101l Kabu012br",
        "prov": "Aleppo",
        "region": null,
        "latt": "36.508331",
        "longt": "37.765794",
        "address": "6263 Joanne Fort Apt. 425nNew Jerry, WI 11008"
    },
    {
        "state": "SY",
        "name": "Jawwu0101nu012b",
        "city": "Waqam",
        "prov": "As-Suwayda",
        "region": null,
        "latt": "32.95",
        "longt": "36.46667",
        "address": "22685 Garcia Stream Suite 006nNorth Natashafort, KS 40313"
    },
    {
        "state": "SY",
        "name": "Tall Milu1e29im",
        "city": "Al Kashmah",
        "prov": "Deir ez-Zor",
        "region": null,
        "latt": "34.77442",
        "longt": "40.58183",
        "address": "477 Jerry Viaduct Suite 094nWest Sherryland, AZ 11912"
    },
    {
        "state": "SY",
        "name": "Tall al Fukhkhu0101r",
        "city": "Tall al Fukhkhar",
        "prov": "Idlib",
        "region": null,
        "latt": "35.83038",
        "longt": "37.0399",
        "address": "696 Daniel TrailnBarnettville, IA 83805"
    },
    {
        "state": "SY",
        "name": "Ruwaysat u2018Afu012bf",
        "city": "Ruwaysat `Afif",
        "prov": "Latakia",
        "region": null,
        "latt": "35.44044",
        "longt": "35.99663",
        "address": "574 Ronald CausewaynCourtneymouth, CO 22370"
    },
    {
        "state": "SY",
        "name": "Rawu1e11ah",
        "city": "Rawu1e11ah",
        "prov": "Deir ez-Zor",
        "region": null,
        "latt": "35.90318",
        "longt": "39.79931",
        "address": "4328 Sherry CourtnCarriehaven, MS 02197"
    },
    {
        "state": "SY",
        "name": "Dayr Simu2018u0101n",
        "city": "Dayr Simu2018u0101n",
        "prov": "Aleppo",
        "region": null,
        "latt": "36.32469",
        "longt": "36.83617",
        "address": "5459 Amy CentersnNew John, NM 54272"
    },
    {
        "state": "SY",
        "name": "u0639u0648u064au0633u0629",
        "city": "Al u1e28asakah",
        "prov": "Al-Hasakah",
        "region": null,
        "latt": "36.518413",
        "longt": "40.690168",
        "address": "5866 Kelly Hill Suite 904nWest Damonberg, MI 50225"
    },
    {
        "state": "SY",
        "name": "Kafrayn",
        "city": "Al Kafrayn",
        "prov": "Rif-dimashq",
        "region": null,
        "latt": "33.438031",
        "longt": "36.548457",
        "address": "90109 Kristina IslandsnClaudiastad, NC 88142"
    },
    {
        "state": "SY",
        "name": "Bju0101riz",
        "city": "Saru0101qib",
        "prov": "Idlib",
        "region": null,
        "latt": "35.9",
        "longt": "36.76667",
        "address": "9290 Brown CurvenSouth Devinburgh, IA 62970"
    },
    {
        "state": "JO",
        "name": "Wu0101du012b al Munu0163amirah",
        "city": "Umm Qays",
        "prov": "Irbid",
        "region": null,
        "latt": "32.67779",
        "longt": "35.688",
        "address": "43956 Hill Haven Suite 834nNorth Sarah, MD 36391"
    },
    {
        "state": "SY",
        "name": "Ju016brat ash Shaqafu0101n",
        "city": "Du0101rayyu0101",
        "prov": "Rif-dimashq",
        "region": null,
        "latt": "33.474",
        "longt": "36.19894",
        "address": "799 Daniels Summit Apt. 312nRamirezburgh, IA 52000"
    },
    {
        "state": "SY",
        "name": "Qabr al u2018Abd",
        "city": "Qabr al u2018Abd",
        "prov": "Al-Hasakah",
        "region": null,
        "latt": "36.72072",
        "longt": "41.01793",
        "address": "71276 Clark Lodge Suite 653nKathyside, SD 29544"
    },
    {
        "state": "SY",
        "name": "Au015f u015eabu0101ghah",
        "city": "Tallbu012bsah",
        "prov": "Homs",
        "region": null,
        "latt": "34.82022",
        "longt": "36.68494",
        "address": "670 Foster View Suite 567nWardside, UT 18114"
    },
    {
        "state": "SY",
        "name": "Cheaab el Aaiu00e2li",
        "city": "Sirghu0101yu0101",
        "prov": "Baalbek-Hermel",
        "region": null,
        "latt": "33.839444",
        "longt": "36.221111",
        "address": "287 Bryant Walk Suite 211nLake Johnny, HI 19021"
    },
    {
        "state": "SY",
        "name": "Kafrayn",
        "city": "Al Kafrayn",
        "prov": "Rif-dimashq",
        "region": null,
        "latt": "33.438031",
        "longt": "36.548457",
        "address": "622 Sheila HeightsnSouth Michele, WY 00766"
    },
    {
        "state": "SY",
        "name": "u2018Umar Zawbu0101sh",
        "city": "u2018Umar Zawbu0101sh",
        "prov": "Al-Hasakah",
        "region": null,
        "latt": "36.97463",
        "longt": "40.75841",
        "address": "15289 Garcia KnollnCameronhaven, MI 16394"
    },
    {
        "state": "SY",
        "name": "u2018Ayn ad Du0101r",
        "city": "`Ayn ad Dar",
        "prov": "Latakia",
        "region": null,
        "latt": "35.53756",
        "longt": "36.15498",
        "address": "161 Louis RoadnSouth Michellestad, WI 13224"
    },
    {
        "state": "SY",
        "name": "New Quneitra",
        "city": "Al Qunayu0163irah",
        "prov": "Quneitra",
        "region": null,
        "latt": "33.17204",
        "longt": "35.873113",
        "address": "7761 Scott Motorway Apt. 883nPort Stephanie, NE 28840"
    },
    {
        "state": "SY",
        "name": "Sayl al Liu1e29qu0101b",
        "city": "Qu0101rah",
        "prov": "Rif-dimashq",
        "region": null,
        "latt": "34.098993",
        "longt": "36.786754",
        "address": "4105 Foster Mews Suite 995nNorth Sheila, FL 52221"
    },
    {
        "state": "SY",
        "name": "Sayl al Liu1e29qu0101b",
        "city": "Qu0101rah",
        "prov": "Rif-dimashq",
        "region": null,
        "latt": "34.098993",
        "longt": "36.786754",
        "address": "03303 David ThroughwaynJoannaton, DC 58510"
    },
    {
        "state": "SY",
        "name": "u2018Ayn ad Du0101r",
        "city": "`Ayn ad Dar",
        "prov": "Latakia",
        "region": null,
        "latt": "35.53756",
        "longt": "36.15498",
        "address": "40538 Green CreeknEast Tonya, SD 97033"
    },
    {
        "state": "SY",
        "name": "Sayl al Liu1e29qu0101b",
        "city": "Qu0101rah",
        "prov": "Rif-dimashq",
        "region": null,
        "latt": "34.098993",
        "longt": "36.786754",
        "address": "444 English TracknEast Scott, DE 00943"
    },
    {
        "state": "SY",
        "name": "Yu016bnisu012byah",
        "city": "Yu016bnisu012byah",
        "prov": "Al-Hasakah",
        "region": null,
        "latt": "37.17556",
        "longt": "42.09083",
        "address": "Unit 3694 Box 4527nDPO AA 27060"
    },
    {
        "state": "SY",
        "name": "Tu016bramu0101n",
        "city": "Tu016bramu0101n",
        "prov": "Aleppo",
        "region": null,
        "latt": "36.69923",
        "longt": "38.22158",
        "address": "4680 Denise BranchnDebrastad, FL 68463"
    },
    {
        "state": "SY",
        "name": "Aru1e11 Ghabu012brah",
        "city": "u2018Utayzilah",
        "prov": "Hama",
        "region": null,
        "latt": "35.42539",
        "longt": "36.47852",
        "address": "USNV AndersonnFPO AE 49953"
    },
    {
        "state": "SY",
        "name": "Wu0101du012b Daflu012b",
        "city": "Kafr Takhu0101ru012bm",
        "prov": "Idlib",
        "region": null,
        "latt": "36.14282",
        "longt": "36.52224",
        "address": "380 Terri SpringsnJosephville, TX 56554"
    },
    {
        "state": "SY",
        "name": "Dayru016bnah",
        "city": "Dayru016bnah",
        "prov": "Latakia",
        "region": null,
        "latt": "35.383036",
        "longt": "36.038106",
        "address": "8067 Martin DividenNormabury, TN 17160"
    },
    {
        "state": "SY",
        "name": "Dayr Simu2018u0101n",
        "city": "Dayr Simu2018u0101n",
        "prov": "Aleppo",
        "region": null,
        "latt": "36.32469",
        "longt": "36.83617",
        "address": "81743 Audrey IslandnCrosbymouth, ME 79900"
    },
    {
        "state": "SY",
        "name": "Mawqiu2018 u2018Ayn as Sayl",
        "city": "Jisr ash Shughur",
        "prov": "Idlib",
        "region": null,
        "latt": "35.82525",
        "longt": "36.32147",
        "address": "PSC 7673, Box 2630nAPO AA 22622"
    },
    {
        "state": "SY",
        "name": "Madu012bnah",
        "city": "Madu012bnah",
        "prov": "Al-Hasakah",
        "region": null,
        "latt": "35.9699",
        "longt": "41.09511",
        "address": "85083 Mitchell Unions Apt. 038nNorth Mary, MS 92443"
    },
    {
        "state": "SY",
        "name": "Kafrayn",
        "city": "Al Kafrayn",
        "prov": "Rif-dimashq",
        "region": null,
        "latt": "33.438031",
        "longt": "36.548457",
        "address": "73061 Lauren Shore Suite 770nSouth Brianberg, FL 44258"
    },
    {
        "state": "SY",
        "name": "u015eaffu0101wu012b",
        "city": "As Salamu012byah",
        "prov": "Hama",
        "region": null,
        "latt": "34.95885",
        "longt": "37.09071",
        "address": "72275 Hendricks FordsnCynthiatown, WI 87197"
    },
    {
        "state": "SY",
        "name": "Jawwu0101nu012b",
        "city": "Waqam",
        "prov": "As-Suwayda",
        "region": null,
        "latt": "32.95",
        "longt": "36.46667",
        "address": "63734 Soto Rest Suite 296nEast Henryburgh, AL 34930"
    },
    {
        "state": "SY",
        "name": "Qubu2018 Shuu2018bat u1e28asnah",
        "city": "Ju016bsu012byah",
        "prov": "Homs",
        "region": null,
        "latt": "34.39886",
        "longt": "36.59902",
        "address": "3146 Albert CovenNew Brittanytown, WI 47829"
    },
    {
        "state": "SY",
        "name": "u1e28ulayu1e29ilah",
        "city": "u1e10ahr Shaqu012bf Dabbu0101s",
        "prov": "Homs",
        "region": null,
        "latt": "34.76072",
        "longt": "38.72023",
        "address": "USNV ParrishnFPO AA 58888"
    },
    {
        "state": "SY",
        "name": "Jawwu0101nu012b",
        "city": "Waqam",
        "prov": "As-Suwayda",
        "region": null,
        "latt": "32.95",
        "longt": "36.46667",
        "address": "356 French BypassnLake Jessicamouth, SC 44557"
    },
    {
        "state": "SY",
        "name": "Bayt Nu0101filah",
        "city": "Ad Durayku012bsh",
        "prov": "Tartus",
        "region": null,
        "latt": "34.941848",
        "longt": "36.13832",
        "address": "011 Craig Burgs Suite 956nNathanville, KS 76754"
    },
    {
        "state": "SY",
        "name": "u062cu0633u0631 u062du0627u062cu064au0627u062a",
        "city": "Jisr u1e28ajjiyu0101t",
        "prov": "Ar-Raqqah",
        "region": null,
        "latt": "35.916862",
        "longt": "38.902823",
        "address": "231 Mcdonald HillnDunnberg, PA 54080"
    },
    {
        "state": "SY",
        "name": "Wu0101du012b Qannu0101u015f",
        "city": "u1e28ufayr",
        "prov": "Homs",
        "region": null,
        "latt": "34.13192",
        "longt": "37.24996",
        "address": "75160 Lewis Way Suite 726nSmithville, LA 34273"
    },
    {
        "state": "SY",
        "name": "Al Masu0101u0163ib",
        "city": "Shuqaydilah",
        "prov": "Aleppo",
        "region": null,
        "latt": "36.035071",
        "longt": "37.074508",
        "address": "72558 Randolph PointnPort Thomas, LA 82321"
    },
    {
        "state": "SY",
        "name": "Qalu2018at ar Rau1e29bah",
        "city": "Al Mayu0101du012bn",
        "prov": "Deir ez-Zor",
        "region": null,
        "latt": "35.00489",
        "longt": "40.42331",
        "address": "04143 Hamilton StravenuenLake Margaret, WV 59185"
    },
    {
        "state": "SY",
        "name": "New Quneitra",
        "city": "Al Qunayu0163irah",
        "prov": "Quneitra",
        "region": null,
        "latt": "33.17204",
        "longt": "35.873113",
        "address": "102 Matthew PlazanDelacruzborough, TN 89003"
    },
    {
        "state": "SY",
        "name": "New Quneitra",
        "city": "Al Qunayu0163irah",
        "prov": "Quneitra",
        "region": null,
        "latt": "33.17204",
        "longt": "35.873113",
        "address": "3036 Dale Inlet Apt. 191nEast Alexandriaton, FL 01252"
    },
    {
        "state": "SY",
        "name": "Nu0101u1e29iyat ad Du012bmu0101s",
        "city": "Judaydat Yu0101bu016bs",
        "prov": "Rif-dimashq",
        "region": null,
        "latt": "33.65449",
        "longt": "35.99616",
        "address": "491 Anthony RadialnHendrixland, SD 49755"
    },
    {
        "state": "SY",
        "name": "Kafrayn",
        "city": "Al Kafrayn",
        "prov": "Rif-dimashq",
        "region": null,
        "latt": "33.438031",
        "longt": "36.548457",
        "address": "310 Smith FerrynCooperhaven, AL 02088"
    },
    {
        "state": "SY",
        "name": "An Nabu0101j",
        "city": "Bu012br Nabu0101j",
        "prov": "Ar-Raqqah",
        "region": null,
        "latt": "35.58333",
        "longt": "38.35",
        "address": "02900 White ForksnDuncanfort, AK 29947"
    },
    {
        "state": "SY",
        "name": "Tall u1e28ujayr",
        "city": "Al Wau2018rah",
        "prov": "Al-Hasakah",
        "region": null,
        "latt": "36.91499",
        "longt": "41.65075",
        "address": "1964 Gutierrez MeadownHamiltonstad, IL 47042"
    },
    {
        "state": "SY",
        "name": "u1e10ahr ash Shu012br",
        "city": "Az Zabadu0101nu012b",
        "prov": "Rif-dimashq",
        "region": null,
        "latt": "33.7775",
        "longt": "36.07167",
        "address": "USS ChaveznFPO AE 82968"
    },
    {
        "state": "SY",
        "name": "New Quneitra",
        "city": "Al Qunayu0163irah",
        "prov": "Quneitra",
        "region": null,
        "latt": "33.17204",
        "longt": "35.873113",
        "address": "Unit 7784 Box 7896nDPO AA 91787"
    },
    {
        "state": "SY",
        "name": "Kafrayn",
        "city": "Al Kafrayn",
        "prov": "Rif-dimashq",
        "region": null,
        "latt": "33.438031",
        "longt": "36.548457",
        "address": "9310 Lopez Row Suite 246nPort Keithhaven, OH 47938"
    },
    {
        "state": "SY",
        "name": "u1e28allu016bbu012b Kabu012br",
        "city": "u1e28allu016bbu012b Kabu012br",
        "prov": "Aleppo",
        "region": null,
        "latt": "36.62049",
        "longt": "36.88032",
        "address": "74685 Moore RownPort Christinaview, CA 28550"
    },
    {
        "state": "SY",
        "name": "Kafrayn",
        "city": "Al Kafrayn",
        "prov": "Rif-dimashq",
        "region": null,
        "latt": "33.438031",
        "longt": "36.548457",
        "address": "09705 Harper MountainsnLake Tyler, AZ 22333"
    },
    {
        "state": "SY",
        "name": "Wu0101du012b Daflu012b",
        "city": "Kafr Takhu0101ru012bm",
        "prov": "Idlib",
        "region": null,
        "latt": "36.14282",
        "longt": "36.52224",
        "address": "4949 Cassandra TracenCindyburgh, PA 32019"
    },
    {
        "state": "SY",
        "name": "Tall al Fukhkhu0101r",
        "city": "Tall al Fukhkhar",
        "prov": "Idlib",
        "region": null,
        "latt": "35.83038",
        "longt": "37.0399",
        "address": "7458 Miranda VillagesnNew Melissa, TX 27195"
    },
    {
        "state": "SY",
        "name": "Kudayru0101n",
        "city": "Kudayru0101n",
        "prov": "Ar-Raqqah",
        "region": null,
        "latt": "35.87809",
        "longt": "38.72221",
        "address": "USNV SantosnFPO AE 41638"
    },
    {
        "state": "SY",
        "name": "Khu0101sik",
        "city": "Khu0101sik",
        "prov": "Al-Hasakah",
        "region": null,
        "latt": "37.08152",
        "longt": "40.84403",
        "address": "992 Olivia NecknPort Christine, LA 20672"
    },
    {
        "state": "SY",
        "name": "Rusu016bm Bulu016bz",
        "city": "Al Ku016bkh",
        "prov": "Daraa",
        "region": null,
        "latt": "33.18171",
        "longt": "36.53223",
        "address": "46395 Beck Creek Apt. 975nJohnstad, DE 84813"
    },
    {
        "state": "SY",
        "name": "Khirbat Rubayu0163",
        "city": "Ar Rubayl",
        "prov": "Aleppo",
        "region": null,
        "latt": "35.714578",
        "longt": "37.469361",
        "address": "611 Ford TunnelnLeonardside, UT 08364"
    },
    {
        "state": "SY",
        "name": "Tu016bn al Qirq",
        "city": "Tun al Qirq",
        "prov": "Tartus",
        "region": null,
        "latt": "35.09157",
        "longt": "36.06387",
        "address": "9103 Cervantes Overpass Apt. 669nReedburgh, VA 06187"
    },
    {
        "state": "SY",
        "name": "Ju016brat ash Shaqafu0101n",
        "city": "Du0101rayyu0101",
        "prov": "Rif-dimashq",
        "region": null,
        "latt": "33.474",
        "longt": "36.19894",
        "address": "2643 Kimberly RuenPort Lisa, RI 11475"
    },
    {
        "state": "SY",
        "name": "Zawr al u1e28ayu015fah ash Sharqu012byah",
        "city": "u1e28alfu0101yu0101",
        "prov": "Hama",
        "region": null,
        "latt": "35.26551",
        "longt": "36.65295",
        "address": "57458 Larry Skyway Apt. 068nChavezmouth, WA 32324"
    },
    {
        "state": "SY",
        "name": "Artuwu0101zu012b al Bu0101du012b",
        "city": "Artuwu0101zu012b al Bu0101du012b",
        "prov": "Homs",
        "region": null,
        "latt": "34.27255",
        "longt": "38.44942",
        "address": "2043 Sara IslandnMartinborough, CO 70160"
    },
    {
        "state": "SY",
        "name": "Al Ashrafu012byah",
        "city": "`Afrin",
        "prov": "Aleppo",
        "region": null,
        "latt": "36.51067",
        "longt": "36.87833",
        "address": "831 Stevenson OverpassnDavidhaven, ME 84533"
    },
    {
        "state": "SY",
        "name": "Khirbat Rubayu0163",
        "city": "Ar Rubayl",
        "prov": "Aleppo",
        "region": null,
        "latt": "35.714578",
        "longt": "37.469361",
        "address": "9976 Sanchez Ports Apt. 808nJohnview, AR 15020"
    },
    {
        "state": "SY",
        "name": "Tulaysiyah",
        "city": "u0162ulaysu012byah",
        "prov": "Hama",
        "region": null,
        "latt": "35.38094",
        "longt": "36.91372",
        "address": "792 Williams CliffsnJenniferfort, WI 05260"
    },
    {
        "state": "SY",
        "name": "Bu00eer Reu00eflu00e2ne",
        "city": "Al Hibbah",
        "prov": "Ar-Raqqah",
        "region": null,
        "latt": "36.307405",
        "longt": "39.579059",
        "address": "3140 Brian UnionsnPorterchester, FL 99480"
    },
    {
        "state": "SY",
        "name": "Al u1e28au015fw",
        "city": "Al Hasw",
        "prov": "Al-Hasakah",
        "region": null,
        "latt": "36.18",
        "longt": "40.48167",
        "address": "77029 Harris Knolls Suite 674nLake Kelsey, RI 61874"
    },
    {
        "state": "SY",
        "name": "Tu016bramu0101n",
        "city": "Tu016bramu0101n",
        "prov": "Aleppo",
        "region": null,
        "latt": "36.69923",
        "longt": "38.22158",
        "address": "728 Horne MissionnCardenastown, DC 77965"
    },
    {
        "state": "SY",
        "name": "New Quneitra",
        "city": "Al Qunayu0163irah",
        "prov": "Quneitra",
        "region": null,
        "latt": "33.17204",
        "longt": "35.873113",
        "address": "2313 Catherine Expressway Suite 097nHamiltonberg, MI 28830"
    },
    {
        "state": "SY",
        "name": "Qabr al u2018Abd",
        "city": "Qabr al u2018Abd",
        "prov": "Al-Hasakah",
        "region": null,
        "latt": "36.72072",
        "longt": "41.01793",
        "address": "938 Zoe RunnWest Jeffery, WI 95611"
    },
    {
        "state": "SY",
        "name": "Ruwaysat u2018Afu012bf",
        "city": "Ruwaysat `Afif",
        "prov": "Latakia",
        "region": null,
        "latt": "35.44044",
        "longt": "35.99663",
        "address": "34501 Lane StreetnJeremyfort, RI 94286"
    },
    {
        "state": "SY",
        "name": "Wu0101du012b Daflu012b",
        "city": "Kafr Takhu0101ru012bm",
        "prov": "Idlib",
        "region": null,
        "latt": "36.14282",
        "longt": "36.52224",
        "address": "23511 Craig StationnNorth Josetown, RI 34521"
    },
    {
        "state": "SY",
        "name": "Wu0101du012b u2018u0100mu012b",
        "city": "Juwayniru0101",
        "prov": "Al-Hasakah",
        "region": null,
        "latt": "36.17929",
        "longt": "40.24344",
        "address": "57132 Fitzgerald Estate Apt. 666nNew Leahton, MS 38993"
    },
    {
        "state": "SY",
        "name": "Misqu0101n",
        "city": "Misqu0101n",
        "prov": "Aleppo",
        "region": null,
        "latt": "36.3987",
        "longt": "37.11237",
        "address": "7252 Cruz CourtsnSouth Megan, SC 16202"
    },
    {
        "state": "SY",
        "name": "Zawr al u1e28ayu015fah ash Sharqu012byah",
        "city": "u1e28alfu0101yu0101",
        "prov": "Hama",
        "region": null,
        "latt": "35.26551",
        "longt": "36.65295",
        "address": "2929 Monique Rue Apt. 769nJonesville, NJ 39369"
    },
    {
        "state": "SY",
        "name": "Sayl al Liu1e29qu0101b",
        "city": "Qu0101rah",
        "prov": "Rif-dimashq",
        "region": null,
        "latt": "34.098993",
        "longt": "36.786754",
        "address": "5449 Young VistanSouth Joshuaside, ME 77501"
    },
    {
        "state": "SY",
        "name": "Tall Kurayfu0101t",
        "city": "Tall Kurayfat",
        "prov": "Al-Hasakah",
        "region": null,
        "latt": "36.91075",
        "longt": "41.84335",
        "address": "6354 Timothy Way Apt. 922nLake Nicole, CT 27907"
    },
    {
        "state": "SY",
        "name": "Khu0101tu016bnu012byah",
        "city": "Khatuniyah",
        "prov": "Al-Hasakah",
        "region": null,
        "latt": "36.42188",
        "longt": "41.2241",
        "address": "22454 Dennis IslenSouth Melanie, IA 37052"
    },
    {
        "state": "SY",
        "name": "u1e28allu016bbu012b Kabu012br",
        "city": "u1e28allu016bbu012b Kabu012br",
        "prov": "Aleppo",
        "region": null,
        "latt": "36.62049",
        "longt": "36.88032",
        "address": "558 Nguyen ForksnNorth Benjamintown, GA 26637"
    },
    {
        "state": "SY",
        "name": "Tu016bn al Qirq",
        "city": "Tun al Qirq",
        "prov": "Tartus",
        "region": null,
        "latt": "35.09157",
        "longt": "36.06387",
        "address": "632 Bridges Corner Suite 826nSouth Terriland, AZ 85658"
    },
    {
        "state": "SY",
        "name": "Tu016bn al Qirq",
        "city": "Tun al Qirq",
        "prov": "Tartus",
        "region": null,
        "latt": "35.09157",
        "longt": "36.06387",
        "address": "350 Martinez PlainnNorth Carlos, MD 15574"
    },
    {
        "state": "SY",
        "name": "Misqu0101n",
        "city": "Misqu0101n",
        "prov": "Aleppo",
        "region": null,
        "latt": "36.3987",
        "longt": "37.11237",
        "address": "50250 Denise VistanGonzalezshire, SC 77218"
    },
    {
        "state": "SY",
        "name": "u2018Ayn al Kabu012brah",
        "city": "Ad Duraykish",
        "prov": "Tartus",
        "region": null,
        "latt": "34.89696",
        "longt": "36.21023",
        "address": "05351 Cynthia ViewsnLake Patrick, MI 53775"
    },
    {
        "state": "SY",
        "name": "Khu0101sik",
        "city": "Khu0101sik",
        "prov": "Al-Hasakah",
        "region": null,
        "latt": "37.08152",
        "longt": "40.84403",
        "address": "1149 Ricardo Trace Suite 313nSouth Morgan, WY 76975"
    },
    {
        "state": "SY",
        "name": "Wu0101du012b u2018u0100mu012b",
        "city": "Juwayniru0101",
        "prov": "Al-Hasakah",
        "region": null,
        "latt": "36.17929",
        "longt": "40.24344",
        "address": "0355 Jason Tunnel Suite 651nSouth Alicia, ME 02416"
    },
    {
        "state": "SY",
        "name": "Cheaab el Aaiu00e2li",
        "city": "Sirghu0101yu0101",
        "prov": "Baalbek-Hermel",
        "region": null,
        "latt": "33.839444",
        "longt": "36.221111",
        "address": "874 Mcdonald CrossingnNorth Daniellefurt, NY 01609"
    },
    {
        "state": "SY",
        "name": "Sayl al Liu1e29qu0101b",
        "city": "Qu0101rah",
        "prov": "Rif-dimashq",
        "region": null,
        "latt": "34.098993",
        "longt": "36.786754",
        "address": "85584 Perez Loaf Suite 941nEast Tiffanyfort, AK 82108"
    },
    {
        "state": "SY",
        "name": "Al u1e28ibu0101l",
        "city": "Au015f u015eanamayn",
        "prov": "Daraa",
        "region": null,
        "latt": "33.10726",
        "longt": "36.22334",
        "address": "2382 Patricia RoadnNorth Elizabeth, TX 36074"
    },
    {
        "state": "SY",
        "name": "Dakar",
        "city": "Dakar",
        "prov": "Tartus",
        "region": null,
        "latt": "34.66094",
        "longt": "36.08502",
        "address": "93907 Snyder Bridge Apt. 574nLake Jaime, IN 28793"
    },
    {
        "state": "SY",
        "name": "u0639u0648u064au0633u0629",
        "city": "Al u1e28asakah",
        "prov": "Al-Hasakah",
        "region": null,
        "latt": "36.518413",
        "longt": "40.690168",
        "address": "12114 Ford Oval Suite 968nPort Ashley, AK 20106"
    },
    {
        "state": "SY",
        "name": "u2018Umar Zawbu0101sh",
        "city": "u2018Umar Zawbu0101sh",
        "prov": "Al-Hasakah",
        "region": null,
        "latt": "36.97463",
        "longt": "40.75841",
        "address": "07362 Stacy LoafnSouth Michael, OH 06103"
    },
    {
        "state": "SY",
        "name": "Qabr al u2018Abd",
        "city": "Qabr al u2018Abd",
        "prov": "Al-Hasakah",
        "region": null,
        "latt": "36.72072",
        "longt": "41.01793",
        "address": "553 Cline Parkway Apt. 317nSouth Luis, AR 45102"
    },
    {
        "state": "SY",
        "name": "Shawkatlu012byah",
        "city": "Mukharram al Fawqu0101nu012b",
        "prov": "Homs",
        "region": null,
        "latt": "34.78975",
        "longt": "37.01169",
        "address": "727 Bullock GrovenPort Brianmouth, CO 71543"
    },
    {
        "state": "SY",
        "name": "u0648u0627u062fu064a u062cu064au0631u0627u0646",
        "city": "Bu012br Umm al Qabu0101bu012br",
        "prov": "Homs",
        "region": null,
        "latt": "34.631446",
        "longt": "38.029896",
        "address": "59824 Justin VistanEast Patrickstad, HI 86062"
    },
    {
        "state": "SY",
        "name": "Bayt u2018Alu012b",
        "city": "Bayt u2018Alu012b",
        "prov": "Homs",
        "region": null,
        "latt": "34.52874",
        "longt": "36.38534",
        "address": "437 Thompson Rapid Apt. 948nCarrieland, AZ 11096"
    },
    {
        "state": "SY",
        "name": "Bju0101riz",
        "city": "Saru0101qib",
        "prov": "Idlib",
        "region": null,
        "latt": "35.9",
        "longt": "36.76667",
        "address": "40271 Angela Manors Apt. 199nLake Ashleyhaven, NM 17416"
    },
    {
        "state": "SY",
        "name": "Arabcha",
        "city": "u2018Arabshu0101h",
        "prov": "Aleppo",
        "region": null,
        "latt": "36.637569",
        "longt": "38.537994",
        "address": "09675 Robert Cape Apt. 502nNicolefort, RI 31099"
    },
    {
        "state": "SY",
        "name": "u1e28ilbu0101yah",
        "city": "Mau2018lu016blu0101",
        "prov": "Rif-dimashq",
        "region": null,
        "latt": "33.83692",
        "longt": "36.55645",
        "address": "6883 Marie Isle Apt. 614nPort Wayne, NY 95412"
    },
    {
        "state": "SY",
        "name": "Shu0101rat Tall Nau2018ir",
        "city": "Mau2018arrat u0162ayrah",
        "prov": "Idlib",
        "region": null,
        "latt": "35.50645",
        "longt": "36.5973",
        "address": "61130 Deborah TrafficwaynLake Jamesland, WI 98184"
    },
    {
        "state": "SY",
        "name": "Kudayru0101n",
        "city": "Kudayru0101n",
        "prov": "Ar-Raqqah",
        "region": null,
        "latt": "35.87809",
        "longt": "38.72221",
        "address": "7288 Stein StreamnAlisonmouth, KY 03546"
    },
    {
        "state": "SY",
        "name": "Shawkatlu012byah",
        "city": "Mukharram al Fawqu0101nu012b",
        "prov": "Homs",
        "region": null,
        "latt": "34.78975",
        "longt": "37.01169",
        "address": "56576 Sarah HillsnNorth Mark, CT 76405"
    },
    {
        "state": "SY",
        "name": "New Quneitra",
        "city": "Al Qunayu0163irah",
        "prov": "Quneitra",
        "region": null,
        "latt": "33.17204",
        "longt": "35.873113",
        "address": "41911 Oneill CovenKylemouth, ID 48828"
    },
    {
        "state": "SY",
        "name": "Wu0101du012b Daflu012b",
        "city": "Kafr Takhu0101ru012bm",
        "prov": "Idlib",
        "region": null,
        "latt": "36.14282",
        "longt": "36.52224",
        "address": "9284 Hernandez SkywaynNorth Jamesshire, IA 37914"
    },
    {
        "state": "SY",
        "name": "Qubu2018 Shuu2018bat u1e28asnah",
        "city": "Ju016bsu012byah",
        "prov": "Homs",
        "region": null,
        "latt": "34.39886",
        "longt": "36.59902",
        "address": "825 John WallnWest Carla, WA 39495"
    },
    {
        "state": "SY",
        "name": "Shuraydah",
        "city": "Shuraydah",
        "prov": "Ar-Raqqah",
        "region": null,
        "latt": "35.80272",
        "longt": "39.2778",
        "address": "05212 White CliffnWest Russellmouth, LA 30779"
    },
    {
        "state": "SY",
        "name": "u2018Alqu012bn",
        "city": "Bu0101niyu0101s",
        "prov": "Tartus",
        "region": null,
        "latt": "35.14872",
        "longt": "35.96669",
        "address": "469 Cindy Mill Suite 617nMossborough, MO 72944"
    },
    {
        "state": "SY",
        "name": "Quu015fayr",
        "city": "Quu015fayr",
        "prov": "Al-Hasakah",
        "region": null,
        "latt": "37.01862",
        "longt": "41.32867",
        "address": "70043 Joseph Tunnel Apt. 873nAshleyport, IA 58383"
    },
    {
        "state": "SY",
        "name": "Zawr al u1e28ayu015fah ash Sharqu012byah",
        "city": "u1e28alfu0101yu0101",
        "prov": "Hama",
        "region": null,
        "latt": "35.26551",
        "longt": "36.65295",
        "address": "82168 Cook PlazanSmithfort, WV 30699"
    },
    {
        "state": "SY",
        "name": "Ruwaysat u2018Afu012bf",
        "city": "Ruwaysat `Afif",
        "prov": "Latakia",
        "region": null,
        "latt": "35.44044",
        "longt": "35.99663",
        "address": "27295 James StreamnEast Sarahport, LA 54689"
    },
    {
        "state": "SY",
        "name": "New Quneitra",
        "city": "Al Qunayu0163irah",
        "prov": "Quneitra",
        "region": null,
        "latt": "33.17204",
        "longt": "35.873113",
        "address": "2372 Patricia Shore Apt. 949nWest Tammyborough, NC 01614"
    },
    {
        "state": "SY",
        "name": "Chaghour ed Dahab",
        "city": "El Fu00e2qau00e2",
        "prov": "Bu00e9qaa",
        "region": null,
        "latt": "33.42556",
        "longt": "35.8825",
        "address": "8755 Joel Station Apt. 736nNorth Elizabeth, AL 74297"
    },
    {
        "state": "SY",
        "name": "u2018Ayn ad Du0101r",
        "city": "`Ayn ad Dar",
        "prov": "Latakia",
        "region": null,
        "latt": "35.53756",
        "longt": "36.15498",
        "address": "56235 Michelle PortnWest Brianton, MS 70894"
    },
    {
        "state": "SY",
        "name": "Tall al Fukhkhu0101r",
        "city": "Tall al Fukhkhar",
        "prov": "Idlib",
        "region": null,
        "latt": "35.83038",
        "longt": "37.0399",
        "address": "232 Phelps Corner Apt. 775nHeatherside, OK 74963"
    },
    {
        "state": "SY",
        "name": "Tchaqal Ku00e9bu00eer",
        "city": "Jaqu0101l Kabu012br",
        "prov": "Aleppo",
        "region": null,
        "latt": "36.508331",
        "longt": "37.765794",
        "address": "881 Derek Walk Apt. 337nSouth Christinaville, NE 63890"
    },
    {
        "state": "SY",
        "name": "Jawwu0101nu012b",
        "city": "Waqam",
        "prov": "As-Suwayda",
        "region": null,
        "latt": "32.95",
        "longt": "36.46667",
        "address": "PSC 3652, Box 0238nAPO AE 18717"
    },
    {
        "state": "SY",
        "name": "Qibu0101b u015eaghu012br",
        "city": "Qibab Saghir",
        "prov": "Aleppo",
        "region": null,
        "latt": "36.22659",
        "longt": "38.05248",
        "address": "612 Monica Row Suite 153nLake Matthewtown, MD 87185"
    },
    {
        "state": "SY",
        "name": "Al Masu0101u0163ib",
        "city": "Shuqaydilah",
        "prov": "Aleppo",
        "region": null,
        "latt": "36.035071",
        "longt": "37.074508",
        "address": "5432 Jonathan Flats Suite 995nLake Emilyfort, TX 24345"
    },
    {
        "state": "SY",
        "name": "Kafrayn",
        "city": "Al Kafrayn",
        "prov": "Rif-dimashq",
        "region": null,
        "latt": "33.438031",
        "longt": "36.548457",
        "address": "04683 Valentine Ranch Apt. 171nDanport, OK 28757"
    },
    {
        "state": "SY",
        "name": "u0162ashshah",
        "city": "u0162ashshah",
        "prov": "Deir ez-Zor",
        "region": null,
        "latt": "35.29316",
        "longt": "39.31418",
        "address": "43482 Chase ParksnSouth Omar, KS 64645"
    },
    {
        "state": "SY",
        "name": "Dayr Simu2018u0101n",
        "city": "Dayr Simu2018u0101n",
        "prov": "Aleppo",
        "region": null,
        "latt": "36.32469",
        "longt": "36.83617",
        "address": "0560 Sutton Club Apt. 439nWest Destiny, SC 76422"
    },
    {
        "state": "SY",
        "name": "Dayr Simu2018u0101n",
        "city": "Dayr Simu2018u0101n",
        "prov": "Aleppo",
        "region": null,
        "latt": "36.32469",
        "longt": "36.83617",
        "address": "7845 Kirk Landing Suite 519nLake Rebecca, WI 01103"
    },
    {
        "state": "SY",
        "name": "Al Au2018zu0327amu012byah",
        "city": "Al A`zamiyah",
        "prov": "Aleppo",
        "region": null,
        "latt": "36.41905",
        "longt": "38.62744",
        "address": "Unit 9613 Box 4356nDPO AE 38465"
    },
    {
        "state": "SY",
        "name": "u2018Ayn ad Du0101r",
        "city": "`Ayn ad Dar",
        "prov": "Latakia",
        "region": null,
        "latt": "35.53756",
        "longt": "36.15498",
        "address": "USS SwansonnFPO AE 36127"
    },
    {
        "state": "SY",
        "name": "Nu0101u1e29iyat ad Du012bmu0101s",
        "city": "Judaydat Yu0101bu016bs",
        "prov": "Rif-dimashq",
        "region": null,
        "latt": "33.65449",
        "longt": "35.99616",
        "address": "998 Richard Passage Suite 917nSouth Johnshire, IA 35802"
    },
    {
        "state": "SY",
        "name": "Bu00eer Mathu00eer",
        "city": "Tuwayzu0101n",
        "prov": "Ar-Raqqah",
        "region": null,
        "latt": "35.8",
        "longt": "38.216667",
        "address": "27498 Taylor Plains Apt. 057nScottmouth, AZ 33964"
    },
    {
        "state": "SY",
        "name": "Tchaqal Ku00e9bu00eer",
        "city": "Jaqu0101l Kabu012br",
        "prov": "Aleppo",
        "region": null,
        "latt": "36.508331",
        "longt": "37.765794",
        "address": "49484 Amanda Field Apt. 649nDiazhaven, AR 09343"
    },
    {
        "state": "SY",
        "name": "Khu0101sik",
        "city": "Khu0101sik",
        "prov": "Al-Hasakah",
        "region": null,
        "latt": "37.08152",
        "longt": "40.84403",
        "address": "1233 Dawn RivernCoreyburgh, WI 43706"
    },
    {
        "state": "SY",
        "name": "Tchaqal Ku00e9bu00eer",
        "city": "Jaqu0101l Kabu012br",
        "prov": "Aleppo",
        "region": null,
        "latt": "36.508331",
        "longt": "37.765794",
        "address": "683 Spencer CampnAmandabury, MD 21939"
    },
    {
        "state": "SY",
        "name": "Qibu0101b u015eaghu012br",
        "city": "Qibab Saghir",
        "prov": "Aleppo",
        "region": null,
        "latt": "36.22659",
        "longt": "38.05248",
        "address": "04222 Olivia Ford Suite 817nSouth Philipville, NY 06623"
    },
    {
        "state": "SY",
        "name": "Al Masu0101u0163ib",
        "city": "Shuqaydilah",
        "prov": "Aleppo",
        "region": null,
        "latt": "36.035071",
        "longt": "37.074508",
        "address": "85172 Teresa Valleys Apt. 845nWest Shawnburgh, AZ 04857"
    },
    {
        "state": "SY",
        "name": "Mughayru0101t",
        "city": "Maghu0101rat Khanu0101u015fir",
        "prov": "Aleppo",
        "region": null,
        "latt": "35.795822",
        "longt": "37.516919",
        "address": "6139 Michael Fork Apt. 492nWilkinsonville, MA 64962"
    },
    {
        "state": "SY",
        "name": "u1e28ulayu1e29ilah",
        "city": "u1e10ahr Shaqu012bf Dabbu0101s",
        "prov": "Homs",
        "region": null,
        "latt": "34.76072",
        "longt": "38.72023",
        "address": "390 Schultz KeysnWest Christiefort, MO 22328"
    },
    {
        "state": "SY",
        "name": "Khirbat u2018Ubayd",
        "city": "Khirbat u2018Ubayd",
        "prov": "Al-Hasakah",
        "region": null,
        "latt": "37.207542",
        "longt": "42.185454",
        "address": "812 Moses AvenuenSouth Jose, MD 71333"
    },
    {
        "state": "SY",
        "name": "Wu0101du012b Daflu012b",
        "city": "Kafr Takhu0101ru012bm",
        "prov": "Idlib",
        "region": null,
        "latt": "36.14282",
        "longt": "36.52224",
        "address": "43261 Ashley TurnpikenAndersontown, VT 23521"
    },
    {
        "state": "SY",
        "name": "Tu016bn al Qirq",
        "city": "Tun al Qirq",
        "prov": "Tartus",
        "region": null,
        "latt": "35.09157",
        "longt": "36.06387",
        "address": "2228 Campbell Stream Suite 217nSimmonsberg, OK 61560"
    },
    {
        "state": "SY",
        "name": "u2018Umar Zawbu0101sh",
        "city": "u2018Umar Zawbu0101sh",
        "prov": "Al-Hasakah",
        "region": null,
        "latt": "36.97463",
        "longt": "40.75841",
        "address": "6119 Erica Mission Apt. 928nStevenstad, PA 63761"
    },
    {
        "state": "SY",
        "name": "u2018Ayn al Kabu012brah",
        "city": "Ad Duraykish",
        "prov": "Tartus",
        "region": null,
        "latt": "34.89696",
        "longt": "36.21023",
        "address": "13346 Brianna Key Apt. 282nHesterberg, DC 96633"
    },
    {
        "state": "SY",
        "name": "Tu016bramu0101n",
        "city": "Tu016bramu0101n",
        "prov": "Aleppo",
        "region": null,
        "latt": "36.69923",
        "longt": "38.22158",
        "address": "0337 Ryan Orchard Suite 643nPort Julia, AK 48997"
    },
    {
        "state": "SY",
        "name": "Bju0101riz",
        "city": "Saru0101qib",
        "prov": "Idlib",
        "region": null,
        "latt": "35.9",
        "longt": "36.76667",
        "address": "009 Sarah SummitnNorth Robertbury, RI 80796"
    },
    {
        "state": "SY",
        "name": "Jawwu0101nu012b",
        "city": "Waqam",
        "prov": "As-Suwayda",
        "region": null,
        "latt": "32.95",
        "longt": "36.46667",
        "address": "37806 William Garden Apt. 851nKimberlyburgh, MN 88833"
    },
    {
        "state": "SY",
        "name": "Tu016bn al Qirq",
        "city": "Tun al Qirq",
        "prov": "Tartus",
        "region": null,
        "latt": "35.09157",
        "longt": "36.06387",
        "address": "3873 Amber Cape Suite 007nAriasport, TX 07577"
    },
    {
        "state": "SY",
        "name": "u062cu0633u0631 u062du0627u062cu064au0627u062a",
        "city": "Jisr u1e28ajjiyu0101t",
        "prov": "Ar-Raqqah",
        "region": null,
        "latt": "35.916862",
        "longt": "38.902823",
        "address": "179 Cameron Streets Suite 618nLake Sherryfurt, GA 23090"
    },
    {
        "state": "SY",
        "name": "Rusu016bm Bulu016bz",
        "city": "Al Ku016bkh",
        "prov": "Daraa",
        "region": null,
        "latt": "33.18171",
        "longt": "36.53223",
        "address": "00006 Nicholas FortnPort Taylor, CT 38897"
    },
    {
        "state": "SY",
        "name": "At Tibnu012b",
        "city": "Al u2018Alu012b",
        "prov": "Deir ez-Zor",
        "region": null,
        "latt": "35.631133",
        "longt": "39.811654",
        "address": "Unit 8979 Box 6778nDPO AE 66889"
    },
    {
        "state": "SY",
        "name": "Wu0101du012b Daflu012b",
        "city": "Kafr Takhu0101ru012bm",
        "prov": "Idlib",
        "region": null,
        "latt": "36.14282",
        "longt": "36.52224",
        "address": "48890 Kevin Brook Apt. 016nMartinmouth, TX 85916"
    },
    {
        "state": "SY",
        "name": "Misqu0101n",
        "city": "Misqu0101n",
        "prov": "Aleppo",
        "region": null,
        "latt": "36.3987",
        "longt": "37.11237",
        "address": "9433 Vaughn CovenSouth Matthew, ME 16846"
    },
    {
        "state": "SY",
        "name": "Bayt u2018Alu012b",
        "city": "Bayt u2018Alu012b",
        "prov": "Homs",
        "region": null,
        "latt": "34.52874",
        "longt": "36.38534",
        "address": "6132 Melissa Route Suite 720nJonesmouth, VA 80959"
    },
    {
        "state": "SY",
        "name": "Dayru016bnah",
        "city": "Dayru016bnah",
        "prov": "Latakia",
        "region": null,
        "latt": "35.383036",
        "longt": "36.038106",
        "address": "049 Kathryn Grove Apt. 321nEast Dorothy, ID 13709"
    },
    {
        "state": "SY",
        "name": "Shawkatlu012byah",
        "city": "Mukharram al Fawqu0101nu012b",
        "prov": "Homs",
        "region": null,
        "latt": "34.78975",
        "longt": "37.01169",
        "address": "7960 Troy Path Suite 314nValdezshire, OH 29439"
    },
    {
        "state": "SY",
        "name": "Bayt u2018Alu012b",
        "city": "Bayt u2018Alu012b",
        "prov": "Homs",
        "region": null,
        "latt": "34.52874",
        "longt": "36.38534",
        "address": "6630 Johnson CrossingnLake Haleytown, MS 47629"
    },
    {
        "state": "SY",
        "name": "Aru1e11 al u1e28immiu015f",
        "city": "Sahwat al Qamu1e29",
        "prov": "Daraa",
        "region": null,
        "latt": "32.57449",
        "longt": "36.37782",
        "address": "97015 Deanna Trail Apt. 433nLake Jessicashire, CO 37949"
    },
    {
        "state": "SY",
        "name": "Tu016bn al Qirq",
        "city": "Tun al Qirq",
        "prov": "Tartus",
        "region": null,
        "latt": "35.09157",
        "longt": "36.06387",
        "address": "9499 Booth PortsnLake Matthewville, IN 93963"
    },
    {
        "state": "SY",
        "name": "Ju016brat ash Shaqafu0101n",
        "city": "Du0101rayyu0101",
        "prov": "Rif-dimashq",
        "region": null,
        "latt": "33.474",
        "longt": "36.19894",
        "address": "948 Horne Spurs Suite 317nLopezville, UT 02608"
    },
    {
        "state": "SY",
        "name": "Khuwaybirah",
        "city": "Khuwaybirah",
        "prov": "Al-Hasakah",
        "region": null,
        "latt": "36.01568",
        "longt": "40.99685",
        "address": "4264 Connor Shore Suite 266nLake Mirandaport, MI 20331"
    },
    {
        "state": "SY",
        "name": "Sayl al Liu1e29qu0101b",
        "city": "Qu0101rah",
        "prov": "Rif-dimashq",
        "region": null,
        "latt": "34.098993",
        "longt": "36.786754",
        "address": "93672 Joshua VistanLake Biancabury, IL 21472"
    },
    {
        "state": "SY",
        "name": "u1e28ayy al Bustu0101n",
        "city": "Harasta",
        "prov": "Rif-dimashq",
        "region": null,
        "latt": "33.5555",
        "longt": "36.35958",
        "address": "68334 Emily RoutenWebbfurt, AR 03394"
    },
    {
        "state": "SY",
        "name": "u2018Ayn al u1e28amru0101",
        "city": "u2018Ayn al u1e28awm",
        "prov": "As-Suwayda",
        "region": null,
        "latt": "32.69308",
        "longt": "36.7032",
        "address": "89346 Evans Squares Apt. 238nLake Joshuatown, SC 51092"
    },
    {
        "state": "SY",
        "name": "Shawkatlu012byah",
        "city": "Mukharram al Fawqu0101nu012b",
        "prov": "Homs",
        "region": null,
        "latt": "34.78975",
        "longt": "37.01169",
        "address": "22697 Joseph Crest Apt. 015nTomside, VA 45118"
    },
    {
        "state": "SY",
        "name": "Dayru016bnah",
        "city": "Dayru016bnah",
        "prov": "Latakia",
        "region": null,
        "latt": "35.383036",
        "longt": "36.038106",
        "address": "6379 Christopher LodgenLake Jacksonmouth, GA 25351"
    },
    {
        "state": "SY",
        "name": "u2018Ayn ad Du0101r",
        "city": "`Ayn ad Dar",
        "prov": "Latakia",
        "region": null,
        "latt": "35.53756",
        "longt": "36.15498",
        "address": "265 Robinson Causeway Suite 681nRichardhaven, NH 05712"
    },
    {
        "state": "SY",
        "name": "Au015f u015eabu0101ghah",
        "city": "Tallbu012bsah",
        "prov": "Homs",
        "region": null,
        "latt": "34.82022",
        "longt": "36.68494",
        "address": "785 Haney Shoal Suite 766nLake Shellychester, CA 83259"
    },
    {
        "state": "SY",
        "name": "Aablu00e9",
        "city": "u2018Ablah",
        "prov": "Aleppo",
        "region": null,
        "latt": "36.433709",
        "longt": "37.355527",
        "address": "18705 David RadialnTaylorshire, GA 61801"
    },
    {
        "state": "SY",
        "name": "Tchaqal Ku00e9bu00eer",
        "city": "Jaqu0101l Kabu012br",
        "prov": "Aleppo",
        "region": null,
        "latt": "36.508331",
        "longt": "37.765794",
        "address": "048 Garcia Island Apt. 632nSouth Paul, PA 92647"
    },
    {
        "state": "SY",
        "name": "Khirbat u1e28ammu016bd",
        "city": "Khirbat u1e28ammu016bd",
        "prov": "Al-Hasakah",
        "region": null,
        "latt": "36.84349",
        "longt": "40.18185",
        "address": "2570 Jennifer Creek Apt. 589nTaylorside, CT 55572"
    },
    {
        "state": "SY",
        "name": "Kafrayn",
        "city": "Al Kafrayn",
        "prov": "Rif-dimashq",
        "region": null,
        "latt": "33.438031",
        "longt": "36.548457",
        "address": "68768 Mcdonald Common Suite 157nNorth Timothyshire, PA 32668"
    },
    {
        "state": "SY",
        "name": "Qibu0101b u015eaghu012br",
        "city": "Qibab Saghir",
        "prov": "Aleppo",
        "region": null,
        "latt": "36.22659",
        "longt": "38.05248",
        "address": "9911 Kristine BrooknWest Carmenshire, NJ 64199"
    },
    {
        "state": "SY",
        "name": "Quu015fayr",
        "city": "Quu015fayr",
        "prov": "Al-Hasakah",
        "region": null,
        "latt": "37.01862",
        "longt": "41.32867",
        "address": "68310 Robert Shoals Apt. 433nPort Samuelton, TX 23694"
    },
    {
        "state": "SY",
        "name": "Yu016bnisu012byah",
        "city": "Yu016bnisu012byah",
        "prov": "Al-Hasakah",
        "region": null,
        "latt": "37.17556",
        "longt": "42.09083",
        "address": "Unit 0149 Box 0701nDPO AP 10315"
    },
    {
        "state": "SY",
        "name": "Tulaysiyah",
        "city": "u0162ulaysu012byah",
        "prov": "Hama",
        "region": null,
        "latt": "35.38094",
        "longt": "36.91372",
        "address": "8977 Ryan Spring Apt. 526nBrightfurt, NC 75571"
    },
    {
        "state": "SY",
        "name": "Shu0101rat Tall Nau2018ir",
        "city": "Mau2018arrat u0162ayrah",
        "prov": "Idlib",
        "region": null,
        "latt": "35.50645",
        "longt": "36.5973",
        "address": "5577 Emily Radial Suite 251nWest William, AL 23509"
    },
    {
        "state": "SY",
        "name": "Ruwaysat u2018Afu012bf",
        "city": "Ruwaysat `Afif",
        "prov": "Latakia",
        "region": null,
        "latt": "35.44044",
        "longt": "35.99663",
        "address": "PSC 8004, Box 7852nAPO AE 12733"
    },
    {
        "state": "SY",
        "name": "u2018Ayn al Kabu012brah",
        "city": "Ad Duraykish",
        "prov": "Tartus",
        "region": null,
        "latt": "34.89696",
        "longt": "36.21023",
        "address": "4467 Flores Road Suite 360nPort Taylormouth, MT 09660"
    },
    {
        "state": "SY",
        "name": "Au015f u015eabu0101ghah",
        "city": "Tallbu012bsah",
        "prov": "Homs",
        "region": null,
        "latt": "34.82022",
        "longt": "36.68494",
        "address": "638 Alicia Turnpike Suite 369nLake Kendra, NV 12143"
    },
    {
        "state": "SY",
        "name": "Qubu2018 Shuu2018bat u1e28asnah",
        "city": "Ju016bsu012byah",
        "prov": "Homs",
        "region": null,
        "latt": "34.39886",
        "longt": "36.59902",
        "address": "PSC 1441, Box 7536nAPO AE 90157"
    },
    {
        "state": "SY",
        "name": "u1e28umaymah",
        "city": "u1e28umaymah",
        "prov": "Ar-Raqqah",
        "region": null,
        "latt": "36.63626",
        "longt": "38.80889",
        "address": "716 Berry Pine Suite 381nNew Victoriachester, NE 57453"
    },
    {
        "state": "SY",
        "name": "u2018Ayn al Kabu012brah",
        "city": "Ad Duraykish",
        "prov": "Tartus",
        "region": null,
        "latt": "34.89696",
        "longt": "36.21023",
        "address": "73346 Martin RuenWest Robin, ND 13816"
    },