[
    {
        "state": "MA",
        "name": "Bdoua",
        "city": "Bdaoua",
        "prov": "Casablanca-Settat",
        "region": "Settat Province",
        "latt": "32.699101",
        "longt": "-7.85644",
        "address": "7442 Obrien Garden Apt. 219nJanetton, ND 90211"
    },
    {
        "state": "MA",
        "name": "Douar Oulad Mhamed",
        "city": "Douar Oulad Mhamed",
        "prov": "Casablanca-Settat",
        "region": null,
        "latt": "33.0066",
        "longt": "-7.18025",
        "address": "217 Myers Stream Suite 514nMatthewton, MS 84411"
    },
    {
        "state": "MA",
        "name": "Slalat",
        "city": "Jbel Lahbib",
        "prov": "Tanger-Tetouan-Al Hoceima",
        "region": "Tetouan",
        "latt": "35.4625",
        "longt": "-5.81153",
        "address": "104 Morgan Rue Suite 862nJohnsonside, ND 20474"
    },
    {
        "state": "MA",
        "name": "Douar Ait Amer Ait Youssef",
        "city": "Douar Ait Amer Ait Youssef",
        "prov": "Fu00e8s-Meknu00e8s",
        "region": null,
        "latt": "33.7257",
        "longt": "-5.50608",
        "address": "USS WarrennFPO AE 60406"
    },
    {
        "state": "MA",
        "name": "Au00eft Boho",
        "city": "Ait Boho",
        "prov": "Dru00e2a-Tafilalet",
        "region": null,
        "latt": "32.00745",
        "longt": "-5.15149",
        "address": "029 Sharon MeadowsnNew Karastad, AL 59244"
    },
    {
        "state": "MA",
        "name": "Amazr Ougrour",
        "city": "Tsigui",
        "prov": "Souss-Massa",
        "region": "Taroudannt",
        "latt": "30.68439",
        "longt": "-8.7916",
        "address": "76840 Stephanie CrestnJasonland, OR 67701"
    },
    {
        "state": "MA",
        "name": "Koudyet Sernou",
        "city": "Oulad Abdelmaoula",
        "prov": "Marrakesh-Safi",
        "region": "Safi",
        "latt": "32.368115",
        "longt": "-9.049093",
        "address": "06729 Paul ParknEast Bruce, GA 54081"
    },
    {
        "state": "MA",
        "name": "Tichoukt Igoudad",
        "city": "Al Borj",
        "prov": "Fu00e8s-Meknu00e8s",
        "region": null,
        "latt": "33.147691",
        "longt": "-4.314311",
        "address": "995 Dustin Light Apt. 753nSouth Karen, NJ 94563"
    },
    {
        "state": "MA",
        "name": "Tmourhoute",
        "city": "Tmourghout",
        "prov": "Fu00e8s-Meknu00e8s",
        "region": "Taza",
        "latt": "33.896856",
        "longt": "-4.030716",
        "address": "19035 Gray CapenWest Christopher, NH 01996"
    },
    {
        "state": "MA",
        "name": "Lmarkaz",
        "city": "Zehazeha Dehimnat",
        "prov": "Marrakesh-Safi",
        "region": "Safi",
        "latt": "32.47921",
        "longt": "-8.80458",
        "address": "36167 Justin Glens Apt. 192nNew Meganmouth, LA 97433"
    },
    {
        "state": "MA",
        "name": "Tibhirine",
        "city": "Tibhirine",
        "prov": "Bu00e9ni Mellal-Khu00e9nifra",
        "region": null,
        "latt": "33.1122",
        "longt": "-5.67726",
        "address": "80583 Reyes Inlet Suite 690nMitchellton, TX 46887"
    },
    {
        "state": "MA",
        "name": "Akachriyr",
        "city": "Azib-n-Ouwansa",
        "prov": "Marrakesh-Safi",
        "region": "Al-Haouz",
        "latt": "31.33201",
        "longt": "-7.30316",
        "address": "69434 Garrison ManornKimberlyshire, MI 23823"
    },
    {
        "state": "MA",
        "name": "Douar Sidi Bou Roumia",
        "city": "Douar Sidi Bou Roumia",
        "prov": "Fu00e8s-Meknu00e8s",
        "region": null,
        "latt": "34.44052",
        "longt": "-3.87451",
        "address": "1658 Gomez StationnHarperview, AK 28082"
    },
    {
        "state": "MA",
        "name": "Oued Byar Ezznouja",
        "city": "Douar Cherarka",
        "prov": "Marrakesh-Safi",
        "region": "Kelaa-Des-Sraghna",
        "latt": "32.327942",
        "longt": "-8.243058",
        "address": "16172 Burns CanyonnNorth Angela, MT 67558"
    },
    {
        "state": "MA",
        "name": "Hjar Laaroussa",
        "city": "Tetouan",
        "prov": "Tanger-Tetouan-Al Hoceima",
        "region": null,
        "latt": "35.59886",
        "longt": "-5.34031",
        "address": "84500 Katherine ExtensionnPort Christinaview, KY 35695"
    },
    {
        "state": "MA",
        "name": "Ar Rommani",
        "city": "Ar Rommani",
        "prov": "Rabat-Salu00e9-Ku00e9nitra",
        "region": null,
        "latt": "33.52838",
        "longt": "-6.60348",
        "address": "30551 Carr Terrace Suite 690nStevensfurt, MS 00726"
    },
    {
        "state": "MA",
        "name": "Talat Bou Afres",
        "city": "Ait Khallouf",
        "prov": "Rabat-Salu00e9-Ku00e9nitra",
        "region": "Khemisset",
        "latt": "33.543476",
        "longt": "-6.214858",
        "address": "3994 Carr Walks Apt. 962nLake Christian, VA 13735"
    },
    {
        "state": "MA",
        "name": "Koudyet Sernou",
        "city": "Oulad Abdelmaoula",
        "prov": "Marrakesh-Safi",
        "region": "Safi",
        "latt": "32.368115",
        "longt": "-9.049093",
        "address": "Unit 4553 Box 0277nDPO AP 91208"
    },
    {
        "state": "MA",
        "name": "Id Ouasrad",
        "city": "Id Ouasrad",
        "prov": "Marrakesh-Safi",
        "region": "Essaouira",
        "latt": "31.08084",
        "longt": "-9.75312",
        "address": "72947 Douglas Square Suite 285nLake Mark, ND 65897"
    },
    {
        "state": "MA",
        "name": "Tidgnit",
        "city": "Tawli",
        "prov": "Souss-Massa",
        "region": "Taroudannt",
        "latt": "29.76027",
        "longt": "-8.77972",
        "address": "370 Morales Fords Suite 571nRomeroborough, WV 79465"
    },
    {
        "state": "MA",
        "name": "Ain Ouaoukrat",
        "city": "Bou Ferdou",
        "prov": "Souss-Massa",
        "region": "Agadir-Ida-ou-Tnan",
        "latt": "30.690412",
        "longt": "-9.799566",
        "address": "2058 Jesus PortnPort Kristenbury, IN 84145"
    },
    {
        "state": "MA",
        "name": "Id Bedene",
        "city": "Id Bedene",
        "prov": "Souss-Massa",
        "region": null,
        "latt": "29.77784",
        "longt": "-9.24941",
        "address": "332 Tran LandingnPort Anitabury, KY 81306"
    },
    {
        "state": "MA",
        "name": "Douar Azib El Harnra",
        "city": "Douar Azib El Harnra",
        "prov": "Fu00e8s-Meknu00e8s",
        "region": null,
        "latt": "34.12691",
        "longt": "-5.38465",
        "address": "0873 Meyer Hill Apt. 505nPort Jimmyland, WA 27410"
    },
    {
        "state": "MA",
        "name": "Talektaout",
        "city": "Talektaout",
        "prov": "Marrakesh-Safi",
        "region": "Chichaoua",
        "latt": "31.11373",
        "longt": "-9.08902",
        "address": "75731 Turner StationnAllisonview, MO 54591"
    },
    {
        "state": "MA",
        "name": "Au00eft Ouknari",
        "city": "Ait Ouknari",
        "prov": "Souss-Massa",
        "region": "Chtouka-Ait-Baha",
        "latt": "29.94926",
        "longt": "-9.39575",
        "address": "7522 Hart VillenAlexisborough, FL 06863"
    },
    {
        "state": "MA",
        "name": "Tidgnit",
        "city": "Tawli",
        "prov": "Souss-Massa",
        "region": "Taroudannt",
        "latt": "29.76027",
        "longt": "-8.77972",
        "address": "52364 Amber Row Apt. 278nAprilland, MO 15517"
    },
    {
        "state": "MA",
        "name": "Dar Miloud",
        "city": "Settat",
        "prov": "Casablanca-Settat",
        "region": "Settat Province",
        "latt": "32.97336",
        "longt": "-7.61718",
        "address": "825 Reed Shore Apt. 310nPort Anthony, OK 22056"
    },
    {
        "state": "MA",
        "name": "El Briouiga",
        "city": "Ezzhiliga",
        "prov": "Rabat-Salu00e9-Ku00e9nitra",
        "region": "Khemisset",
        "latt": "33.3",
        "longt": "-6.56",
        "address": "9034 Kathryn Stravenue Apt. 197nSouth Caseyberg, WY 61375"
    },
    {
        "state": "MA",
        "name": "Thu00e9u00e2tre Bastyane",
        "city": "Souakene",
        "prov": "Tanger-Tetouan-Al Hoceima",
        "region": "Larache",
        "latt": "35.11891",
        "longt": "-5.95344",
        "address": "4798 Samantha SquaresnSouth Danielleland, NM 22885"
    },
    {
        "state": "MA",
        "name": "Douar Ait Amer Ait Youssef",
        "city": "Douar Ait Amer Ait Youssef",
        "prov": "Fu00e8s-Meknu00e8s",
        "region": null,
        "latt": "33.7257",
        "longt": "-5.50608",
        "address": "131 Allen Street Apt. 779nSilvaville, SC 09844"
    },
    {
        "state": "MA",
        "name": "Gaour",
        "city": "Gaour",
        "prov": "Guelmim-Oued Noun",
        "region": "Tiznit",
        "latt": "29.42081",
        "longt": "-9.27792",
        "address": "PSC 5995, Box 3645nAPO AA 33234"
    },
    {
        "state": "MA",
        "name": "Aqebt Eddeqiq",
        "city": "Lgherraf",
        "prov": "Fu00e8s-Meknu00e8s",
        "region": "Sefrou",
        "latt": "33.839345",
        "longt": "-4.602491",
        "address": "985 Melvin SquarenPort Kristin, ND 25173"
    },
    {
        "state": "MA",
        "name": "Tanoumiy",
        "city": "Tanoumiy",
        "prov": "Souss-Massa",
        "region": "Taroudannt",
        "latt": "30.19669",
        "longt": "-8.2839",
        "address": "62619 Brenda Meadows Suite 944nSuarezside, FL 39350"
    },
    {
        "state": "MA",
        "name": "Jbel Ahrarad",
        "city": "Jmedrane",
        "prov": "Tanger-Tetouan-Al Hoceima",
        "region": "Chefchaouen Province",
        "latt": "35.214641",
        "longt": "-4.791272",
        "address": "875 Lisa Avenue Suite 892nEvansberg, OR 36356"
    },
    {
        "state": "MA",
        "name": "El Briouiga",
        "city": "Ezzhiliga",
        "prov": "Rabat-Salu00e9-Ku00e9nitra",
        "region": "Khemisset",
        "latt": "33.3",
        "longt": "-6.56",
        "address": "34382 Oneill Turnpike Suite 624nLake Brenda, AR 34765"
    },
    {
        "state": "MA",
        "name": "Lkoudya Lhamra",
        "city": "Badnaoua Harriri",
        "prov": "Rabat-Salu00e9-Ku00e9nitra",
        "region": "Kenitra Province",
        "latt": "34.90641",
        "longt": "-6.08354",
        "address": "311 Gill StreamnRobinborough, KS 57665"
    },
    {
        "state": "MA",
        "name": "Talat Bou Afres",
        "city": "Ait Khallouf",
        "prov": "Rabat-Salu00e9-Ku00e9nitra",
        "region": "Khemisset",
        "latt": "33.543476",
        "longt": "-6.214858",
        "address": "901 Archer Village Apt. 153nAngelaport, CT 80370"
    },
    {
        "state": "MA",
        "name": "Menara",
        "city": "Marrakesh",
        "prov": "Marrakesh-Safi",
        "region": "Marrakech",
        "latt": "31.63627",
        "longt": "-7.98512",
        "address": "2099 Kyle ViaductnYoungshire, AR 87377"
    },
    {
        "state": "MA",
        "name": "Koudyet Sernou",
        "city": "Oulad Abdelmaoula",
        "prov": "Marrakesh-Safi",
        "region": "Safi",
        "latt": "32.368115",
        "longt": "-9.049093",
        "address": "Unit 3424 Box 0543nDPO AP 15199"
    },
    {
        "state": "MA",
        "name": "Oued Au00eft Oubilal",
        "city": "Tissert",
        "prov": "Marrakesh-Safi",
        "region": "Al-Haouz",
        "latt": "31.522789",
        "longt": "-7.405404",
        "address": "5833 Linda Prairie Apt. 543nWest Robert, AZ 61821"
    },
    {
        "state": "MA",
        "name": "Ar Rommani",
        "city": "Ar Rommani",
        "prov": "Rabat-Salu00e9-Ku00e9nitra",
        "region": null,
        "latt": "33.52838",
        "longt": "-6.60348",
        "address": "5941 Michael CliffsnWest Lawrence, IA 03537"
    },
    {
        "state": "MA",
        "name": "Sehb Ejjita",
        "city": "Oulad Jilali Magous",
        "prov": "Casablanca-Settat",
        "region": "Settat Province",
        "latt": "33.308476",
        "longt": "-7.216998",
        "address": "412 Smith DamnLake Leahhaven, IA 63513"
    },
    {
        "state": "MA",
        "name": "Tassila",
        "city": "Dakhla",
        "prov": "Souss-Massa",
        "region": null,
        "latt": "30.39179",
        "longt": "-9.52656",
        "address": "328 Douglas Keys Apt. 065nBeverlyfort, WY 33962"
    },
    {
        "state": "MA",
        "name": "Tama u2019Jount",
        "city": "Tama 'Jount",
        "prov": "Dru00e2a-Tafilalet",
        "region": null,
        "latt": "32.22223",
        "longt": "-4.36053",
        "address": "Unit 1131 Box 8292nDPO AE 86990"
    },
    {
        "state": "MA",
        "name": "Khnigat",
        "city": "Tiguest",
        "prov": "Oriental",
        "region": null,
        "latt": "32.86606",
        "longt": "-3.82",
        "address": "257 Rhonda Orchard Apt. 172nOliverstad, KS 54003"
    },
    {
        "state": "MA",
        "name": "Bdoua",
        "city": "Bdaoua",
        "prov": "Casablanca-Settat",
        "region": "Settat Province",
        "latt": "32.699101",
        "longt": "-7.85644",
        "address": "5426 Erik Court Apt. 674nMeghanville, AL 55739"
    },
    {
        "state": "MA",
        "name": "Cau00efdat de Driouch",
        "city": "Iberaf",
        "prov": "Oriental",
        "region": null,
        "latt": "34.90129",
        "longt": "-3.4249",
        "address": "0417 Smith MountainsnSarahport, OR 85729"
    },
    {
        "state": "MA",
        "name": "Tbououchent",
        "city": "Tbouchent",
        "prov": "Oriental",
        "region": null,
        "latt": "32.685706",
        "longt": "-3.330947",
        "address": "69637 Carolyn Groves Apt. 230nGrantton, MI 90645"
    },
    {
        "state": "MA",
        "name": "u2019Ain Waghzen",
        "city": "Touna Ouzregue",
        "prov": "Dru00e2a-Tafilalet",
        "region": "Zagora",
        "latt": "30.7052",
        "longt": "-6.65226",
        "address": "50328 Rodriguez Valley Suite 833nWest Mikefurt, WA 94341"
    },
    {
        "state": "MA",
        "name": "Douar Lentras",
        "city": "Douar Lentras",
        "prov": "Casablanca-Settat",
        "region": "Settat Province",
        "latt": "33.121585",
        "longt": "-7.115752",
        "address": "4047 Farmer GardennBennettmouth, OH 40699"
    },
    {
        "state": "MA",
        "name": "Bab Tamersiya",
        "city": "Mon Fre",
        "prov": "Fu00e8s-Meknu00e8s",
        "region": "Taza",
        "latt": "33.985979",
        "longt": "-4.184178",
        "address": "955 Dunn Alley Suite 312nMichaelhaven, MA 73977"
    },
    {
        "state": "MA",
        "name": "Hayt Llirma",
        "city": "Douar Ben Aqcat",
        "prov": "Fu00e8s-Meknu00e8s",
        "region": "Taounate",
        "latt": "34.111142",
        "longt": "-4.621417",
        "address": "638 Chambers VianWagnerstad, ND 67062"
    },
    {
        "state": "MA",
        "name": "Sehb Ejjita",
        "city": "Oulad Jilali Magous",
        "prov": "Casablanca-Settat",
        "region": "Settat Province",
        "latt": "33.308476",
        "longt": "-7.216998",
        "address": "010 Jennifer Burg Suite 083nDavidberg, NC 42589"
    },
    {
        "state": "MA",
        "name": "Douar Legraynat",
        "city": "Douar Legraynat",
        "prov": "Marrakesh-Safi",
        "region": null,
        "latt": "32.09017",
        "longt": "-8.76012",
        "address": "77386 Adkins RidgesnDavilaside, AR 62763"
    },
    {
        "state": "MA",
        "name": "Cheker Allah",
        "city": "Au00eft Haddou",
        "prov": "Fu00e8s-Meknu00e8s",
        "region": null,
        "latt": "33.191327",
        "longt": "-5.100009",
        "address": "USNS NuneznFPO AA 16223"
    },
    {
        "state": "MA",
        "name": "Oulad Ahmed Ben Abdellah",
        "city": "Oulad Ahmed Ben Abdellah",
        "prov": "Oriental",
        "region": null,
        "latt": "34.77143",
        "longt": "-1.90947",
        "address": "9691 Villanueva Flats Suite 130nKaneport, CO 14762"
    },
    {
        "state": "MA",
        "name": "Jbel Bou Ighrem",
        "city": "Tamdrost",
        "prov": "Dru00e2a-Tafilalet",
        "region": null,
        "latt": "30.500099",
        "longt": "-6.785305",
        "address": "73939 Hopkins LakesnPort Ashley, IA 17656"
    },
    {
        "state": "MA",
        "name": "Talat Bou Afres",
        "city": "Ait Khallouf",
        "prov": "Rabat-Salu00e9-Ku00e9nitra",
        "region": "Khemisset",
        "latt": "33.543476",
        "longt": "-6.214858",
        "address": "245 Johnson PinenPort Kathrynburgh, IL 90715"
    },
    {
        "state": "MA",
        "name": "Oulad el Azri",
        "city": "Oulad el Azri",
        "prov": "Fu00e8s-Meknu00e8s",
        "region": null,
        "latt": "34.35172",
        "longt": "-4.84096",
        "address": "9262 Michael Run Suite 013nNew Jessicaview, WA 22870"
    },
    {
        "state": "MA",
        "name": "Izilane",
        "city": "Chefchaouene",
        "prov": "Tanger-Tetouan-Al Hoceima",
        "region": "Chefchaouen Province",
        "latt": "35.17645",
        "longt": "-5.1989",
        "address": "17915 Clinton Prairie Apt. 247nLewisport, MO 55577"
    },
    {
        "state": "MA",
        "name": "Arhtites",
        "city": "Arhtites",
        "prov": "Tanger-Tetouan-Al Hoceima",
        "region": "Sidi-Kacem",
        "latt": "34.77699",
        "longt": "-5.47829",
        "address": "1690 Jaime Lake Apt. 357nThomasview, MA 32332"
    },
    {
        "state": "MA",
        "name": "Sidi Yssel",
        "city": "Douar Ain Laalig",
        "prov": "Fu00e8s-Meknu00e8s",
        "region": "Taounate",
        "latt": "34.357722",
        "longt": "-5.247747",
        "address": "316 Hawkins Estates Suite 030nEast Stanley, AK 55673"
    },
    {
        "state": "MA",
        "name": "Arhtites",
        "city": "Arhtites",
        "prov": "Tanger-Tetouan-Al Hoceima",
        "region": "Sidi-Kacem",
        "latt": "34.77699",
        "longt": "-5.47829",
        "address": "6920 Steven CirclenCalvinmouth, WV 77999"
    },
    {
        "state": "MA",
        "name": "Rahba Legdima",
        "city": "Errachidia",
        "prov": "Dru00e2a-Tafilalet",
        "region": "Errachidia",
        "latt": "31.967722",
        "longt": "-4.456782",
        "address": "641 Molly Rapids Apt. 806nCassandraville, VA 88411"
    },
    {
        "state": "MA",
        "name": "Hay Gueltet Zemanour",
        "city": "Fes",
        "prov": "Fu00e8s-Meknu00e8s",
        "region": null,
        "latt": "34.03001",
        "longt": "-4.99559",
        "address": "1969 Beverly Flats Apt. 247nRaymondport, AZ 21474"
    },
    {
        "state": "MA",
        "name": "Iferras",
        "city": "Iferras",
        "prov": "Marrakesh-Safi",
        "region": "Chichaoua",
        "latt": "31.14116",
        "longt": "-8.60422",
        "address": "1362 Nicholson FortnMichaelside, NJ 06126"
    },
    {
        "state": "MA",
        "name": "Oulad el Azri",
        "city": "Oulad el Azri",
        "prov": "Fu00e8s-Meknu00e8s",
        "region": null,
        "latt": "34.35172",
        "longt": "-4.84096",
        "address": "1820 Nicholas Summit Apt. 045nBillytown, AK 71858"
    },
    {
        "state": "MA",
        "name": "Derb Dayma",
        "city": "Derb Dayma",
        "prov": "Souss-Massa",
        "region": null,
        "latt": "30.2083",
        "longt": "-9.36161",
        "address": "PSC 5936, Box 5329nAPO AE 37807"
    },
    {
        "state": "MA",
        "name": "Ifri",
        "city": "Ifri",
        "prov": "Souss-Massa",
        "region": "Taroudannt",
        "latt": "30.822234",
        "longt": "-8.283527",
        "address": "7337 Beck Run Suite 148nNelsonborough, WI 72176"
    },
    {
        "state": "MA",
        "name": "Touassa",
        "city": "Mechraa Bel Ksiri",
        "prov": "Rabat-Salu00e9-Ku00e9nitra",
        "region": "Sidi-Kacem",
        "latt": "34.61926",
        "longt": "-6.00271",
        "address": "USCGC RodrigueznFPO AP 46095"
    },
    {
        "state": "MA",
        "name": "Trabna",
        "city": "Douar Terharna",
        "prov": "Rabat-Salu00e9-Ku00e9nitra",
        "region": "Sidi-Kacem",
        "latt": "34.314306",
        "longt": "-5.601041",
        "address": "2940 Bethany GlennPort Justinshire, OK 06767"
    },
    {
        "state": "MA",
        "name": "Toubdirt",
        "city": "Toubdirt",
        "prov": "Bu00e9ni Mellal-Khu00e9nifra",
        "region": "Kelaa-Des-Sraghna",
        "latt": "31.73165",
        "longt": "-7.19652",
        "address": "76862 John RidgesnPaulaberg, ND 41557"
    },
    {
        "state": "MA",
        "name": "Aqebt Eddeqiq",
        "city": "Lgherraf",
        "prov": "Fu00e8s-Meknu00e8s",
        "region": "Sefrou",
        "latt": "33.839345",
        "longt": "-4.602491",
        "address": "17159 Jonathan Trail Apt. 360nEast Dennis, NY 37546"
    },
    {
        "state": "MA",
        "name": "Azib Taferdout",
        "city": "Tizi Islane",
        "prov": "Souss-Massa",
        "region": null,
        "latt": "29.53963",
        "longt": "-9.39775",
        "address": "074 Sean Hollow Suite 309nNancyfort, GA 87966"
    },
    {
        "state": "MA",
        "name": "Bir-Cheham",
        "city": "Bir-Cheham",
        "prov": "Marrakesh-Safi",
        "region": null,
        "latt": "31.8432",
        "longt": "-8.46491",
        "address": "Unit 4560 Box 2947nDPO AA 59156"
    },
    {
        "state": "MA",
        "name": "Oued Khu2019anndak",
        "city": "Safsafat Kissaria",
        "prov": "Oriental",
        "region": null,
        "latt": "34.171046",
        "longt": "-3.542632",
        "address": "PSC 5102, Box 6573nAPO AE 60725"
    },
    {
        "state": "MA",
        "name": "Lkoudya Lhamra",
        "city": "Badnaoua Harriri",
        "prov": "Rabat-Salu00e9-Ku00e9nitra",
        "region": "Kenitra Province",
        "latt": "34.90641",
        "longt": "-6.08354",
        "address": "938 Stevens Viaduct Apt. 098nAlexandermouth, NH 03174"
    },
    {
        "state": "MA",
        "name": "Hayt Llirma",
        "city": "Douar Ben Aqcat",
        "prov": "Fu00e8s-Meknu00e8s",
        "region": "Taounate",
        "latt": "34.111142",
        "longt": "-4.621417",
        "address": "141 David Trace Suite 902nPort Rodney, NY 33127"
    },
    {
        "state": "MA",
        "name": "Tassila",
        "city": "Dakhla",
        "prov": "Souss-Massa",
        "region": null,
        "latt": "30.39179",
        "longt": "-9.52656",
        "address": "48173 Gutierrez GlensnSouth Steve, IA 10206"
    },
    {
        "state": "MA",
        "name": "Sidi Ali Ou Sebbah",
        "city": "Iherrouchene",
        "prov": "Fu00e8s-Meknu00e8s",
        "region": "Taza",
        "latt": "34.8",
        "longt": "-4",
        "address": "5823 Andrew Mountain Apt. 662nJoneschester, ID 14862"
    },
    {
        "state": "MA",
        "name": "Hay Achbar",
        "city": "Fnidek",
        "prov": "Tanger-Tetouan-Al Hoceima",
        "region": null,
        "latt": "35.85237",
        "longt": "-5.35747",
        "address": "187 Baker Viaduct Suite 666nSouth Erik, NJ 70955"
    },
    {
        "state": "MA",
        "name": "Ourtane",
        "city": "Ourtane",
        "prov": "Souss-Massa",
        "region": "Taroudannt",
        "latt": "30.90587",
        "longt": "-8.90662",
        "address": "15877 Kristy BrooksnEast Chelseaborough, MN 24636"
    },
    {
        "state": "MA",
        "name": "Ifri",
        "city": "Ifri",
        "prov": "Souss-Massa",
        "region": "Taroudannt",
        "latt": "30.822234",
        "longt": "-8.283527",
        "address": "084 Kimberly Spur Apt. 336nMonicamouth, WV 24763"
    },
    {
        "state": "MA",
        "name": "Oued Ahmmar",
        "city": "Boukhalef",
        "prov": "Tanger-Tetouan-Al Hoceima",
        "region": "Tanger-Assilah",
        "latt": "35.741355",
        "longt": "-5.895662",
        "address": "809 Julie Isle Suite 795nSpencerstad, OR 29570"
    },
    {
        "state": "MA",
        "name": "Oued Byar Ezznouja",
        "city": "Douar Cherarka",
        "prov": "Marrakesh-Safi",
        "region": "Kelaa-Des-Sraghna",
        "latt": "32.327942",
        "longt": "-8.243058",
        "address": "745 Macias Trail Suite 208nSimonshire, WY 54346"
    },
    {
        "state": "MA",
        "name": "Bdoua",
        "city": "Bdaoua",
        "prov": "Casablanca-Settat",
        "region": "Settat Province",
        "latt": "32.699101",
        "longt": "-7.85644",
        "address": "17487 Stacy Shoals Suite 986nKennethtown, WA 59001"
    },
    {
        "state": "MA",
        "name": "Izilane",
        "city": "Chefchaouene",
        "prov": "Tanger-Tetouan-Al Hoceima",
        "region": "Chefchaouen Province",
        "latt": "35.17645",
        "longt": "-5.1989",
        "address": "662 Anderson RidgesnWest Sharon, OR 96793"
    },
    {
        "state": "MA",
        "name": "Al Hart",
        "city": "Kelaat Mgouna",
        "prov": "Dru00e2a-Tafilalet",
        "region": null,
        "latt": "31.23512",
        "longt": "-6.14827",
        "address": "67292 Cole LocksnSchwartzmouth, SC 61628"
    },
    {
        "state": "MA",
        "name": "Douar Ait Amer Ait Youssef",
        "city": "Douar Ait Amer Ait Youssef",
        "prov": "Fu00e8s-Meknu00e8s",
        "region": null,
        "latt": "33.7257",
        "longt": "-5.50608",
        "address": "819 Daniel ParksnRonaldmouth, AL 42136"
    },
    {
        "state": "MA",
        "name": "Touirza",
        "city": "Ait Hmad",
        "prov": "Rabat-Salu00e9-Ku00e9nitra",
        "region": "Khemisset",
        "latt": "33.7274",
        "longt": "-5.98797",
        "address": "805 May VillagesnNorth Mitchellview, MI 58734"
    },
    {
        "state": "MA",
        "name": "Douar Ain Driss",
        "city": "Douar Ain Driss",
        "prov": "Fu00e8s-Meknu00e8s",
        "region": null,
        "latt": "34.14173",
        "longt": "-4.41325",
        "address": "805 Cameron Lake Apt. 965nLewisbury, MT 75523"
    },
    {
        "state": "MA",
        "name": "Egsanene",
        "city": "Egsanene",
        "prov": "Tanger-Tetouan-Al Hoceima",
        "region": "Al-Hoceima",
        "latt": "34.95",
        "longt": "-4.41",
        "address": "694 Boone PinenSouth Alexis, HI 88331"
    },
    {
        "state": "MA",
        "name": "Lkoudya Lhamra",
        "city": "Badnaoua Harriri",
        "prov": "Rabat-Salu00e9-Ku00e9nitra",
        "region": "Kenitra Province",
        "latt": "34.90641",
        "longt": "-6.08354",
        "address": "8018 Clark Plaza Apt. 721nBrandyfort, IL 21507"
    },
    {
        "state": "MA",
        "name": "Oulad Et-Toumia",
        "city": "Oulad Et-Toumia",
        "prov": "Casablanca-Settat",
        "region": null,
        "latt": "32.79315",
        "longt": "-7.61797",
        "address": "8291 Rose WellnPort Michellehaven, SD 24605"
    },
    {
        "state": "MA",
        "name": "Peu00f1a Horadada",
        "city": "Rayhana",
        "prov": "Tanger-Tetouan-Al Hoceima",
        "region": "Tanger-Assilah",
        "latt": "35.760604",
        "longt": "-5.939372",
        "address": "PSC 6955, Box 7897nAPO AE 76376"
    },
    {
        "state": "MA",
        "name": "Ar Rommani",
        "city": "Ar Rommani",
        "prov": "Rabat-Salu00e9-Ku00e9nitra",
        "region": null,
        "latt": "33.52838",
        "longt": "-6.60348",
        "address": "97152 Conley Spur Apt. 646nLake James, IN 70965"
    },
    {
        "state": "MA",
        "name": "Irhrem nu2019Au00eft Ouarhad",
        "city": "Irhrem nu2019Au00eft Ouarhad",
        "prov": "Bu00e9ni Mellal-Khu00e9nifra",
        "region": null,
        "latt": "32.21083",
        "longt": "-5.79987",
        "address": "0832 Sawyer Pines Apt. 052nGlovershire, AL 97979"
    },
    {
        "state": "MA",
        "name": "Iglu012bm u0100safu012b",
        "city": "Frindat",
        "prov": "Marrakesh-Safi",
        "region": "Safi",
        "latt": "32.252858",
        "longt": "-9.020541",
        "address": "94757 Jessica Skyway Suite 699nEricburgh, HI 06823"
    },
    {
        "state": "MA",
        "name": "Douar Ahl Naghoujat El Manzel",
        "city": "Douar Ahl Naghoujat El Manzel",
        "prov": "Marrakesh-Safi",
        "region": null,
        "latt": "31.94859",
        "longt": "-7.54228",
        "address": "9364 Mathews StationnWhitetown, MN 71312"
    },
    {
        "state": "MA",
        "name": "Tanoumiy",
        "city": "Tanoumiy",
        "prov": "Souss-Massa",
        "region": "Taroudannt",
        "latt": "30.19669",
        "longt": "-8.2839",
        "address": "8201 Nguyen HarborsnEast William, SD 99417"
    },
    {
        "state": "MA",
        "name": "Oued Lekhnig",
        "city": "Douar Skoura",
        "prov": "Marrakesh-Safi",
        "region": null,
        "latt": "32.45699",
        "longt": "-7.70787",
        "address": "733 Roman CrescentnWest Brittneyborough, PA 72142"
    },
    {
        "state": "MA",
        "name": "Au00eft Mrart",
        "city": "Ait Mrart",
        "prov": "Bu00e9ni Mellal-Khu00e9nifra",
        "region": null,
        "latt": "31.92586",
        "longt": "-6.66197",
        "address": "70456 Jennifer Tunnel Suite 070nMooreborough, MT 25471"
    },
    {
        "state": "MA",
        "name": "Lkoudya Lhamra",
        "city": "Badnaoua Harriri",
        "prov": "Rabat-Salu00e9-Ku00e9nitra",
        "region": "Kenitra Province",
        "latt": "34.90641",
        "longt": "-6.08354",
        "address": "50923 Mcguire Field Suite 839nWest Ryan, SC 12333"
    },
    {
        "state": "MA",
        "name": "Iglu012bm u0100safu012b",
        "city": "Frindat",
        "prov": "Marrakesh-Safi",
        "region": "Safi",
        "latt": "32.252858",
        "longt": "-9.020541",
        "address": "Unit 4635 Box 2333nDPO AE 60647"
    },
    {
        "state": "MA",
        "name": "Bou00fbghambou00fbb",
        "city": "Boughamboub",
        "prov": "Tanger-Tetouan-Al Hoceima",
        "region": "Al-Hoceima",
        "latt": "35.13982",
        "longt": "-4.18696",
        "address": "71217 Micheal Harbor Apt. 637nEmilyfurt, LA 50964"
    },
    {
        "state": "MA",
        "name": "Sidi Boufers",
        "city": "Ourti u00c7ghir",
        "prov": "Dru00e2a-Tafilalet",
        "region": null,
        "latt": "30.898578",
        "longt": "-7.382465",
        "address": "5431 Erin IslandnKellerburgh, VA 42184"
    },
    {
        "state": "MA",
        "name": "Azaggagh",
        "city": "Tisnassamine",
        "prov": "Souss-Massa",
        "region": "Tata",
        "latt": "30.02475",
        "longt": "-7.78255",
        "address": "160 Amy DividenDillonmouth, KY 37578"
    },
    {
        "state": "MA",
        "name": "Douar Oulad Mhamed",
        "city": "Douar Oulad Mhamed",
        "prov": "Casablanca-Settat",
        "region": null,
        "latt": "33.0066",
        "longt": "-7.18025",
        "address": "8295 Cindy Forges Suite 937nPort Michaelfurt, FL 66898"
    },
    {
        "state": "MA",
        "name": "Douar Legraynat",
        "city": "Douar Legraynat",
        "prov": "Marrakesh-Safi",
        "region": null,
        "latt": "32.09017",
        "longt": "-8.76012",
        "address": "30761 Delacruz ExtensionnPort Cody, MS 97968"
    },
    {
        "state": "MA",
        "name": "Ain Ouaoukrat",
        "city": "Bou Ferdou",
        "prov": "Souss-Massa",
        "region": "Agadir-Ida-ou-Tnan",
        "latt": "30.690412",
        "longt": "-9.799566",
        "address": "216 Garcia MountainnLake Courtneyfort, KY 92373"
    },
    {
        "state": "MA",
        "name": "Douar Lentras",
        "city": "Douar Lentras",
        "prov": "Casablanca-Settat",
        "region": "Settat Province",
        "latt": "33.121585",
        "longt": "-7.115752",
        "address": "5517 Williams Rue Apt. 212nWest Richardbury, NH 22702"
    },
    {
        "state": "MA",
        "name": "Id Bedene",
        "city": "Id Bedene",
        "prov": "Souss-Massa",
        "region": null,
        "latt": "29.77784",
        "longt": "-9.24941",
        "address": "USS HughesnFPO AP 48013"
    },
    {
        "state": "MA",
        "name": "Issalli Awragh",
        "city": "Iker'ach",
        "prov": "Dru00e2a-Tafilalet",
        "region": null,
        "latt": "32.54262",
        "longt": "-4.70756",
        "address": "970 Veronica Square Suite 980nBoydfort, SD 00760"
    },
    {
        "state": "MA",
        "name": "Amane Isghern",
        "city": "Touzounne",
        "prov": "Souss-Massa",
        "region": "Agadir-Ida-ou-Tnan",
        "latt": "30.491291",
        "longt": "-9.365001",
        "address": "Unit 7290 Box 2288nDPO AP 69658"
    },
    {
        "state": "MA",
        "name": "Hjar Laaroussa",
        "city": "Tetouan",
        "prov": "Tanger-Tetouan-Al Hoceima",
        "region": null,
        "latt": "35.59886",
        "longt": "-5.34031",
        "address": "23081 Warren Hills Suite 143nEast Christinefurt, NV 30352"
    },
    {
        "state": "MA",
        "name": "El Arba des Mesti",
        "city": "El Arba des Mesti",
        "prov": "Guelmim-Oued Noun",
        "region": null,
        "latt": "29.26486",
        "longt": "-10.11198",
        "address": "PSC 6449, Box 3456nAPO AP 78494"
    },
    {
        "state": "MA",
        "name": "Sidi Mokhfi",
        "city": "Rhir Melloud",
        "prov": "Fu00e8s-Meknu00e8s",
        "region": "Taounate",
        "latt": "34.65198",
        "longt": "-4.79925",
        "address": "4479 Schmidt HillsnLeechester, HI 85417"
    },
    {
        "state": "MA",
        "name": "Douar Azib El Harnra",
        "city": "Douar Azib El Harnra",
        "prov": "Fu00e8s-Meknu00e8s",
        "region": null,
        "latt": "34.12691",
        "longt": "-5.38465",
        "address": "529 Wilson PathnLake Johnton, RI 22269"
    },
    {
        "state": "MA",
        "name": "Lmarkaz",
        "city": "Zehazeha Dehimnat",
        "prov": "Marrakesh-Safi",
        "region": "Safi",
        "latt": "32.47921",
        "longt": "-8.80458",
        "address": "4492 Watts Street Suite 700nHunterhaven, RI 07561"
    },
    {
        "state": "MA",
        "name": "Au00eft Souss",
        "city": "Ait Souss",
        "prov": "Dru00e2a-Tafilalet",
        "region": null,
        "latt": "31.1",
        "longt": "-6.58",
        "address": "684 Kelley KeynSusanmouth, ND 32705"
    },
    {
        "state": "MA",
        "name": "Tabelkoukt",
        "city": "Tabelkoukt",
        "prov": "Guelmim-Oued Noun",
        "region": "Tiznit",
        "latt": "29.55623",
        "longt": "-10.04164",
        "address": "8643 Jeremiah Crest Suite 983nNicholasfurt, MS 64496"
    },
    {
        "state": "MA",
        "name": "Ouiedh",
        "city": "Taferdoust",
        "prov": "Fu00e8s-Meknu00e8s",
        "region": "Boulemane",
        "latt": "33.44521",
        "longt": "-4.61363",
        "address": "USS MorannFPO AA 61099"
    },
    {
        "state": "MA",
        "name": "Trabna",
        "city": "Douar Terharna",
        "prov": "Rabat-Salu00e9-Ku00e9nitra",
        "region": "Sidi-Kacem",
        "latt": "34.314306",
        "longt": "-5.601041",
        "address": "65071 Donna Centers Suite 501nSouth Jefferyton, VT 41239"
    },
    {
        "state": "MA",
        "name": "Lahdada",
        "city": "Lalla Dada",
        "prov": "Marrakesh-Safi",
        "region": "Essaouira",
        "latt": "31.68",
        "longt": "-9.56",
        "address": "9664 Willie MountnLisaborough, NY 74669"
    },
    {
        "state": "MA",
        "name": "Oulad Ghanem",
        "city": "Oulad Ghanem",
        "prov": "Dru00e2a-Tafilalet",
        "region": null,
        "latt": "31.52778",
        "longt": "-4.45766",
        "address": "03657 Collins Crossing Apt. 539nKylestad, PA 19496"
    },
    {
        "state": "MA",
        "name": "Ouaroughrout",
        "city": "Ouaroughrout",
        "prov": "Souss-Massa",
        "region": null,
        "latt": "30.09935",
        "longt": "-6.87382",
        "address": "0424 Kevin Ramp Apt. 651nJosephside, MO 79991"
    },
    {
        "state": "MA",
        "name": "Mazagan Bay",
        "city": "El Jadid",
        "prov": "Casablanca-Settat",
        "region": "El-Jadida",
        "latt": "33.26",
        "longt": "-8.48",
        "address": "3823 Jacobs LightsnLake Williamstad, NH 94631"
    },
    {
        "state": "MA",
        "name": "Douar Fahoudene",
        "city": "Douar Fahoudene",
        "prov": "Tanger-Tetouan-Al Hoceima",
        "region": "Al-Hoceima",
        "latt": "35.091026",
        "longt": "-4.035791",
        "address": "536 Lawson Fall Suite 090nNew Nicolasbury, CA 53352"
    },
    {
        "state": "MA",
        "name": "Douar Ezzaouia",
        "city": "Douar Ezzaouia",
        "prov": "Marrakesh-Safi",
        "region": null,
        "latt": "31.44568",
        "longt": "-9.75472",
        "address": "879 Courtney Mall Apt. 669nNorth Mark, NJ 67857"
    },
    {
        "state": "MA",
        "name": "Oued Byar Ezznouja",
        "city": "Douar Cherarka",
        "prov": "Marrakesh-Safi",
        "region": "Kelaa-Des-Sraghna",
        "latt": "32.327942",
        "longt": "-8.243058",
        "address": "2228 Matthew Keys Suite 043nSimpsonstad, NJ 83042"
    },
    {
        "state": "MA",
        "name": "Cau00efdat de Driouch",
        "city": "Iberaf",
        "prov": "Oriental",
        "region": null,
        "latt": "34.90129",
        "longt": "-3.4249",
        "address": "7403 Thompson LanenNew Anthonychester, NV 34591"
    },
    {
        "state": "MA",
        "name": "Souk el Arba Mogress",
        "city": "Souk el Arba Mogress",
        "prov": "Casablanca-Settat",
        "region": null,
        "latt": "32.89",
        "longt": "-8.41",
        "address": "43711 Bowman Pine Apt. 510nHawkinschester, WY 22298"
    },
    {
        "state": "MA",
        "name": "Ifourir",
        "city": "Ifourir",
        "prov": "Marrakesh-Safi",
        "region": "Al-Haouz",
        "latt": "30.97136",
        "longt": "-8.24085",
        "address": "5619 Anthony Knolls Suite 738nRobertberg, AL 32926"
    },
    {
        "state": "MA",
        "name": "Bir-Cheham",
        "city": "Bir-Cheham",
        "prov": "Marrakesh-Safi",
        "region": null,
        "latt": "31.8432",
        "longt": "-8.46491",
        "address": "72085 Julie LocknBooneberg, TN 11955"
    },
    {
        "state": "MA",
        "name": "Asif Iougo",
        "city": "Irhilane",
        "prov": "Souss-Massa",
        "region": "Taroudannt",
        "latt": "30.360459",
        "longt": "-8.855246",
        "address": "355 Danielle IslenPeterport, IL 59717"
    },
    {
        "state": "MA",
        "name": "Ru00efo Aulai",
        "city": "Taourda",
        "prov": "Fu00e8s-Meknu00e8s",
        "region": "Taounate",
        "latt": "34.553127",
        "longt": "-4.949036",
        "address": "2210 Rodney ViewsnWest Reneeview, NC 41797"
    },
    {
        "state": "MA",
        "name": "Ourtane",
        "city": "Ourtane",
        "prov": "Souss-Massa",
        "region": "Taroudannt",
        "latt": "30.90587",
        "longt": "-8.90662",
        "address": "903 Rivera MewsnWestbury, SD 05348"
    },
    {
        "state": "MA",
        "name": "Irhzer nu2019 Tamkadout",
        "city": "Aderar",
        "prov": "Marrakesh-Safi",
        "region": null,
        "latt": "30.88752",
        "longt": "-9.35187",
        "address": "94966 Wilkins DamnMargaretbury, HI 19027"
    },
    {
        "state": "MA",
        "name": "Douar Oulad Mhamed",
        "city": "Douar Oulad Mhamed",
        "prov": "Casablanca-Settat",
        "region": null,
        "latt": "33.0066",
        "longt": "-7.18025",
        "address": "2459 Kaitlin WaysnNew Loriberg, ND 69794"
    },
    {
        "state": "MA",
        "name": "Trabna",
        "city": "Douar Terharna",
        "prov": "Rabat-Salu00e9-Ku00e9nitra",
        "region": "Sidi-Kacem",
        "latt": "34.314306",
        "longt": "-5.601041",
        "address": "081 Nicholas PortsnPort Nicole, NY 32509"
    },
    {
        "state": "MA",
        "name": "Sidi Mohamedi",
        "city": "Midar",
        "prov": "Oriental",
        "region": "Nador",
        "latt": "34.98",
        "longt": "-3.58",
        "address": "8067 Hamilton SkywaynJasonmouth, NJ 16205"
    },
    {
        "state": "MA",
        "name": "Hay Gueltet Zemanour",
        "city": "Fes",
        "prov": "Fu00e8s-Meknu00e8s",
        "region": null,
        "latt": "34.03001",
        "longt": "-4.99559",
        "address": "167 Cisneros Squares Apt. 414nJenningsshire, AL 19700"
    },
    {
        "state": "MA",
        "name": "Dar Miloud",
        "city": "Settat",
        "prov": "Casablanca-Settat",
        "region": "Settat Province",
        "latt": "32.97336",
        "longt": "-7.61718",
        "address": "2269 Bryan Spurs Apt. 784nWest Thomas, GA 86928"
    },
    {
        "state": "MA",
        "name": "Tanoumiy",
        "city": "Tanoumiy",
        "prov": "Souss-Massa",
        "region": "Taroudannt",
        "latt": "30.19669",
        "longt": "-8.2839",
        "address": "476 Shannon Forges Suite 758nJenniferfurt, IN 03302"
    },
    {
        "state": "MA",
        "name": "Belere",
        "city": "Rabat",
        "prov": "Rabat-Salu00e9-Ku00e9nitra",
        "region": "Rabat",
        "latt": "34.01505",
        "longt": "-6.83271",
        "address": "68741 Brown UnderpassnSouth Tiffanyview, HI 57543"
    },
    {
        "state": "MA",
        "name": "Boutouga",
        "city": "Tatkaracht",
        "prov": "Souss-Massa",
        "region": "Taroudannt",
        "latt": "30.73124",
        "longt": "-8.09329",
        "address": "51228 Andrew MountainsnBennettmouth, HI 77751"
    },
    {
        "state": "MA",
        "name": "Id Ouasrad",
        "city": "Id Ouasrad",
        "prov": "Marrakesh-Safi",
        "region": "Essaouira",
        "latt": "31.08084",
        "longt": "-9.75312",
        "address": "6588 Francis CornernLake Jessica, AK 51451"
    },
    {
        "state": "MA",
        "name": "Douar Fahoudene",
        "city": "Douar Fahoudene",
        "prov": "Tanger-Tetouan-Al Hoceima",
        "region": "Al-Hoceima",
        "latt": "35.091026",
        "longt": "-4.035791",
        "address": "44064 Little Mill Suite 261nPort Rickyport, GA 51489"
    },
    {
        "state": "MA",
        "name": "Rout Tazeggaghet",
        "city": "Rout Tazeggaghet",
        "prov": "Bu00e9ni Mellal-Khu00e9nifra",
        "region": "Khenifra",
        "latt": "32.675798",
        "longt": "-5.175693",
        "address": "Unit 6697 Box 3424nDPO AE 04221"
    },
    {
        "state": "MA",
        "name": "Menara",
        "city": "Marrakesh",
        "prov": "Marrakesh-Safi",
        "region": "Marrakech",
        "latt": "31.63627",
        "longt": "-7.98512",
        "address": "27983 Kathy PlainsnWest Jacquelinemouth, RI 94951"
    },
    {
        "state": "MA",
        "name": "Izilane",
        "city": "Chefchaouene",
        "prov": "Tanger-Tetouan-Al Hoceima",
        "region": "Chefchaouen Province",
        "latt": "35.17645",
        "longt": "-5.1989",
        "address": "502 Brittany BypassnBrettbury, OR 30643"
    },
    {
        "state": "MA",
        "name": "Mazagan Bay",
        "city": "El Jadid",
        "prov": "Casablanca-Settat",
        "region": "El-Jadida",
        "latt": "33.26",
        "longt": "-8.48",
        "address": "800 Pearson Parkway Suite 311nHughesmouth, DE 73638"
    },
    {
        "state": "MA",
        "name": "Tighfist-n-Au00eft Sbih",
        "city": "Tighfist-n-Ait Sbih",
        "prov": "Bu00e9ni Mellal-Khu00e9nifra",
        "region": null,
        "latt": "31.36507",
        "longt": "-6.93405",
        "address": "659 Brittney Valley Suite 184nSusanburgh, ID 97549"
    },
    {
        "state": "MA",
        "name": "Amane Isghern",
        "city": "Touzounne",
        "prov": "Souss-Massa",
        "region": "Agadir-Ida-ou-Tnan",
        "latt": "30.491291",
        "longt": "-9.365001",
        "address": "51018 Escobar Throughway Apt. 027nWest Krista, ND 22882"
    },
    {
        "state": "MA",
        "name": "Dar Naimi Ben Hamza",
        "city": "El Aioun",
        "prov": "Oriental",
        "region": null,
        "latt": "34.56655",
        "longt": "-2.46753",
        "address": "573 Jose Station Suite 240nPort Bruce, TX 73728"
    },
    {
        "state": "MA",
        "name": "Id Bedene",
        "city": "Id Bedene",
        "prov": "Souss-Massa",
        "region": null,
        "latt": "29.77784",
        "longt": "-9.24941",
        "address": "927 Salazar Pike Suite 195nNorth Vincentmouth, KY 10166"
    },
    {
        "state": "MA",
        "name": "Tanoumiy",
        "city": "Tanoumiy",
        "prov": "Souss-Massa",
        "region": "Taroudannt",
        "latt": "30.19669",
        "longt": "-8.2839",
        "address": "3774 Heather Inlet Suite 109nLake Rachel, OR 81094"
    },
    {
        "state": "MA",
        "name": "Lkoudya Lhamra",
        "city": "Badnaoua Harriri",
        "prov": "Rabat-Salu00e9-Ku00e9nitra",
        "region": "Kenitra Province",
        "latt": "34.90641",
        "longt": "-6.08354",
        "address": "68170 Walters PointsnEast Jennifer, RI 65860"
    },
    {
        "state": "MA",
        "name": "Al Hart",
        "city": "Kelaat Mgouna",
        "prov": "Dru00e2a-Tafilalet",
        "region": null,
        "latt": "31.23512",
        "longt": "-6.14827",
        "address": "456 Tiffany SpurnWilsonmouth, WV 89261"
    },
    {
        "state": "MA",
        "name": "Tbououchent",
        "city": "Tbouchent",
        "prov": "Oriental",
        "region": null,
        "latt": "32.685706",
        "longt": "-3.330947",
        "address": "42254 Amber CrestnWest Christopher, ID 43410"
    },
    {
        "state": "MA",
        "name": "Iglu012bm u0100safu012b",
        "city": "Frindat",
        "prov": "Marrakesh-Safi",
        "region": "Safi",
        "latt": "32.252858",
        "longt": "-9.020541",
        "address": "74141 Brandt Dale Suite 865nPort Jefferyfurt, ID 11148"
    },
    {
        "state": "MA",
        "name": "Hayt Llirma",
        "city": "Douar Ben Aqcat",
        "prov": "Fu00e8s-Meknu00e8s",
        "region": "Taounate",
        "latt": "34.111142",
        "longt": "-4.621417",
        "address": "13623 Marquez CampnNorth Teresafort, AZ 30676"
    },
    {
        "state": "MA",
        "name": "Id Ouasrad",
        "city": "Id Ouasrad",
        "prov": "Marrakesh-Safi",
        "region": "Essaouira",
        "latt": "31.08084",
        "longt": "-9.75312",
        "address": "5541 Carrillo WalknAndreton, CA 71211"
    },
    {
        "state": "MA",
        "name": "Belere",
        "city": "Rabat",
        "prov": "Rabat-Salu00e9-Ku00e9nitra",
        "region": "Rabat",
        "latt": "34.01505",
        "longt": "-6.83271",
        "address": "6021 Jonathan Oval Apt. 294nNew Amandaland, DE 17169"
    },
    {
        "state": "MA",
        "name": "Al Hart",
        "city": "Kelaat Mgouna",
        "prov": "Dru00e2a-Tafilalet",
        "region": null,
        "latt": "31.23512",
        "longt": "-6.14827",
        "address": "238 Carter LightnFraziertown, LA 44671"
    },
    {
        "state": "MA",
        "name": "Au00efn Alilifa",
        "city": "Au00efn ej Jmel",
        "prov": "Casablanca-Settat",
        "region": "Settat Province",
        "latt": "33.42269",
        "longt": "-7.83038",
        "address": "36157 Clark Estate Suite 768nSarafurt, AK 34057"
    },
    {
        "state": "MA",
        "name": "Demnati",
        "city": "Demnati",
        "prov": "Marrakesh-Safi",
        "region": "Marrakech",
        "latt": "31.602",
        "longt": "-8.30589",
        "address": "56226 Rachel Alley Apt. 073nSouth Rachel, SC 72918"
    },
    {
        "state": "MA",
        "name": "Akachriyr",
        "city": "Azib-n-Ouwansa",
        "prov": "Marrakesh-Safi",
        "region": "Al-Haouz",
        "latt": "31.33201",
        "longt": "-7.30316",
        "address": "949 Hill View Apt. 712nBrucefort, OH 29650"
    },
    {
        "state": "MA",
        "name": "Terzougoun",
        "city": "Terzougoun",
        "prov": "Souss-Massa",
        "region": "Chtouka-Ait-Baha",
        "latt": "30.18992",
        "longt": "-9.14734",
        "address": "771 Rojas Fields Apt. 087nDouglasview, CA 21839"
    },
    {
        "state": "MA",
        "name": "Souq Al Had Imawn",
        "city": "Souq Al Had Imawn",
        "prov": "Souss-Massa",
        "region": null,
        "latt": "29.99577",
        "longt": "-8.65575",
        "address": "070 Justin Highway Suite 436nPort Tyroneville, ID 04347"
    },
    {
        "state": "MA",
        "name": "Dar Naimi Ben Hamza",
        "city": "El Aioun",
        "prov": "Oriental",
        "region": null,
        "latt": "34.56655",
        "longt": "-2.46753",
        "address": "4868 Devin Causeway Apt. 110nWest Claudialand, DE 99480"
    },
    {
        "state": "MA",
        "name": "Oued Byar Ezznouja",
        "city": "Douar Cherarka",
        "prov": "Marrakesh-Safi",
        "region": "Kelaa-Des-Sraghna",
        "latt": "32.327942",
        "longt": "-8.243058",
        "address": "656 Sanchez Junction Suite 656nNew Sherylville, NJ 67217"
    },
    {
        "state": "MA",
        "name": "Cercle de Taddart",
        "city": "Oulad el Haj",
        "prov": "Fu00e8s-Meknu00e8s",
        "region": "Taza",
        "latt": "34.244409",
        "longt": "-3.699839",
        "address": "1745 Ricardo Lock Suite 264nLopezside, IN 81126"
    },
    {
        "state": "MA",
        "name": "Oued Au00eft Oubilal",
        "city": "Tissert",
        "prov": "Marrakesh-Safi",
        "region": "Al-Haouz",
        "latt": "31.522789",
        "longt": "-7.405404",
        "address": "USS ContrerasnFPO AE 41389"
    },
    {
        "state": "MA",
        "name": "Toubdirt",
        "city": "Toubdirt",
        "prov": "Bu00e9ni Mellal-Khu00e9nifra",
        "region": "Kelaa-Des-Sraghna",
        "latt": "31.73165",
        "longt": "-7.19652",
        "address": "6152 Ingram Rue Apt. 530nAndrademouth, AL 50166"
    },
    {
        "state": "MA",
        "name": "Jbel Tiflicha",
        "city": "Ait Tghouliast",
        "prov": "Bu00e9ni Mellal-Khu00e9nifra",
        "region": null,
        "latt": "31.821823",
        "longt": "-6.270917",
        "address": "521 Vanessa WalknLisafort, VA 56703"
    },
    {
        "state": "MA",
        "name": "Au00eft Ouarzazate",
        "city": "Ouarzazat",
        "prov": "Dru00e2a-Tafilalet",
        "region": "Ouarzazate",
        "latt": "30.925265",
        "longt": "-6.913401",
        "address": "43499 Murphy MountainnEast Michael, GA 53785"
    },
    {
        "state": "MA",
        "name": "Taourirt nu2019Zillene",
        "city": "Tinghir",
        "prov": "Dru00e2a-Tafilalet",
        "region": "Tinghir Province",
        "latt": "31.51",
        "longt": "-5.55",
        "address": "8920 Monica Knoll Apt. 633nLake Stephanie, ID 55133"
    },
    {
        "state": "MA",
        "name": "Cau00efdat de Driouch",
        "city": "Iberaf",
        "prov": "Oriental",
        "region": null,
        "latt": "34.90129",
        "longt": "-3.4249",
        "address": "329 Hansen Isle Suite 555nNatashaside, PA 61124"
    },
    {
        "state": "MA",
        "name": "Sehb Ejjita",
        "city": "Oulad Jilali Magous",
        "prov": "Casablanca-Settat",
        "region": "Settat Province",
        "latt": "33.308476",
        "longt": "-7.216998",
        "address": "932 Andrew Stream Suite 640nStephenston, CO 55601"
    },
    {
        "state": "MA",
        "name": "Ouled Harrouch",
        "city": "Ouled Narrouch",
        "prov": "Dru00e2a-Tafilalet",
        "region": "Zagora",
        "latt": "30.4",
        "longt": "-5.8",
        "address": "57632 West Unions Suite 901nJenniferbury, VA 56261"
    },
    {
        "state": "MA",
        "name": "Douar Au00eft Bou Flili",
        "city": "Douar Ait Bou Flili",
        "prov": "Oriental",
        "region": null,
        "latt": "33.86722",
        "longt": "-3.79803",
        "address": "700 Renee Dale Suite 059nSouth Brandi, PA 18936"
    },
    {
        "state": "MA",
        "name": "Ayt Lahsene ou Su2019aid",
        "city": "Ayt Lahsene ou S'aid",
        "prov": "Marrakesh-Safi",
        "region": null,
        "latt": "31.48128",
        "longt": "-7.7732",
        "address": "956 Jessica Plaza Apt. 000nEast Gregory, GA 61779"
    },
    {
        "state": "MA",
        "name": "Id Bedene",
        "city": "Id Bedene",
        "prov": "Souss-Massa",
        "region": null,
        "latt": "29.77784",
        "longt": "-9.24941",
        "address": "488 Oneal OverpassnWilliamside, DE 26412"
    },
    {
        "state": "MA",
        "name": "Tamazouzt",
        "city": "Tamazouzt",
        "prov": "Marrakesh-Safi",
        "region": "Chichaoua",
        "latt": "31.38672",
        "longt": "-8.38141",
        "address": "264 James Harbor Suite 002nHarveyview, DE 75738"
    },
    {
        "state": "MA",
        "name": "Talat Bou Afres",
        "city": "Ait Khallouf",
        "prov": "Rabat-Salu00e9-Ku00e9nitra",
        "region": "Khemisset",
        "latt": "33.543476",
        "longt": "-6.214858",
        "address": "341 Fisher ExpresswaynEast Austin, MO 81149"
    },
    {
        "state": "MA",
        "name": "Hay Achbar",
        "city": "Fnidek",
        "prov": "Tanger-Tetouan-Al Hoceima",
        "region": null,
        "latt": "35.85237",
        "longt": "-5.35747",
        "address": "087 Anderson Dam Apt. 901nPort Martha, MD 21304"
    },
    {
        "state": "MA",
        "name": "Tawdacht",
        "city": "Tawdacht",
        "prov": "Dru00e2a-Tafilalet",
        "region": null,
        "latt": "31.00286",
        "longt": "-5.88273",
        "address": "58554 Powell FieldsnKhanview, VT 26802"
    },
    {
        "state": "MA",
        "name": "Douar Sidi Bou Roumia",
        "city": "Douar Sidi Bou Roumia",
        "prov": "Fu00e8s-Meknu00e8s",
        "region": null,
        "latt": "34.44052",
        "longt": "-3.87451",
        "address": "507 Collins Shores Apt. 069nHilltown, HI 67271"
    },
    {
        "state": "MA",
        "name": "Lmarkaz",
        "city": "Zehazeha Dehimnat",
        "prov": "Marrakesh-Safi",
        "region": "Safi",
        "latt": "32.47921",
        "longt": "-8.80458",
        "address": "USNS RodrigueznFPO AP 33927"
    },
    {
        "state": "MA",
        "name": "Toubdirt",
        "city": "Toubdirt",
        "prov": "Bu00e9ni Mellal-Khu00e9nifra",
        "region": "Kelaa-Des-Sraghna",
        "latt": "31.73165",
        "longt": "-7.19652",
        "address": "02417 Bryan Well Apt. 755nLewisville, OH 22812"
    },
    {
        "state": "MA",
        "name": "Azib Mohamed Ben Taleh Ben Salem",
        "city": "Rbaat Oulad Ghridou",
        "prov": "Marrakesh-Safi",
        "region": null,
        "latt": "31.54418",
        "longt": "-8.89045",
        "address": "73772 Matthew View Apt. 616nLake Stephaniemouth, VA 95237"
    },
    {
        "state": "MA",
        "name": "Douar Lentras",
        "city": "Douar Lentras",
        "prov": "Casablanca-Settat",
        "region": "Settat Province",
        "latt": "33.121585",
        "longt": "-7.115752",
        "address": "23101 Reed Garden Suite 222nRichardburgh, IL 06043"
    },
    {
        "state": "MA",
        "name": "Sidi Yssel",
        "city": "Douar Ain Laalig",
        "prov": "Fu00e8s-Meknu00e8s",
        "region": "Taounate",
        "latt": "34.357722",
        "longt": "-5.247747",
        "address": "734 Mejia VillagesnPort Veronica, MN 08414"
    },
    {
        "state": "MA",
        "name": "Ourtane",
        "city": "Ourtane",
        "prov": "Souss-Massa",
        "region": "Taroudannt",
        "latt": "30.90587",
        "longt": "-8.90662",
        "address": "0582 Arroyo ManornEast Laurenberg, AL 90451"
    },
    {
        "state": "MA",
        "name": "Sidi Mokhfi",
        "city": "Rhir Melloud",
        "prov": "Fu00e8s-Meknu00e8s",
        "region": "Taounate",
        "latt": "34.65198",
        "longt": "-4.79925",
        "address": "0984 Santiago Route Suite 844nAmandaburgh, NV 30974"
    },
    {
        "state": "MA",
        "name": "Terzougoun",
        "city": "Terzougoun",
        "prov": "Souss-Massa",
        "region": "Chtouka-Ait-Baha",
        "latt": "30.18992",
        "longt": "-9.14734",
        "address": "48268 Taylor Plaza Apt. 633nWest Chad, TN 46640"
    },
    {
        "state": "MA",
        "name": "Douar Ezzaouia",
        "city": "Douar Ezzaouia",
        "prov": "Marrakesh-Safi",
        "region": null,
        "latt": "31.44568",
        "longt": "-9.75472",
        "address": "7117 Porter RoadsnEast Ashleymouth, DE 63999"
    },
    {
        "state": "MA",
        "name": "Au00eft Yakoub",
        "city": "Au00eft Yakoub",
        "prov": "Dru00e2a-Tafilalet",
        "region": null,
        "latt": "32.33779",
        "longt": "-4.91954",
        "address": "041 Nelson FieldsnLake Josephfurt, MN 42690"
    },
    {
        "state": "MA",
        "name": "Oued Byar Ezznouja",
        "city": "Douar Cherarka",
        "prov": "Marrakesh-Safi",
        "region": "Kelaa-Des-Sraghna",
        "latt": "32.327942",
        "longt": "-8.243058",
        "address": "Unit 5969 Box 6663nDPO AP 98029"
    },
    {
        "state": "MA",
        "name": "Amghas",
        "city": "Ait Ouwa'ziz",
        "prov": "Fu00e8s-Meknu00e8s",
        "region": "Ifrane",
        "latt": "33.39426",
        "longt": "-5.4446",
        "address": "848 Justin SummitnBrewermouth, OK 54099"
    },
    {
        "state": "MA",
        "name": "Thu00e9u00e2tre Bastyane",
        "city": "Souakene",
        "prov": "Tanger-Tetouan-Al Hoceima",
        "region": "Larache",
        "latt": "35.11891",
        "longt": "-5.95344",
        "address": "699 Mark Ridges Suite 201nGrahamville, ID 26748"
    },
    {
        "state": "MA",
        "name": "Mhignat Touama",
        "city": "Kenitra",
        "prov": "Rabat-Salu00e9-Ku00e9nitra",
        "region": "Kenitra Province",
        "latt": "34.25282",
        "longt": "-6.63113",
        "address": "1734 Snyder ShoalnCherylshire, NV 06869"
    },
    {
        "state": "MA",
        "name": "Talektaout",
        "city": "Talektaout",
        "prov": "Marrakesh-Safi",
        "region": "Chichaoua",
        "latt": "31.11373",
        "longt": "-9.08902",
        "address": "USNV WalkernFPO AE 39811"
    },
    {
        "state": "MA",
        "name": "Ain Srfyane",
        "city": "Ouezzane",
        "prov": "Tanger-Tetouan-Al Hoceima",
        "region": "Ouezzane Province",
        "latt": "34.830899",
        "longt": "-5.570465",
        "address": "9117 Scott Street Apt. 451nTurnerchester, WY 06234"
    },
    {
        "state": "MA",
        "name": "Douar Oulad Ali",
        "city": "Douar Oulad Ali",
        "prov": "Marrakesh-Safi",
        "region": null,
        "latt": "32.20195",
        "longt": "-7.184",
        "address": "35074 Pierce PlainsnJuliamouth, DC 94189"
    },
    {
        "state": "MA",
        "name": "Timouchiden Jebel",
        "city": "Ililane Zdernine",
        "prov": "Dru00e2a-Tafilalet",
        "region": "Ouarzazate",
        "latt": "30.56",
        "longt": "-7.11",
        "address": "77012 Mark SpringnEast Tammymouth, MD 05679"
    },
    {
        "state": "MA",
        "name": "Oulad Chau00efb Zoreg",
        "city": "Jboub Zoulau00ef",
        "prov": "Oriental",
        "region": null,
        "latt": "32.3",
        "longt": "-1.75",
        "address": "PSC 5254, Box 5666nAPO AE 66013"
    },
    {
        "state": "MA",
        "name": "Oued Zrag",
        "city": "Douar Laabichat",
        "prov": "Marrakesh-Safi",
        "region": "Safi",
        "latt": "31.995456",
        "longt": "-8.770681",
        "address": "70188 Kathy SquaresnSchmittview, MD 40639"
    },
    {
        "state": "MA",
        "name": "Rejem es Seyada",
        "city": "Seflet",
        "prov": "Oriental",
        "region": null,
        "latt": "34.222788",
        "longt": "-3.191849",
        "address": "0541 Jones EstatenLake Michellefurt, IA 32666"
    },
    {
        "state": "MA",
        "name": "Sidi Yssel",
        "city": "Douar Ain Laalig",
        "prov": "Fu00e8s-Meknu00e8s",
        "region": "Taounate",
        "latt": "34.357722",
        "longt": "-5.247747",
        "address": "625 Young MewsnYeseniaport, AL 78909"
    },
    {
        "state": "MA",
        "name": "Lkoudya Lhamra",
        "city": "Badnaoua Harriri",
        "prov": "Rabat-Salu00e9-Ku00e9nitra",
        "region": "Kenitra Province",
        "latt": "34.90641",
        "longt": "-6.08354",
        "address": "36017 Brooke Courts Suite 666nNorth Maryton, ME 37221"
    },
    {
        "state": "MA",
        "name": "Douar Laassaassa",
        "city": "Douar Laassaassa",
        "prov": "Marrakesh-Safi",
        "region": "Essaouira",
        "latt": "31.768012",
        "longt": "-9.194726",
        "address": "USCGC PoolenFPO AE 41116"
    },
    {
        "state": "MA",
        "name": "Ifourir",
        "city": "Ifourir",
        "prov": "Marrakesh-Safi",
        "region": "Al-Haouz",
        "latt": "30.97136",
        "longt": "-8.24085",
        "address": "77683 Samantha PointsnBellberg, VA 29719"
    },
    {
        "state": "MA",
        "name": "Bab Mansoura",
        "city": "Bab Mansoura",
        "prov": "Fu00e8s-Meknu00e8s",
        "region": "Taounate",
        "latt": "34.740617",
        "longt": "-5.017722",
        "address": "9251 Melissa Overpass Apt. 126nLake Jody, GA 36704"
    },
    {
        "state": "MA",
        "name": "Dar Naimi Ben Hamza",
        "city": "El Aioun",
        "prov": "Oriental",
        "region": null,
        "latt": "34.56655",
        "longt": "-2.46753",
        "address": "USCGC WarnernFPO AA 98943"
    },
    {
        "state": "MA",
        "name": "Tabelkoukt",
        "city": "Tabelkoukt",
        "prov": "Guelmim-Oued Noun",
        "region": "Tiznit",
        "latt": "29.55623",
        "longt": "-10.04164",
        "address": "59400 Christina KeynNew Michael, NY 92739"
    },
    {
        "state": "MA",
        "name": "Koudyet Sernou",
        "city": "Oulad Abdelmaoula",
        "prov": "Marrakesh-Safi",
        "region": "Safi",
        "latt": "32.368115",
        "longt": "-9.049093",
        "address": "Unit 9245 Box 8865nDPO AP 31889"
    },
    {
        "state": "MA",
        "name": "Oued Metroh",
        "city": "Tarhilasset",
        "prov": "Oriental",
        "region": null,
        "latt": "34.36288",
        "longt": "-2.43106",
        "address": "370 Lewis ValleynRichardburgh, NC 16714"
    },
    {
        "state": "MA",
        "name": "Gaour",
        "city": "Gaour",
        "prov": "Guelmim-Oued Noun",
        "region": "Tiznit",
        "latt": "29.42081",
        "longt": "-9.27792",
        "address": "632 Moore MallnPatriciastad, NV 64591"
    },
    {
        "state": "MA",
        "name": "Wad Khartnat",
        "city": "Qu00e7ar Kaddou",
        "prov": "Oriental",
        "region": null,
        "latt": "32.91316",
        "longt": "-3.35764",
        "address": "01509 Decker Meadow Apt. 108nNew Randy, ID 62158"
    },
    {
        "state": "MA",
        "name": "Tawraght",
        "city": "Tawraght",
        "prov": "Souss-Massa",
        "region": null,
        "latt": "30.55827",
        "longt": "-8.47962",
        "address": "8460 Edwin SpurnSimsburgh, WY 85987"
    },
    {
        "state": "MA",
        "name": "Dayet Lahouidat",
        "city": "Bouznika",
        "prov": "Casablanca-Settat",
        "region": "Benslimane",
        "latt": "33.726817",
        "longt": "-7.173128",
        "address": "6782 Stephanie Dale Suite 251nLake Meredithtown, LA 82525"
    },
    {
        "state": "MA",
        "name": "Adrar nu2019 Tasselloumt",
        "city": "Ouizmau00efne",
        "prov": "Souss-Massa",
        "region": null,
        "latt": "29.86222",
        "longt": "-7.76849",
        "address": "51946 Jesse MountainsnNorth Michele, MN 61268"
    },
    {
        "state": "MA",
        "name": "Lahdada",
        "city": "Lalla Dada",
        "prov": "Marrakesh-Safi",
        "region": "Essaouira",
        "latt": "31.68",
        "longt": "-9.56",
        "address": "Unit 2850 Box 2309nDPO AA 59537"
    },
    {
        "state": "MA",
        "name": "Boulzzane",
        "city": "Boulzzane",
        "prov": "Fu00e8s-Meknu00e8s",
        "region": "Boulemane",
        "latt": "33.33792",
        "longt": "-4.60102",
        "address": "736 Lauren ParkwaynHillshire, ND 24099"
    },
    {
        "state": "MA",
        "name": "Ru00efo Aulai",
        "city": "Taourda",
        "prov": "Fu00e8s-Meknu00e8s",
        "region": "Taounate",
        "latt": "34.553127",
        "longt": "-4.949036",
        "address": "00349 Christensen CliffnWillieville, NY 99940"
    },
    {
        "state": "MA",
        "name": "Arhtites",
        "city": "Arhtites",
        "prov": "Tanger-Tetouan-Al Hoceima",
        "region": "Sidi-Kacem",
        "latt": "34.77699",
        "longt": "-5.47829",
        "address": "4590 Hayes CoursenSouth Kristine, IN 61663"
    },
    {
        "state": "MA",
        "name": "Gaour",
        "city": "Gaour",
        "prov": "Guelmim-Oued Noun",
        "region": "Tiznit",
        "latt": "29.42081",
        "longt": "-9.27792",
        "address": "60985 Victor Motorway Apt. 887nRobertafort, TN 80872"
    },
    {
        "state": "MA",
        "name": "Al Hoceima",
        "city": "Al Hoceima",
        "prov": "Tanger-Tetouan-Al Hoceima",
        "region": "Al-Hoceima",
        "latt": "35.23587",
        "longt": "-3.943",
        "address": "857 Christopher Pike Apt. 982nKaufmanland, NJ 01477"
    },
    {
        "state": "MA",
        "name": "Bou00fbghambou00fbb",
        "city": "Boughamboub",
        "prov": "Tanger-Tetouan-Al Hoceima",
        "region": "Al-Hoceima",
        "latt": "35.13982",
        "longt": "-4.18696",
        "address": "60104 Bass Ports Suite 264nSimmonsview, NH 81673"
    },
    {
        "state": "MA",
        "name": "Lmarkaz",
        "city": "Zehazeha Dehimnat",
        "prov": "Marrakesh-Safi",
        "region": "Safi",
        "latt": "32.47921",
        "longt": "-8.80458",
        "address": "14295 Shannon WalknMullentown, HI 81484"
    },
    {
        "state": "MA",
        "name": "Douar Ahl Naghoujat El Manzel",
        "city": "Douar Ahl Naghoujat El Manzel",
        "prov": "Marrakesh-Safi",
        "region": null,
        "latt": "31.94859",
        "longt": "-7.54228",
        "address": "1207 Janice HarbornZunigaborough, WI 85666"
    },
    {
        "state": "MA",
        "name": "Oued Khu2019anndak",
        "city": "Safsafat Kissaria",
        "prov": "Oriental",
        "region": null,
        "latt": "34.171046",
        "longt": "-3.542632",
        "address": "2127 West Stravenue Apt. 213nPort Nathan, UT 73219"
    },
    {
        "state": "MA",
        "name": "Ouisgane",
        "city": "Ouisgane",
        "prov": "Guelmim-Oued Noun",
        "region": "Guelmim",
        "latt": "29.14834",
        "longt": "-9.69471",
        "address": "463 Perkins StravenuenEast Gloriaburgh, MS 69882"
    },
    {
        "state": "MA",
        "name": "Oulad el Azri",
        "city": "Oulad el Azri",
        "prov": "Fu00e8s-Meknu00e8s",
        "region": null,
        "latt": "34.35172",
        "longt": "-4.84096",
        "address": "40884 Jordan Corner Apt. 922nLake Christopher, KY 75065"
    },
    {
        "state": "MA",
        "name": "Douar Legraynat",
        "city": "Douar Legraynat",
        "prov": "Marrakesh-Safi",
        "region": null,
        "latt": "32.09017",
        "longt": "-8.76012",
        "address": "42814 Steven Greens Apt. 792nHillburgh, AR 98826"
    },
    {
        "state": "MA",
        "name": "Bir Ben al Mrofeq",
        "city": "Granna",
        "prov": "Casablanca-Settat",
        "region": "Settat Province",
        "latt": "32.769223",
        "longt": "-7.097238",
        "address": "5883 Brian Plain Suite 283nMarkbury, AL 53073"
    },
    {
        "state": "MA",
        "name": "Sidi Yssel",
        "city": "Douar Ain Laalig",
        "prov": "Fu00e8s-Meknu00e8s",
        "region": "Taounate",
        "latt": "34.357722",
        "longt": "-5.247747",
        "address": "PSC 3627, Box 3513nAPO AA 50804"
    },
    {
        "state": "MA",
        "name": "Douar Legraynat",
        "city": "Douar Legraynat",
        "prov": "Marrakesh-Safi",
        "region": null,
        "latt": "32.09017",
        "longt": "-8.76012",
        "address": "866 Veronica StreamnSouth Kimberly, CA 88001"
    },
    {
        "state": "MA",
        "name": "Wawmikart",
        "city": "Wawmikart",
        "prov": "Dru00e2a-Tafilalet",
        "region": null,
        "latt": "32.00975",
        "longt": "-4.7849",
        "address": "34138 Gray Viaduct Apt. 391nLeslieton, KS 90710"
    },
    {
        "state": "MA",
        "name": "Tessaout nu2019Atena",
        "city": "Tessaout n'Atena",
        "prov": "Dru00e2a-Tafilalet",
        "region": null,
        "latt": "31.45",
        "longt": "-6.46",
        "address": "015 Jennifer GreensnChandlerton, MS 92797"
    },
    {
        "state": "MA",
        "name": "Koudyet Sernou",
        "city": "Oulad Abdelmaoula",
        "prov": "Marrakesh-Safi",
        "region": "Safi",
        "latt": "32.368115",
        "longt": "-9.049093",
        "address": "26980 Jones Union Suite 570nSchaeferberg, MA 85740"
    },
    {
        "state": "MA",
        "name": "Oued Zrag",
        "city": "Douar Laabichat",
        "prov": "Marrakesh-Safi",
        "region": "Safi",
        "latt": "31.995456",
        "longt": "-8.770681",
        "address": "3471 Ball LoopnWest Amandahaven, WA 52205"
    },
    {
        "state": "MA",
        "name": "Asif Iougo",
        "city": "Irhilane",
        "prov": "Souss-Massa",
        "region": "Taroudannt",
        "latt": "30.360459",
        "longt": "-8.855246",
        "address": "088 Dawn EstatesnLyonsside, NM 46458"
    },
    {
        "state": "MA",
        "name": "Arhtites",
        "city": "Arhtites",
        "prov": "Tanger-Tetouan-Al Hoceima",
        "region": "Sidi-Kacem",
        "latt": "34.77699",
        "longt": "-5.47829",
        "address": "5160 Tom RampnKarenside, NC 92940"
    },
    {
        "state": "MA",
        "name": "Ru00efo Aulai",
        "city": "Taourda",
        "prov": "Fu00e8s-Meknu00e8s",
        "region": "Taounate",
        "latt": "34.553127",
        "longt": "-4.949036",
        "address": "837 Graham HollownLake Yolandafurt, AL 29323"
    },
    {
        "state": "MA",
        "name": "Qau00e7ba",
        "city": "Qau00e7ba",
        "prov": "Casablanca-Settat",
        "region": null,
        "latt": "33.44254",
        "longt": "-7.50687",
        "address": "528 Wanda Course Apt. 362nChristopherfurt, OH 85026"
    },
    {
        "state": "MA",
        "name": "Sidi Abderrazak",
        "city": "Dar Znani Ben u2019Abdallah",
        "prov": "Rabat-Salu00e9-Ku00e9nitra",
        "region": "Khemisset",
        "latt": "34.02924",
        "longt": "-6.14777",
        "address": "823 Aaron Fall Suite 867nWest Christopherfurt, AK 60313"
    },
    {
        "state": "MA",
        "name": "Boutouga",
        "city": "Tatkaracht",
        "prov": "Souss-Massa",
        "region": "Taroudannt",
        "latt": "30.73124",
        "longt": "-8.09329",
        "address": "21425 Lee HillnBurgessport, MO 56463"
    },
    {
        "state": "MA",
        "name": "Dar Naimi Ben Hamza",
        "city": "El Aioun",
        "prov": "Oriental",
        "region": null,
        "latt": "34.56655",
        "longt": "-2.46753",
        "address": "541 Wood RapidnNorth Michaelhaven, NV 33845"
    },
    {
        "state": "MA",
        "name": "Jbel Lal Tifrat",
        "city": "Mosquu00e9e",
        "prov": "Oriental",
        "region": "Berkane",
        "latt": "34.839133",
        "longt": "-2.485667",
        "address": "42774 Carmen DrivenStevenville, IL 13367"
    },
    {
        "state": "MA",
        "name": "Tidgnit",
        "city": "Tawli",
        "prov": "Souss-Massa",
        "region": "Taroudannt",
        "latt": "29.76027",
        "longt": "-8.77972",
        "address": "01432 Dickerson Center Apt. 908nNew Kristineville, HI 28628"
    },
    {
        "state": "MA",
        "name": "Gaour",
        "city": "Gaour",
        "prov": "Guelmim-Oued Noun",
        "region": "Tiznit",
        "latt": "29.42081",
        "longt": "-9.27792",
        "address": "95824 Gutierrez ParkwaynKevinton, PA 98585"
    },
    {
        "state": "MA",
        "name": "Bou00fbghambou00fbb",
        "city": "Boughamboub",
        "prov": "Tanger-Tetouan-Al Hoceima",
        "region": "Al-Hoceima",
        "latt": "35.13982",
        "longt": "-4.18696",
        "address": "9078 Hall Shoal Suite 171nWest Davidhaven, GA 53577"
    },
    {
        "state": "MA",
        "name": "Douar Azib El Harnra",
        "city": "Douar Azib El Harnra",
        "prov": "Fu00e8s-Meknu00e8s",
        "region": null,
        "latt": "34.12691",
        "longt": "-5.38465",
        "address": "8286 Hodges EstatesnEdwardton, IL 39630"
    },
    {
        "state": "MA",
        "name": "Asif Iougo",
        "city": "Irhilane",
        "prov": "Souss-Massa",
        "region": "Taroudannt",
        "latt": "30.360459",
        "longt": "-8.855246",
        "address": "0930 Maxwell Station Apt. 056nPort Angelaton, CT 43767"
    },
    {
        "state": "MA",
        "name": "Thu00e9u00e2tre Bastyane",
        "city": "Souakene",
        "prov": "Tanger-Tetouan-Al Hoceima",
        "region": "Larache",
        "latt": "35.11891",
        "longt": "-5.95344",
        "address": "53240 Jeremy TrafficwaynEast Micheleton, WY 60604"
    },
    {
        "state": "MA",
        "name": "Oulad el Azri",
        "city": "Oulad el Azri",
        "prov": "Fu00e8s-Meknu00e8s",
        "region": null,
        "latt": "34.35172",
        "longt": "-4.84096",
        "address": "49165 Reynolds DamnFuentesport, MS 51364"
    },
    {
        "state": "MA",
        "name": "Hayt Llirma",
        "city": "Douar Ben Aqcat",
        "prov": "Fu00e8s-Meknu00e8s",
        "region": "Taounate",
        "latt": "34.111142",
        "longt": "-4.621417",
        "address": "16194 Mary Locks Apt. 868nNorth Oliviaport, CA 94387"
    },
    {
        "state": "MA",
        "name": "Hay Gueltet Zemanour",
        "city": "Fes",
        "prov": "Fu00e8s-Meknu00e8s",
        "region": null,
        "latt": "34.03001",
        "longt": "-4.99559",
        "address": "Unit 6335 Box 3460nDPO AE 25661"
    },
    {
        "state": "MA",
        "name": "Arhtites",
        "city": "Arhtites",
        "prov": "Tanger-Tetouan-Al Hoceima",
        "region": "Sidi-Kacem",
        "latt": "34.77699",
        "longt": "-5.47829",
        "address": "311 Gregory VistanSouth Jeremyland, IA 36117"
    },
    {
        "state": "MA",
        "name": "Sidi Yssel",
        "city": "Douar Ain Laalig",
        "prov": "Fu00e8s-Meknu00e8s",
        "region": "Taounate",
        "latt": "34.357722",
        "longt": "-5.247747",
        "address": "17753 Bonnie PassnNorth Christopherfort, CA 06022"
    },
    {
        "state": "MA",
        "name": "Tibhirine",
        "city": "Tibhirine",
        "prov": "Bu00e9ni Mellal-Khu00e9nifra",
        "region": null,
        "latt": "33.1122",
        "longt": "-5.67726",
        "address": "466 Alfred CrossingnThomasmouth, OK 99075"
    },
    {
        "state": "MA",
        "name": "Touirza",
        "city": "Ait Hmad",
        "prov": "Rabat-Salu00e9-Ku00e9nitra",
        "region": "Khemisset",
        "latt": "33.7274",
        "longt": "-5.98797",
        "address": "600 Weiss ValleynSouth Kimberly, WV 17625"
    },
    {
        "state": "MA",
        "name": "Douar Sidi Mohammed",
        "city": "Douar Sidi Mohammed",
        "prov": "Rabat-Salu00e9-Ku00e9nitra",
        "region": null,
        "latt": "33.94724",
        "longt": "-6.35406",
        "address": "6210 Cynthia VillagenNicoleside, TX 25491"
    },
    {
        "state": "MA",
        "name": "Tawdacht",
        "city": "Tawdacht",
        "prov": "Dru00e2a-Tafilalet",
        "region": null,
        "latt": "31.00286",
        "longt": "-5.88273",
        "address": "74776 Amanda Meadows Apt. 001nNew Zacharychester, VT 83493"
    },
    {
        "state": "MA",
        "name": "Imin Nirich",
        "city": "Imi Nirsh",
        "prov": "Dru00e2a-Tafilalet",
        "region": null,
        "latt": "31.61",
        "longt": "-6.18",
        "address": "7824 Catherine IslandsnEast Michelleville, WV 02994"
    },
    {
        "state": "MA",
        "name": "Toubdirt",
        "city": "Toubdirt",
        "prov": "Bu00e9ni Mellal-Khu00e9nifra",
        "region": "Kelaa-Des-Sraghna",
        "latt": "31.73165",
        "longt": "-7.19652",
        "address": "36107 Daniel SpringnWarrenbury, NM 97350"
    },
    {
        "state": "MA",
        "name": "El Kradda",
        "city": "El Kradda",
        "prov": "Bu00e9ni Mellal-Khu00e9nifra",
        "region": "Khouribga Province",
        "latt": "32.97174",
        "longt": "-6.3866",
        "address": "8798 Christopher Turnpike Suite 185nMooreville, NM 48918"
    },
    {
        "state": "MA",
        "name": "Derb Dayma",
        "city": "Derb Dayma",
        "prov": "Souss-Massa",
        "region": null,
        "latt": "30.2083",
        "longt": "-9.36161",
        "address": "53147 Laura ViewnSouth Jill, NM 43256"
    },
    {
        "state": "MA",
        "name": "Tiskdal",
        "city": "Tittalt",
        "prov": "Souss-Massa",
        "region": "Taroudannt",
        "latt": "30.80146",
        "longt": "-7.72104",
        "address": "105 Ray LandnNew Joybury, ND 44940"
    },
    {
        "state": "MA",
        "name": "Egsanene",
        "city": "Egsanene",
        "prov": "Tanger-Tetouan-Al Hoceima",
        "region": "Al-Hoceima",
        "latt": "34.95",
        "longt": "-4.41",
        "address": "416 Marquez CourtnDennismouth, MT 11299"
    },
    {
        "state": "MA",
        "name": "Tidgnit",
        "city": "Tawli",
        "prov": "Souss-Massa",
        "region": "Taroudannt",
        "latt": "29.76027",
        "longt": "-8.77972",
        "address": "85076 Garza SquaresnHeidistad, DC 66944"
    },
    {
        "state": "MA",
        "name": "Aqebt Eddeqiq",
        "city": "Lgherraf",
        "prov": "Fu00e8s-Meknu00e8s",
        "region": "Sefrou",
        "latt": "33.839345",
        "longt": "-4.602491",
        "address": "55734 Jesse MountainsnSouth Steven, NJ 04254"
    },
    {
        "state": "MA",
        "name": "El Arba des Mesti",
        "city": "El Arba des Mesti",
        "prov": "Guelmim-Oued Noun",
        "region": null,
        "latt": "29.26486",
        "longt": "-10.11198",
        "address": "329 Allen BrooksnChristopherport, WV 50169"
    },
    {
        "state": "MA",
        "name": "Tmourhoute",
        "city": "Tmourghout",
        "prov": "Fu00e8s-Meknu00e8s",
        "region": "Taza",
        "latt": "33.896856",
        "longt": "-4.030716",
        "address": "9966 Elizabeth StationnNew Tinaville, MS 63196"
    },
    {
        "state": "MA",
        "name": "Dar Miloud",
        "city": "Settat",
        "prov": "Casablanca-Settat",
        "region": "Settat Province",
        "latt": "32.97336",
        "longt": "-7.61718",
        "address": "6979 Duke CliffnNew Alyssa, NC 90934"
    },
    {
        "state": "MA",
        "name": "Talektaout",
        "city": "Talektaout",
        "prov": "Marrakesh-Safi",
        "region": "Chichaoua",
        "latt": "31.11373",
        "longt": "-9.08902",
        "address": "555 Jennifer Falls Suite 540nJohnsonstad, TN 89068"
    },
    {
        "state": "MA",
        "name": "Douar Ezzaouia",
        "city": "Douar Ezzaouia",
        "prov": "Marrakesh-Safi",
        "region": null,
        "latt": "31.44568",
        "longt": "-9.75472",
        "address": "77681 Edward CrestnRoberttown, WA 77722"
    },
    {
        "state": "MA",
        "name": "Thu00e9u00e2tre Bastyane",
        "city": "Souakene",
        "prov": "Tanger-Tetouan-Al Hoceima",
        "region": "Larache",
        "latt": "35.11891",
        "longt": "-5.95344",
        "address": "6769 Brown Brooks Suite 988nDavidland, NY 04767"
    },
    {
        "state": "MA",
        "name": "Talat-n-Toumlijine",
        "city": "Au00eft Ouchmane",
        "prov": "Bu00e9ni Mellal-Khu00e9nifra",
        "region": "Azilal Province",
        "latt": "31.995779",
        "longt": "-6.964358",
        "address": "4245 Green Junction Apt. 360nSouth Larry, SC 56022"
    },
    {
        "state": "MA",
        "name": "Douar Azib El Harnra",
        "city": "Douar Azib El Harnra",
        "prov": "Fu00e8s-Meknu00e8s",
        "region": null,
        "latt": "34.12691",
        "longt": "-5.38465",
        "address": "7243 Jarvis ExpresswaynSouth Zachary, MA 12261"
    },
    {
        "state": "MA",
        "name": "Douar Azib El Harnra",
        "city": "Douar Azib El Harnra",
        "prov": "Fu00e8s-Meknu00e8s",
        "region": null,
        "latt": "34.12691",
        "longt": "-5.38465",
        "address": "623 James Dam Suite 981nEast Darrylland, DC 44791"
    },
    {
        "state": "MA",
        "name": "Irhzer nu2019 Tamkadout",
        "city": "Aderar",
        "prov": "Marrakesh-Safi",
        "region": null,
        "latt": "30.88752",
        "longt": "-9.35187",
        "address": "34345 Daniel Club Apt. 419nNorth Stephanie, OH 29395"
    },
    {
        "state": "MA",
        "name": "Derb Dayma",
        "city": "Derb Dayma",
        "prov": "Souss-Massa",
        "region": null,
        "latt": "30.2083",
        "longt": "-9.36161",
        "address": "515 Edward RunnEast Caitlinton, PA 92905"
    },
    {
        "state": "MA",
        "name": "Beni Hassani",
        "city": "Lbrahil",
        "prov": "Fu00e8s-Meknu00e8s",
        "region": null,
        "latt": "33.46295",
        "longt": "-4.02635",
        "address": "1426 Sandra MotorwaynChaseport, CA 31769"
    },
    {
        "state": "MA",
        "name": "Tanoumiy",
        "city": "Tanoumiy",
        "prov": "Souss-Massa",
        "region": "Taroudannt",
        "latt": "30.19669",
        "longt": "-8.2839",
        "address": "Unit 6931 Box 4250nDPO AP 76144"
    },
    {
        "state": "MA",
        "name": "Mtayyet Boujniya",
        "city": "Hraksa",
        "prov": "Tanger-Tetouan-Al Hoceima",
        "region": "Larache",
        "latt": "35.01028",
        "longt": "-6.13503",
        "address": "5988 Hatfield Locks Apt. 385nLake Jesse, MN 48825"
    },
    {
        "state": "MA",
        "name": "Talat-n-Toumlijine",
        "city": "Au00eft Ouchmane",
        "prov": "Bu00e9ni Mellal-Khu00e9nifra",
        "region": "Azilal Province",
        "latt": "31.995779",
        "longt": "-6.964358",
        "address": "USNV FoxnFPO AP 15714"
    },
    {
        "state": "MA",
        "name": "Ayt Lahsene ou Su2019aid",
        "city": "Ayt Lahsene ou S'aid",
        "prov": "Marrakesh-Safi",
        "region": null,
        "latt": "31.48128",
        "longt": "-7.7732",
        "address": "29687 Gonzalez GrovesnBrianbury, WI 54812"
    },
    {
        "state": "MA",
        "name": "Arharm",
        "city": "Sarij",
        "prov": "Fu00e8s-Meknu00e8s",
        "region": "Boulemane",
        "latt": "33.512099",
        "longt": "-4.337107",
        "address": "1527 White CornersnLake Todd, OH 02364"
    },
    {
        "state": "MA",
        "name": "Koudyet Sernou",
        "city": "Oulad Abdelmaoula",
        "prov": "Marrakesh-Safi",
        "region": "Safi",
        "latt": "32.368115",
        "longt": "-9.049093",
        "address": "3192 Crystal CrossingnHollyberg, CT 48001"
    },
    {
        "state": "MA",
        "name": "Gaour",
        "city": "Gaour",
        "prov": "Guelmim-Oued Noun",
        "region": "Tiznit",
        "latt": "29.42081",
        "longt": "-9.27792",
        "address": "86236 Kimberly Spurs Suite 201nSouth Jeanetteburgh, AR 29587"
    },
    {
        "state": "MA",
        "name": "Bir-Cheham",
        "city": "Bir-Cheham",
        "prov": "Marrakesh-Safi",
        "region": null,
        "latt": "31.8432",
        "longt": "-8.46491",
        "address": "538 Shane Glens Suite 820nEast Jenniferton, KY 30745"
    },
    {
        "state": "MA",
        "name": "Agouni",
        "city": "Agouni",
        "prov": "Souss-Massa",
        "region": null,
        "latt": "30.56286",
        "longt": "-9.66376",
        "address": "723 Benjamin Ranch Suite 466nAlicetown, OR 83072"
    },
    {
        "state": "MA",
        "name": "Lmarkaz",
        "city": "Zehazeha Dehimnat",
        "prov": "Marrakesh-Safi",
        "region": "Safi",
        "latt": "32.47921",
        "longt": "-8.80458",
        "address": "279 Ryan Landing Suite 274nMcneilfurt, MS 08197"
    },
    {
        "state": "MA",
        "name": "Oued Metroh",
        "city": "Tarhilasset",
        "prov": "Oriental",
        "region": null,
        "latt": "34.36288",
        "longt": "-2.43106",
        "address": "66239 Joyce PinenNew Justinberg, WI 56272"
    },
    {
        "state": "MA",
        "name": "Jbel Ahrarad",
        "city": "Jmedrane",
        "prov": "Tanger-Tetouan-Al Hoceima",
        "region": "Chefchaouen Province",
        "latt": "35.214641",
        "longt": "-4.791272",
        "address": "31010 Angela Junction Apt. 436nNicholaston, NJ 72218"
    },
    {
        "state": "MA",
        "name": "Cercle de Taddart",
        "city": "Oulad el Haj",
        "prov": "Fu00e8s-Meknu00e8s",
        "region": "Taza",
        "latt": "34.244409",
        "longt": "-3.699839",
        "address": "7108 Bryan Wall Suite 005nWest Michelle, GA 40263"
    },
    {
        "state": "MA",
        "name": "Jebel Ouirarassene",
        "city": "Tahmajjout",
        "prov": "Dru00e2a-Tafilalet",
        "region": null,
        "latt": "32.25",
        "longt": "-5.03",
        "address": "9657 Avila Walks Apt. 510nJosephstad, NE 66016"
    },
    {
        "state": "MA",
        "name": "Oued Byar Ezznouja",
        "city": "Douar Cherarka",
        "prov": "Marrakesh-Safi",
        "region": "Kelaa-Des-Sraghna",
        "latt": "32.327942",
        "longt": "-8.243058",
        "address": "3845 Jessica Valleys Suite 361nNorth Angelaland, NH 17069"
    },
    {
        "state": "MA",
        "name": "Oued Byar Ezznouja",
        "city": "Douar Cherarka",
        "prov": "Marrakesh-Safi",
        "region": "Kelaa-Des-Sraghna",
        "latt": "32.327942",
        "longt": "-8.243058",
        "address": "837 Karen LakesnRobertchester, AL 59381"
    },
    {
        "state": "MA",
        "name": "El Rdira",
        "city": "Hal Sous",
        "prov": "Bu00e9ni Mellal-Khu00e9nifra",
        "region": "Khouribga Province",
        "latt": "32.77143",
        "longt": "-6.52236",
        "address": "238 Porter Fall Suite 729nRosetown, CO 72829"
    },
    {
        "state": "MA",
        "name": "Id Ouasrad",
        "city": "Id Ouasrad",
        "prov": "Marrakesh-Safi",
        "region": "Essaouira",
        "latt": "31.08084",
        "longt": "-9.75312",
        "address": "8054 Shelly Centers Apt. 725nWest Julie, VT 02792"
    },
    {
        "state": "MA",
        "name": "Sidi Ali Ou Sebbah",
        "city": "Iherrouchene",
        "prov": "Fu00e8s-Meknu00e8s",
        "region": "Taza",
        "latt": "34.8",
        "longt": "-4",
        "address": "8643 Kelsey TunnelnNew Malik, IN 51641"
    },
    {
        "state": "MA",
        "name": "Anndouss",
        "city": "Anndouss",
        "prov": "Souss-Massa",
        "region": "Taroudannt",
        "latt": "31.01891",
        "longt": "-7.81121",
        "address": "32720 Jeremy Stravenue Apt. 105nNorth Miranda, NH 57037"
    },
    {
        "state": "MA",
        "name": "Hayt Llirma",
        "city": "Douar Ben Aqcat",
        "prov": "Fu00e8s-Meknu00e8s",
        "region": "Taounate",
        "latt": "34.111142",
        "longt": "-4.621417",
        "address": "1448 Keith Walk Apt. 533nWilliamshaven, MT 97348"
    },
    {
        "state": "MA",
        "name": "Oued Ahmmar",
        "city": "Boukhalef",
        "prov": "Tanger-Tetouan-Al Hoceima",
        "region": "Tanger-Assilah",
        "latt": "35.741355",
        "longt": "-5.895662",
        "address": "2997 Randy Walks Suite 425nJanetburgh, ID 11772"
    },
    {
        "state": "MA",
        "name": "Asif Iougo",
        "city": "Irhilane",
        "prov": "Souss-Massa",
        "region": "Taroudannt",
        "latt": "30.360459",
        "longt": "-8.855246",
        "address": "583 Scott Fords Suite 616nLovebury, MI 88590"
    },
    {
        "state": "MA",
        "name": "Douar Fahoudene",
        "city": "Douar Fahoudene",
        "prov": "Tanger-Tetouan-Al Hoceima",
        "region": "Al-Hoceima",
        "latt": "35.091026",
        "longt": "-4.035791",
        "address": "17152 James WellnDavisstad, OK 23086"
    },
    {
        "state": "MA",
        "name": "Ouiedh",
        "city": "Taferdoust",
        "prov": "Fu00e8s-Meknu00e8s",
        "region": "Boulemane",
        "latt": "33.44521",
        "longt": "-4.61363",
        "address": "68233 Russell LakenJohnsonfurt, IL 84509"
    },
    {
        "state": "MA",
        "name": "Cheker Allah",
        "city": "Au00eft Haddou",
        "prov": "Fu00e8s-Meknu00e8s",
        "region": null,
        "latt": "33.191327",
        "longt": "-5.100009",
        "address": "2151 Brian BrooknNew Rosstown, AZ 18514"
    },
    {
        "state": "MA",
        "name": "Afress",
        "city": "Afress",
        "prov": "Fu00e8s-Meknu00e8s",
        "region": "Taounate",
        "latt": "34.69081",
        "longt": "-4.24563",
        "address": "USNV ClarkenFPO AP 77052"
    },
    {
        "state": "MA",
        "name": "Douar Ain Driss",
        "city": "Douar Ain Driss",
        "prov": "Fu00e8s-Meknu00e8s",
        "region": null,
        "latt": "34.14173",
        "longt": "-4.41325",
        "address": "619 Katherine Junction Suite 617nSouth Edward, AR 82405"
    },
    {
        "state": "MA",
        "name": "Au00eft Boukha",
        "city": "Ait Boukha",
        "prov": "Guelmim-Oued Noun",
        "region": null,
        "latt": "28.95",
        "longt": "-9.93",
        "address": "03692 Walsh UnionnLake Julie, MI 83633"
    },
    {
        "state": "MA",
        "name": "Douar Au00eft Oussa",
        "city": "Douar Ait Oussa",
        "prov": "Rabat-Salu00e9-Ku00e9nitra",
        "region": null,
        "latt": "34.27174",
        "longt": "-5.7543",
        "address": "3110 Crosby TunnelnCarolinestad, NV 40568"
    },
    {
        "state": "MA",
        "name": "Iglu012bm u0100safu012b",
        "city": "Frindat",
        "prov": "Marrakesh-Safi",
        "region": "Safi",
        "latt": "32.252858",
        "longt": "-9.020541",
        "address": "PSC 4177, Box 6584nAPO AA 55081"
    },
    {
        "state": "MA",
        "name": "Hayt Llirma",
        "city": "Douar Ben Aqcat",
        "prov": "Fu00e8s-Meknu00e8s",
        "region": "Taounate",
        "latt": "34.111142",
        "longt": "-4.621417",
        "address": "PSC 0000, Box 6313nAPO AE 06993"
    },
    {
        "state": "MA",
        "name": "Chaabat Lbassila",
        "city": "Oulad Sidi Mohand",
        "prov": "Oriental",
        "region": "Jerada",
        "latt": "34.584942",
        "longt": "-1.835261",
        "address": "PSC 6119, Box 2547nAPO AE 06754"
    },
    {
        "state": "MA",
        "name": "Iglis",
        "city": "Timslite",
        "prov": "Souss-Massa",
        "region": "Tiznit",
        "latt": "29.82403",
        "longt": "-9.80094",
        "address": "26367 Phillip CenternLake Jack, SD 51679"
    },
    {
        "state": "MA",
        "name": "Izilane",
        "city": "Chefchaouene",
        "prov": "Tanger-Tetouan-Al Hoceima",
        "region": "Chefchaouen Province",
        "latt": "35.17645",
        "longt": "-5.1989",
        "address": "7133 Rebecca UnionsnWilliamtown, WI 26518"
    },
    {
        "state": "MA",
        "name": "Azaggagh",
        "city": "Tisnassamine",
        "prov": "Souss-Massa",
        "region": "Tata",
        "latt": "30.02475",
        "longt": "-7.78255",
        "address": "8749 Gregory SquarenGouldhaven, SD 89816"
    },
    {
        "state": "MA",
        "name": "Sidi Mokhfi",
        "city": "Rhir Melloud",
        "prov": "Fu00e8s-Meknu00e8s",
        "region": "Taounate",
        "latt": "34.65198",
        "longt": "-4.79925",
        "address": "23048 Ariel Plaza Suite 445nNicholasville, DE 69067"
    },
    {
        "state": "MA",
        "name": "Lmarkaz",
        "city": "Zehazeha Dehimnat",
        "prov": "Marrakesh-Safi",
        "region": "Safi",
        "latt": "32.47921",
        "longt": "-8.80458",
        "address": "85222 Benjamin StreetnLake Kathrynchester, KY 49413"
    },
    {
        "state": "MA",
        "name": "Tamert",
        "city": "Cooperative Ennasr",
        "prov": "Oriental",
        "region": "Berkane",
        "latt": "34.91311",
        "longt": "-2.53002",
        "address": "8760 Graves StreetnLake Laura, WY 92259"
    },
    {
        "state": "MA",
        "name": "Hjar Laaroussa",
        "city": "Tetouan",
        "prov": "Tanger-Tetouan-Al Hoceima",
        "region": null,
        "latt": "35.59886",
        "longt": "-5.34031",
        "address": "Unit 6787 Box 1262nDPO AE 80129"
    },
    {
        "state": "MA",
        "name": "Irhzer nu2019 Tamkadout",
        "city": "Aderar",
        "prov": "Marrakesh-Safi",
        "region": null,
        "latt": "30.88752",
        "longt": "-9.35187",
        "address": "30083 Patel Bypass Apt. 230nLake Evanside, GA 76957"
    },
    {
        "state": "MA",
        "name": "Ru00efo Aulai",
        "city": "Taourda",
        "prov": "Fu00e8s-Meknu00e8s",
        "region": "Taounate",
        "latt": "34.553127",
        "longt": "-4.949036",
        "address": "57598 Lawson SpurnRomerobury, TN 17968"
    },
    {
        "state": "MA",
        "name": "Lerjam",
        "city": "Ait Abbou",
        "prov": "Fu00e8s-Meknu00e8s",
        "region": "El-Hajeb",
        "latt": "33.73",
        "longt": "-5.23",
        "address": "0076 Dominguez MillsnJensenview, NH 62683"
    },
    {
        "state": "MA",
        "name": "Dar Miloud",
        "city": "Settat",
        "prov": "Casablanca-Settat",
        "region": "Settat Province",
        "latt": "32.97336",
        "longt": "-7.61718",
        "address": "7193 Williams SquarenMartinezhaven, LA 52631"
    },
    {
        "state": "MA",
        "name": "Touirza",
        "city": "Ait Hmad",
        "prov": "Rabat-Salu00e9-Ku00e9nitra",
        "region": "Khemisset",
        "latt": "33.7274",
        "longt": "-5.98797",
        "address": "55081 William Bridge Suite 743nSouth Vanessa, VT 85696"
    },
    {
        "state": "MA",
        "name": "Iferras",
        "city": "Iferras",
        "prov": "Marrakesh-Safi",
        "region": "Chichaoua",
        "latt": "31.14116",
        "longt": "-8.60422",
        "address": "78715 Sharp Unions Suite 262nNavarroberg, WI 73064"
    },
    {
        "state": "MA",
        "name": "Slalat",
        "city": "Jbel Lahbib",
        "prov": "Tanger-Tetouan-Al Hoceima",
        "region": "Tetouan",
        "latt": "35.4625",
        "longt": "-5.81153",
        "address": "015 Kimberly Greens Suite 158nNew Lindseyview, CT 84428"
    },
    {
        "state": "MA",
        "name": "Irhzer nu2019 Tamkadout",
        "city": "Aderar",
        "prov": "Marrakesh-Safi",
        "region": null,
        "latt": "30.88752",
        "longt": "-9.35187",
        "address": "72854 Hoover Mountains Suite 066nHermanfort, MN 37630"
    },
    {
        "state": "MA",
        "name": "Jadmiene",
        "city": "Nador",
        "prov": "Oriental",
        "region": "Nador",
        "latt": "35.2211",
        "longt": "-2.96755",
        "address": "35034 Jones Spur Suite 509nCrawfordside, NY 68482"
    },
    {
        "state": "MA",
        "name": "Toubdirt",
        "city": "Toubdirt",
        "prov": "Bu00e9ni Mellal-Khu00e9nifra",
        "region": "Kelaa-Des-Sraghna",
        "latt": "31.73165",
        "longt": "-7.19652",
        "address": "138 Heather GardennMatthewside, NV 84387"
    },
    {
        "state": "MA",
        "name": "Slalat",
        "city": "Jbel Lahbib",
        "prov": "Tanger-Tetouan-Al Hoceima",
        "region": "Tetouan",
        "latt": "35.4625",
        "longt": "-5.81153",
        "address": "60726 Mendez RivernLake Ian, VT 11170"
    },
    {
        "state": "MA",
        "name": "Amazr Ougrour",
        "city": "Tsigui",
        "prov": "Souss-Massa",
        "region": "Taroudannt",
        "latt": "30.68439",
        "longt": "-8.7916",
        "address": "8904 Holly Mountain Suite 238nNorth Emilyhaven, TN 87442"
    },
    {
        "state": "MA",
        "name": "Oulad Sau00efd",
        "city": "Oulad Said",
        "prov": "Casablanca-Settat",
        "region": null,
        "latt": "33.04825",
        "longt": "-8.68042",
        "address": "994 Robertson Gateway Apt. 244nCaldwellville, LA 28913"
    },
    {
        "state": "MA",
        "name": "Sidi Mohamedi",
        "city": "Midar",
        "prov": "Oriental",
        "region": "Nador",
        "latt": "34.98",
        "longt": "-3.58",
        "address": "386 Mckinney Crescent Suite 502nNorth Danaland, NE 90694"
    },
    {
        "state": "MA",
        "name": "Lerjam",
        "city": "Ait Abbou",
        "prov": "Fu00e8s-Meknu00e8s",
        "region": "El-Hajeb",
        "latt": "33.73",
        "longt": "-5.23",
        "address": "1147 Scott Gardens Apt. 019nMoranville, IN 05830"
    },
    {
        "state": "MA",
        "name": "Izilane",
        "city": "Chefchaouene",
        "prov": "Tanger-Tetouan-Al Hoceima",
        "region": "Chefchaouen Province",
        "latt": "35.17645",
        "longt": "-5.1989",
        "address": "27259 Nicholas CirclesnNew Melissa, NE 46267"
    },
    {
        "state": "MA",
        "name": "Oulad el Azri",
        "city": "Oulad el Azri",
        "prov": "Fu00e8s-Meknu00e8s",
        "region": null,
        "latt": "34.35172",
        "longt": "-4.84096",
        "address": "83000 Jacob BridgenNorth Sarahville, MO 19955"
    },
    {
        "state": "MA",
        "name": "Amghas",
        "city": "Ait Ouwa'ziz",
        "prov": "Fu00e8s-Meknu00e8s",
        "region": "Ifrane",
        "latt": "33.39426",
        "longt": "-5.4446",
        "address": "816 Teresa PlacenAnthonychester, MA 51375"
    },