[
    {
        "state": "IS",
        "name": "Efraholt",
        "city": "Asolfsskali",
        "prov": "South",
        "region": "Rangu00e1ru00feing Eystra",
        "latt": "63.55559",
        "longt": "-19.8971",
        "address": "5491 Jacob LightnPort Scottburgh, TN 42362"
    },
    {
        "state": "IS",
        "name": "Ku00e1lfafellsstau00f0ur",
        "city": "Kalfafellsstadur",
        "prov": "East",
        "region": "Sveitarfu00e9lagiu00f0 Hornafju00f6ru00f0ur",
        "latt": "64.18105",
        "longt": "-15.91391",
        "address": "54615 Eddie Roads Apt. 584nCollinsstad, NC 81559"
    },
    {
        "state": "IS",
        "name": "Stykkishu00f3lmsbu00e6r",
        "city": "Stykkisholmur",
        "prov": "West",
        "region": "Stykkishu00f3lmsbu00e6r",
        "latt": "65.05368",
        "longt": "-22.77178",
        "address": "967 Lindsay PortsnAdamston, LA 52566"
    },
    {
        "state": "IS",
        "name": "Eyrarland",
        "city": "Akureyri",
        "prov": "Northeast",
        "region": "Eyjafjaru00f0arsveit",
        "latt": "65.66038",
        "longt": "-18.02783",
        "address": "38786 Henderson PikenSouth Jacqueline, OK 63413"
    },
    {
        "state": "IS",
        "name": "Rauu00f0sgil",
        "city": "u00c1s",
        "prov": "West",
        "region": "Borgarbyggu00f0",
        "latt": "64.65407",
        "longt": "-21.21569",
        "address": "3813 Chelsea PathnEast Melissa, DC 45354"
    },
    {
        "state": "IS",
        "name": "Sundabakki",
        "city": "Reykjavik",
        "prov": "Capital Region",
        "region": "Reykjavu00edkurborg",
        "latt": "64.15556",
        "longt": "-21.84167",
        "address": "4041 Lewis PinenSarahport, LA 70041"
    },
    {
        "state": "IS",
        "name": "Pu00f3sturinn, Grundargu00f6tu 38",
        "city": "Grundarfjoerdur",
        "prov": "West",
        "region": "Grundarfjaru00f0arbu00e6r",
        "latt": "64.92529",
        "longt": "-23.26006",
        "address": "8089 Reese LocksnPort Kari, HI 61411"
    },
    {
        "state": "IS",
        "name": "Svaru00feamrar",
        "city": "Starmyri",
        "prov": "East",
        "region": "Dju00fapavogshreppur",
        "latt": "64.49908",
        "longt": "-14.56791",
        "address": "44421 Young Causeway Apt. 998nSouth Christine, MD 45679"
    },
    {
        "state": "IS",
        "name": "u00cdpishu00f3ll",
        "city": "Varmahlid",
        "prov": "Northwest",
        "region": "Sveitarfu00e9lagiu00f0 Skagafju00f6ru00f0ur",
        "latt": "65.55",
        "longt": "-19.5",
        "address": "5639 Ruben Throughway Suite 702nWest Melissaview, ID 72398"
    },
    {
        "state": "IS",
        "name": "Golfklu00fabburinn Setberg",
        "city": "Hafnarfjoerdur",
        "prov": "Capital Region",
        "region": "Garu00f0abu00e6r",
        "latt": "64.06825",
        "longt": "-21.9255",
        "address": "2598 Savannah Prairie Apt. 161nWest Danielborough, WI 90571"
    },
    {
        "state": "IS",
        "name": "Streiti",
        "city": "Breiu00f0dalsvu00edk",
        "prov": "East",
        "region": "Breiu00f0dalshreppur",
        "latt": "64.72319",
        "longt": "-14.03631",
        "address": "8213 Traci SquarenTheresastad, AR 40898"
    },
    {
        "state": "IS",
        "name": "Rauu00f0sgil",
        "city": "u00c1s",
        "prov": "West",
        "region": "Borgarbyggu00f0",
        "latt": "64.65407",
        "longt": "-21.21569",
        "address": "072 Arnold Rapids Suite 126nNew Shelley, OH 30386"
    },
    {
        "state": "IS",
        "name": "Su00f6lvabakki",
        "city": "Bloenduos",
        "prov": "Northwest",
        "region": "Blu00f6nduu00f3sbu00e6r",
        "latt": "65.7082",
        "longt": "-20.27453",
        "address": "7102 Destiny RuenAmymouth, MT 97081"
    },
    {
        "state": "IS",
        "name": "Fremra-Selvatn",
        "city": "Vatnsfjordhur",
        "prov": "Westfjords",
        "region": "Su00fau00f0avu00edkurhreppur",
        "latt": "65.86689",
        "longt": "-22.57388",
        "address": "283 Crawford Key Suite 349nCantrellton, AK 96333"
    },
    {
        "state": "IS",
        "name": "Landabou00f0i",
        "city": "Stoedvarfjoerdur",
        "prov": "East",
        "region": "Fjaru00f0abyggu00f0",
        "latt": "64.82278",
        "longt": "-13.83056",
        "address": "94956 Charles ForksnLake Jennifer, MO 96044"
    },
    {
        "state": "IS",
        "name": "Sundabakki",
        "city": "Reykjavik",
        "prov": "Capital Region",
        "region": "Reykjavu00edkurborg",
        "latt": "64.15556",
        "longt": "-21.84167",
        "address": "96680 John ManornMendozaberg, AK 43820"
    },
    {
        "state": "IS",
        "name": "Eyrarland",
        "city": "Akureyri",
        "prov": "Northeast",
        "region": "Eyjafjaru00f0arsveit",
        "latt": "65.66038",
        "longt": "-18.02783",
        "address": "352 Oconnor ForestnHannahville, NM 17547"
    },
    {
        "state": "IS",
        "name": "Heiu00f0i",
        "city": "Kirkjubu00e6jarklaustur",
        "prov": "South",
        "region": "Skaftu00e1rhreppur",
        "latt": "63.76782",
        "longt": "-18.15166",
        "address": "5010 Mann Harbors Apt. 954nAtkinsview, ND 93974"
    },
    {
        "state": "IS",
        "name": "Eyrarland",
        "city": "Akureyri",
        "prov": "Northeast",
        "region": "Eyjafjaru00f0arsveit",
        "latt": "65.66038",
        "longt": "-18.02783",
        "address": "18221 Nelson RoadsnSouth Jasonfort, VA 86898"
    },
    {
        "state": "IS",
        "name": "Rauu00f0sgil",
        "city": "u00c1s",
        "prov": "West",
        "region": "Borgarbyggu00f0",
        "latt": "64.65407",
        "longt": "-21.21569",
        "address": "2199 Donna ShorenSouth Cynthia, ME 23637"
    },
    {
        "state": "IS",
        "name": "Syu00f0stibu00e6r",
        "city": "Hrisey",
        "prov": "Northeast",
        "region": "Akureyrarkaupstau00f0ur",
        "latt": "65.97788",
        "longt": "-18.36717",
        "address": "Unit 3881 Box 5490nDPO AP 54288"
    },
    {
        "state": "IS",
        "name": "Eyrarland",
        "city": "Akureyri",
        "prov": "Northeast",
        "region": "Eyjafjaru00f0arsveit",
        "latt": "65.66038",
        "longt": "-18.02783",
        "address": "4511 Howard Vista Suite 695nSouth Elizabeth, MS 83395"
    },
    {
        "state": "IS",
        "name": "Hu00f3lmavu00edk Airport",
        "city": "Holmavik",
        "prov": "Westfjords",
        "region": "Strandabyggu00f0",
        "latt": "65.7047",
        "longt": "-21.6964",
        "address": "85327 Harris Corners Apt. 734nAbbottshire, NY 72703"
    },
    {
        "state": "IS",
        "name": "Rauu00f0sgil",
        "city": "u00c1s",
        "prov": "West",
        "region": "Borgarbyggu00f0",
        "latt": "64.65407",
        "longt": "-21.21569",
        "address": "499 Snow Station Suite 573nPort Vincent, SC 75720"
    },
    {
        "state": "IS",
        "name": "Heiu00f0i",
        "city": "Kirkjubu00e6jarklaustur",
        "prov": "South",
        "region": "Skaftu00e1rhreppur",
        "latt": "63.76782",
        "longt": "-18.15166",
        "address": "5139 Miller CovenJessehaven, LA 57157"
    },
    {
        "state": "IS",
        "name": "Uppsalau00e1",
        "city": "Egilsstadir",
        "prov": "East",
        "region": "Flju00f3tsdalshu00e9rau00f0",
        "latt": "65.26667",
        "longt": "-14.38333",
        "address": "6875 Luke FordnJohnland, MD 06467"
    },
    {
        "state": "IS",
        "name": "Oddalu00f6nd",
        "city": "Skalafell",
        "prov": "East",
        "region": "Sveitarfu00e9lagiu00f0 Hornafju00f6ru00f0ur",
        "latt": "64.2325",
        "longt": "-15.57975",
        "address": "07085 Stevenson Light Apt. 915nEast Kevinview, SC 29884"
    },
    {
        "state": "IS",
        "name": "Golfklu00fabburinn Setberg",
        "city": "Hafnarfjoerdur",
        "prov": "Capital Region",
        "region": "Garu00f0abu00e6r",
        "latt": "64.06825",
        "longt": "-21.9255",
        "address": "494 Alexis LodgenAnaview, CA 62280"
    },
    {
        "state": "IS",
        "name": "Heiu00f0i",
        "city": "Kirkjubu00e6jarklaustur",
        "prov": "South",
        "region": "Skaftu00e1rhreppur",
        "latt": "63.76782",
        "longt": "-18.15166",
        "address": "USCGC MercadonFPO AP 93485"
    },
    {
        "state": "IS",
        "name": "Golfklu00fabburinn Setberg",
        "city": "Hafnarfjoerdur",
        "prov": "Capital Region",
        "region": "Garu00f0abu00e6r",
        "latt": "64.06825",
        "longt": "-21.9255",
        "address": "128 Abigail StationnPatrickshire, VT 89175"
    },
    {
        "state": "IS",
        "name": "Streiti",
        "city": "Breiu00f0dalsvu00edk",
        "prov": "East",
        "region": "Breiu00f0dalshreppur",
        "latt": "64.72319",
        "longt": "-14.03631",
        "address": "6402 Robert Circle Suite 656nPort Patricia, DC 99813"
    },
    {
        "state": "IS",
        "name": "Patreksfjordhur",
        "city": "Patreksfju00f6ru00f0ur",
        "prov": "Westfjords",
        "region": "Vesturbyggu00f0",
        "latt": "65.598665",
        "longt": "-23.994392",
        "address": "934 Stone Port Suite 466nSouth Charles, WY 99419"
    },
    {
        "state": "IS",
        "name": "Svaru00feamrar",
        "city": "Starmyri",
        "prov": "East",
        "region": "Dju00fapavogshreppur",
        "latt": "64.49908",
        "longt": "-14.56791",
        "address": "048 Dawn Roads Suite 013nPort Raymond, RI 72479"
    },
    {
        "state": "IS",
        "name": "Pu00f3sturinn, Grundargu00f6tu 38",
        "city": "Grundarfjoerdur",
        "prov": "West",
        "region": "Grundarfjaru00f0arbu00e6r",
        "latt": "64.92529",
        "longt": "-23.26006",
        "address": "38168 Garza PlainnSouth Davidshire, NC 70257"
    },
    {
        "state": "IS",
        "name": "Karlsstau00f0atangi",
        "city": "Djupivogur",
        "prov": "East",
        "region": "Dju00fapavogshreppur",
        "latt": "64.69167",
        "longt": "-14.25278",
        "address": "1823 Rodriguez Forks Suite 000nPort Brucefort, WI 51289"
    },
    {
        "state": "IS",
        "name": "Su00f6lvabakki",
        "city": "Bloenduos",
        "prov": "Northwest",
        "region": "Blu00f6nduu00f3sbu00e6r",
        "latt": "65.7082",
        "longt": "-20.27453",
        "address": "USNS SpearsnFPO AE 07238"
    },
    {
        "state": "IS",
        "name": "u00cdpishu00f3ll",
        "city": "Varmahlid",
        "prov": "Northwest",
        "region": "Sveitarfu00e9lagiu00f0 Skagafju00f6ru00f0ur",
        "latt": "65.55",
        "longt": "-19.5",
        "address": "794 Sandra LandingnEast Heather, CT 65330"
    },
    {
        "state": "IS",
        "name": "u00deru00e6lageru00f0i",
        "city": "Vidhirholl",
        "prov": "Northeast",
        "region": "Noru00f0uru00feing",
        "latt": "65.69528",
        "longt": "-16.07084",
        "address": "9956 Sanchez LakenLake Jerryfort, MD 66125"
    },
    {
        "state": "IS",
        "name": "Hornafjaru00f0aru00f3s",
        "city": "Hoefn",
        "prov": "East",
        "region": "Sveitarfu00e9lagiu00f0 Hornafju00f6ru00f0ur",
        "latt": "64.23252",
        "longt": "-15.1882",
        "address": "Unit 1794 Box 8741nDPO AE 33826"
    },
    {
        "state": "IS",
        "name": "Ytri-Bjarghu00f3ll",
        "city": "Reykjahlu00edu00f0",
        "prov": "Northeast",
        "region": "Sku00fatustau00f0ahreppur",
        "latt": "65.70968",
        "longt": "-16.87271",
        "address": "661 Erica GardennLake Ashleystad, PA 25229"
    },
    {
        "state": "IS",
        "name": "Ytri-Bjarghu00f3ll",
        "city": "Reykjahlu00edu00f0",
        "prov": "Northeast",
        "region": "Sku00fatustau00f0ahreppur",
        "latt": "65.70968",
        "longt": "-16.87271",
        "address": "354 Brian MissionnPort Laurastad, TX 13781"
    },
    {
        "state": "IS",
        "name": "Eyrarland",
        "city": "Akureyri",
        "prov": "Northeast",
        "region": "Eyjafjaru00f0arsveit",
        "latt": "65.66038",
        "longt": "-18.02783",
        "address": "8927 Terry Burg Suite 099nJosephland, NE 99773"
    },
    {
        "state": "IS",
        "name": "Sundabakki",
        "city": "Reykjavik",
        "prov": "Capital Region",
        "region": "Reykjavu00edkurborg",
        "latt": "64.15556",
        "longt": "-21.84167",
        "address": "804 Martinez Circle Suite 466nEast Danny, CT 31086"
    },
    {
        "state": "IS",
        "name": "Lu00f3nafju00f6ru00f0ur",
        "city": "THorshoefn",
        "prov": "Northeast",
        "region": "Langanesbyggu00f0",
        "latt": "66.17393",
        "longt": "-15.39251",
        "address": "783 Keith Forks Apt. 830nNew Melanieshire, KS 51145"
    },
    {
        "state": "IS",
        "name": "Heiu00f0ardalur",
        "city": "Vik i Myrdal",
        "prov": "South",
        "region": "Mu00fdrdalshreppur",
        "latt": "63.46724",
        "longt": "-19.00146",
        "address": "212 Brown Gardens Suite 657nEast Lukeland, CA 22165"
    },
    {
        "state": "IS",
        "name": "Su00f6lvabakki",
        "city": "Bloenduos",
        "prov": "Northwest",
        "region": "Blu00f6nduu00f3sbu00e6r",
        "latt": "65.7082",
        "longt": "-20.27453",
        "address": "4544 Palmer MissionnTimothymouth, HI 10111"
    },
    {
        "state": "IS",
        "name": "Rauu00f0sgil",
        "city": "u00c1s",
        "prov": "West",
        "region": "Borgarbyggu00f0",
        "latt": "64.65407",
        "longt": "-21.21569",
        "address": "55919 Christopher Station Apt. 790nBurkestad, MO 55650"
    },
    {
        "state": "IS",
        "name": "u00cdpishu00f3ll",
        "city": "Varmahlid",
        "prov": "Northwest",
        "region": "Sveitarfu00e9lagiu00f0 Skagafju00f6ru00f0ur",
        "latt": "65.55",
        "longt": "-19.5",
        "address": "Unit 8863 Box 1802nDPO AE 76258"
    },
    {
        "state": "IS",
        "name": "Sundabakki",
        "city": "Reykjavik",
        "prov": "Capital Region",
        "region": "Reykjavu00edkurborg",
        "latt": "64.15556",
        "longt": "-21.84167",
        "address": "196 Frazier Square Suite 312nSouth Bridgetport, ME 37791"
    },
    {
        "state": "IS",
        "name": "Su00f6lvabakki",
        "city": "Bloenduos",
        "prov": "Northwest",
        "region": "Blu00f6nduu00f3sbu00e6r",
        "latt": "65.7082",
        "longt": "-20.27453",
        "address": "61839 Kristin Fords Apt. 089nThomaston, HI 03170"
    },
    {
        "state": "IS",
        "name": "Miu00f0fossar",
        "city": "Hvanneyri",
        "prov": "West",
        "region": "Borgarbyggu00f0",
        "latt": "64.54907",
        "longt": "-21.69688",
        "address": "117 Reyes Garden Apt. 369nLeslieland, IN 02042"
    },
    {
        "state": "IS",
        "name": "Sundabakki",
        "city": "Reykjavik",
        "prov": "Capital Region",
        "region": "Reykjavu00edkurborg",
        "latt": "64.15556",
        "longt": "-21.84167",
        "address": "31654 James Dale Suite 509nAndrewchester, WY 57551"
    },
    {
        "state": "IS",
        "name": "Rauu00f0sgil",
        "city": "u00c1s",
        "prov": "West",
        "region": "Borgarbyggu00f0",
        "latt": "64.65407",
        "longt": "-21.21569",
        "address": "3642 Shields PlainsnWest Richardview, MN 86268"
    },
    {
        "state": "IS",
        "name": "Barnasker",
        "city": "Eyja- og Miklaholtshreppur",
        "prov": "West",
        "region": "Eyja- og Miklaholtshreppur",
        "latt": "64.76667",
        "longt": "-22.56667",
        "address": "31598 Patricia Forest Apt. 477nMarksfurt, MN 71934"
    },
    {
        "state": "IS",
        "name": "Sundabakki",
        "city": "Reykjavik",
        "prov": "Capital Region",
        "region": "Reykjavu00edkurborg",
        "latt": "64.15556",
        "longt": "-21.84167",
        "address": "USS LopeznFPO AE 47771"
    },
    {
        "state": "IS",
        "name": "Lu00f3nafju00f6ru00f0ur",
        "city": "THorshoefn",
        "prov": "Northeast",
        "region": "Langanesbyggu00f0",
        "latt": "66.17393",
        "longt": "-15.39251",
        "address": "488 Michelle VillagenThomasview, NJ 99901"
    },
    {
        "state": "IS",
        "name": "Rauu00f0sgil",
        "city": "u00c1s",
        "prov": "West",
        "region": "Borgarbyggu00f0",
        "latt": "64.65407",
        "longt": "-21.21569",
        "address": "8549 Mendoza PlacenPort Anthonymouth, SC 25711"
    },
    {
        "state": "IS",
        "name": "Hu00f3lmavu00edk Airport",
        "city": "Holmavik",
        "prov": "Westfjords",
        "region": "Strandabyggu00f0",
        "latt": "65.7047",
        "longt": "-21.6964",
        "address": "Unit 4526 Box 5514nDPO AE 40240"
    },
    {
        "state": "IS",
        "name": "Geru00f0isflu00f3i",
        "city": "Valpjofsstau00f0ir",
        "prov": "East",
        "region": "Flju00f3tsdalshreppur",
        "latt": "65.09292",
        "longt": "-15.00708",
        "address": "521 Herrera Mount Suite 515nClarkstad, AZ 20867"
    },
    {
        "state": "IS",
        "name": "Eyrarland",
        "city": "Akureyri",
        "prov": "Northeast",
        "region": "Eyjafjaru00f0arsveit",
        "latt": "65.66038",
        "longt": "-18.02783",
        "address": "251 Reese Road Suite 553nHannahstad, MI 62522"
    },
    {
        "state": "IS",
        "name": "Syu00f0stibu00e6r",
        "city": "Hrisey",
        "prov": "Northeast",
        "region": "Akureyrarkaupstau00f0ur",
        "latt": "65.97788",
        "longt": "-18.36717",
        "address": "07354 Downs IslenDavidberg, MD 42063"
    },
    {
        "state": "IS",
        "name": "Hornafjaru00f0aru00f3s",
        "city": "Hoefn",
        "prov": "East",
        "region": "Sveitarfu00e9lagiu00f0 Hornafju00f6ru00f0ur",
        "latt": "64.23252",
        "longt": "-15.1882",
        "address": "753 Duffy RestnPort Kellyfort, ND 97740"
    },
    {
        "state": "IS",
        "name": "Ku00e1lfafellsstau00f0ur",
        "city": "Kalfafellsstadur",
        "prov": "East",
        "region": "Sveitarfu00e9lagiu00f0 Hornafju00f6ru00f0ur",
        "latt": "64.18105",
        "longt": "-15.91391",
        "address": "94533 Townsend ShoalnPort Allenfort, AK 04382"
    },
    {
        "state": "IS",
        "name": "Hu00f3lmavu00edk Airport",
        "city": "Holmavik",
        "prov": "Westfjords",
        "region": "Strandabyggu00f0",
        "latt": "65.7047",
        "longt": "-21.6964",
        "address": "9226 Morris Point Apt. 016nPort Eugenebury, MO 92840"
    },
    {
        "state": "IS",
        "name": "Dufansdalsu00e1",
        "city": "Bu00edldudalur",
        "prov": "Westfjords",
        "region": "Vesturbyggu00f0",
        "latt": "65.62221",
        "longt": "-23.56141",
        "address": "34900 Jacqueline Isle Suite 407nPort Jessica, VT 12401"
    },
    {
        "state": "IS",
        "name": "Keflavu00edk",
        "city": "Reykjanesbaer",
        "prov": "Southern Peninsula",
        "region": "Reykjanesbu00e6r",
        "latt": "64.00492",
        "longt": "-22.56242",
        "address": "41061 Nicole Points Suite 121nWest Michael, OK 43098"
    },
    {
        "state": "IS",
        "name": "Pu00f3sturinn, Grundargu00f6tu 38",
        "city": "Grundarfjoerdur",
        "prov": "West",
        "region": "Grundarfjaru00f0arbu00e6r",
        "latt": "64.92529",
        "longt": "-23.26006",
        "address": "798 Cooper Mountains Apt. 508nSouth Adamhaven, NY 98398"
    },
    {
        "state": "IS",
        "name": "Efraholt",
        "city": "Asolfsskali",
        "prov": "South",
        "region": "Rangu00e1ru00feing Eystra",
        "latt": "63.55559",
        "longt": "-19.8971",
        "address": "53137 Stephens RoadnStaffordhaven, GA 03004"
    },
    {
        "state": "IS",
        "name": "Rauu00f0sgil",
        "city": "u00c1s",
        "prov": "West",
        "region": "Borgarbyggu00f0",
        "latt": "64.65407",
        "longt": "-21.21569",
        "address": "1980 Riley CirclenLake Andreaport, ID 79967"
    },
    {
        "state": "IS",
        "name": "Ku00e1lfafellsstau00f0ur",
        "city": "Kalfafellsstadur",
        "prov": "East",
        "region": "Sveitarfu00e9lagiu00f0 Hornafju00f6ru00f0ur",
        "latt": "64.18105",
        "longt": "-15.91391",
        "address": "803 Fleming Row Apt. 280nTaylorfurt, ND 01295"
    },
    {
        "state": "IS",
        "name": "Sauu00f0aneshu00e1ls",
        "city": "THorshoefn",
        "prov": "Northeast",
        "region": "Langanesbyggu00f0",
        "latt": "66.20668",
        "longt": "-15.25282",
        "address": "49899 Zhang Curve Suite 545nPort Timothytown, NV 70508"
    },
    {
        "state": "IS",
        "name": "Hu00f3lshu00f6fu00f0i",
        "city": "Raufarhoefn",
        "prov": "Northeast",
        "region": "Noru00f0uru00feing",
        "latt": "66.43247",
        "longt": "-15.92545",
        "address": "82051 Vaughn Glen Suite 893nNew Shannonville, CT 05174"
    },
    {
        "state": "IS",
        "name": "Karlsstau00f0atangi",
        "city": "Djupivogur",
        "prov": "East",
        "region": "Dju00fapavogshreppur",
        "latt": "64.69167",
        "longt": "-14.25278",
        "address": "9815 Dominique RoutenNorth Devinshire, OH 78492"
    },
    {
        "state": "IS",
        "name": "Miu00f0klettur",
        "city": "Vestmannaeyjar",
        "prov": "South",
        "region": "Vestmannaeyjabu00e6r",
        "latt": "63.45282",
        "longt": "-20.25733",
        "address": "723 Thomas CommonnEmmafurt, WV 35604"
    },
    {
        "state": "IS",
        "name": "Streiti",
        "city": "Breiu00f0dalsvu00edk",
        "prov": "East",
        "region": "Breiu00f0dalshreppur",
        "latt": "64.72319",
        "longt": "-14.03631",
        "address": "72677 Christopher CliffnEast Scottchester, KY 42384"
    },
    {
        "state": "IS",
        "name": "Hornafjaru00f0aru00f3s",
        "city": "Hoefn",
        "prov": "East",
        "region": "Sveitarfu00e9lagiu00f0 Hornafju00f6ru00f0ur",
        "latt": "64.23252",
        "longt": "-15.1882",
        "address": "710 Ford Mountains Suite 457nLake Mark, HI 08015"
    },
    {
        "state": "IS",
        "name": "Sundabakki",
        "city": "Reykjavik",
        "prov": "Capital Region",
        "region": "Reykjavu00edkurborg",
        "latt": "64.15556",
        "longt": "-21.84167",
        "address": "07772 Daniel Hill Apt. 300nNorth Bruce, DC 02431"
    },
    {
        "state": "IS",
        "name": "Gru00e6nigaru00f0ur",
        "city": "Isafjoerdur",
        "prov": "Westfjords",
        "region": "u00cdsafjaru00f0arbu00e6r",
        "latt": "66.06932",
        "longt": "-23.15746",
        "address": "7657 Smith FerrynNew Davidtown, ND 26757"
    },
    {
        "state": "IS",
        "name": "Miu00f0klettur",
        "city": "Vestmannaeyjar",
        "prov": "South",
        "region": "Vestmannaeyjabu00e6r",
        "latt": "63.45282",
        "longt": "-20.25733",
        "address": "USNS TuckernFPO AA 95433"
    },
    {
        "state": "IS",
        "name": "Bu00e6jarstau00f0asku00f3gur",
        "city": "Skaftafell",
        "prov": "East",
        "region": "Sveitarfu00e9lagiu00f0 Hornafju00f6ru00f0ur",
        "latt": "64.06242",
        "longt": "-17.02181",
        "address": "10098 Beasley CirclenSouth Samuel, ID 34552"
    },
    {
        "state": "IS",
        "name": "Uppsalau00e1",
        "city": "Egilsstadir",
        "prov": "East",
        "region": "Flju00f3tsdalshu00e9rau00f0",
        "latt": "65.26667",
        "longt": "-14.38333",
        "address": "USS HutchinsonnFPO AE 86313"
    },
    {
        "state": "IS",
        "name": "Miu00f0fossar",
        "city": "Hvanneyri",
        "prov": "West",
        "region": "Borgarbyggu00f0",
        "latt": "64.54907",
        "longt": "-21.69688",
        "address": "645 Miller Route Suite 943nWallaceburgh, TX 02695"
    },
    {
        "state": "IS",
        "name": "Smju00f6rdalur",
        "city": "Flokalundur",
        "prov": "Westfjords",
        "region": "Vesturbyggu00f0",
        "latt": "65.59312",
        "longt": "-23.24462",
        "address": "8806 Courtney Estates Apt. 252nEast John, LA 38105"
    },
    {
        "state": "IS",
        "name": "Miu00f0fossar",
        "city": "Hvanneyri",
        "prov": "West",
        "region": "Borgarbyggu00f0",
        "latt": "64.54907",
        "longt": "-21.69688",
        "address": "780 Terrell Springs Suite 511nMaryville, NY 93952"
    },
    {
        "state": "IS",
        "name": "Flateyrarhreppur",
        "city": "Ingjaldssandur",
        "prov": "Westfjords",
        "region": "u00cdsafjaru00f0arbu00e6r",
        "latt": "66.05",
        "longt": "-23.61667",
        "address": "072 Fernandez PlazanSchmidtshire, PA 09472"
    },
    {
        "state": "IS",
        "name": "Fremra-Selvatn",
        "city": "Vatnsfjordhur",
        "prov": "Westfjords",
        "region": "Su00fau00f0avu00edkurhreppur",
        "latt": "65.86689",
        "longt": "-22.57388",
        "address": "658 Jennifer WellsnSouth Ryan, VA 48764"
    },
    {
        "state": "IS",
        "name": "Geru00f0isflu00f3i",
        "city": "Valpjofsstau00f0ir",
        "prov": "East",
        "region": "Flju00f3tsdalshreppur",
        "latt": "65.09292",
        "longt": "-15.00708",
        "address": "7644 Parrish Way Apt. 465nHamiltonhaven, NE 49060"
    },
    {
        "state": "IS",
        "name": "Patreksfjordhur",
        "city": "Patreksfju00f6ru00f0ur",
        "prov": "Westfjords",
        "region": "Vesturbyggu00f0",
        "latt": "65.598665",
        "longt": "-23.994392",
        "address": "5330 Raven JunctionnJeffreybury, KS 19340"
    },
    {
        "state": "IS",
        "name": "Karlsstau00f0atangi",
        "city": "Djupivogur",
        "prov": "East",
        "region": "Dju00fapavogshreppur",
        "latt": "64.69167",
        "longt": "-14.25278",
        "address": "061 Lee VianEast Claireville, NY 68038"
    },
    {
        "state": "IS",
        "name": "Heiu00f0i",
        "city": "Kirkjubu00e6jarklaustur",
        "prov": "South",
        "region": "Skaftu00e1rhreppur",
        "latt": "63.76782",
        "longt": "-18.15166",
        "address": "5916 Hernandez FortnNorth Jason, IL 67767"
    },
    {
        "state": "IS",
        "name": "Patreksfjordhur",
        "city": "Patreksfju00f6ru00f0ur",
        "prov": "Westfjords",
        "region": "Vesturbyggu00f0",
        "latt": "65.598665",
        "longt": "-23.994392",
        "address": "3773 Deborah UnionnHeidishire, CT 55474"
    },
    {
        "state": "IS",
        "name": "Stykkishu00f3lmsbu00e6r",
        "city": "Stykkisholmur",
        "prov": "West",
        "region": "Stykkishu00f3lmsbu00e6r",
        "latt": "65.05368",
        "longt": "-22.77178",
        "address": "76278 Justin Dam Apt. 153nLake Victorbury, DE 18514"
    },
    {
        "state": "IS",
        "name": "Eyrarland",
        "city": "Akureyri",
        "prov": "Northeast",
        "region": "Eyjafjaru00f0arsveit",
        "latt": "65.66038",
        "longt": "-18.02783",
        "address": "47840 Griffin Ramp Suite 809nTiffanymouth, SC 48012"
    },
    {
        "state": "IS",
        "name": "u00cdpishu00f3ll",
        "city": "Varmahlid",
        "prov": "Northwest",
        "region": "Sveitarfu00e9lagiu00f0 Skagafju00f6ru00f0ur",
        "latt": "65.55",
        "longt": "-19.5",
        "address": "012 Reilly PointnLake Allenmouth, WA 17177"
    },
    {
        "state": "IS",
        "name": "Stykkishu00f3lmsbu00e6r",
        "city": "Stykkisholmur",
        "prov": "West",
        "region": "Stykkishu00f3lmsbu00e6r",
        "latt": "65.05368",
        "longt": "-22.77178",
        "address": "033 Payne Trace Suite 178nElizabethbury, OR 81483"
    },
    {
        "state": "IS",
        "name": "Fremra-Selvatn",
        "city": "Vatnsfjordhur",
        "prov": "Westfjords",
        "region": "Su00fau00f0avu00edkurhreppur",
        "latt": "65.86689",
        "longt": "-22.57388",
        "address": "70852 Patrick MillnBrentside, VA 16938"
    },
    {
        "state": "IS",
        "name": "Hu00f3lmavu00edk Airport",
        "city": "Holmavik",
        "prov": "Westfjords",
        "region": "Strandabyggu00f0",
        "latt": "65.7047",
        "longt": "-21.6964",
        "address": "28332 Elizabeth LightsnWyattchester, MS 30466"
    },
    {
        "state": "IS",
        "name": "Karlsstau00f0atangi",
        "city": "Djupivogur",
        "prov": "East",
        "region": "Dju00fapavogshreppur",
        "latt": "64.69167",
        "longt": "-14.25278",
        "address": "528 Reed Inlet Suite 841nPort Belinda, PA 21003"
    },
    {
        "state": "IS",
        "name": "Flateyrarhreppur",
        "city": "Ingjaldssandur",
        "prov": "Westfjords",
        "region": "u00cdsafjaru00f0arbu00e6r",
        "latt": "66.05",
        "longt": "-23.61667",
        "address": "34236 Mark MallnNorth Miguel, NC 80911"
    },
    {
        "state": "IS",
        "name": "Sundabakki",
        "city": "Reykjavik",
        "prov": "Capital Region",
        "region": "Reykjavu00edkurborg",
        "latt": "64.15556",
        "longt": "-21.84167",
        "address": "761 Jacob CrescentnLake Mark, CA 73666"
    },
    {
        "state": "IS",
        "name": "Keflavu00edk",
        "city": "Reykjanesbaer",
        "prov": "Southern Peninsula",
        "region": "Reykjanesbu00e6r",
        "latt": "64.00492",
        "longt": "-22.56242",
        "address": "448 Ingram ParkwaynJodyfort, AR 66307"
    },
    {
        "state": "IS",
        "name": "Stykkishu00f3lmsbu00e6r",
        "city": "Stykkisholmur",
        "prov": "West",
        "region": "Stykkishu00f3lmsbu00e6r",
        "latt": "65.05368",
        "longt": "-22.77178",
        "address": "8325 Le HillnJohnville, VA 66893"
    },
    {
        "state": "IS",
        "name": "Eyrarland",
        "city": "Akureyri",
        "prov": "Northeast",
        "region": "Eyjafjaru00f0arsveit",
        "latt": "65.66038",
        "longt": "-18.02783",
        "address": "1216 Robles Key Suite 738nSouth Rhonda, WA 21624"
    },
    {
        "state": "IS",
        "name": "Karlsstau00f0atangi",
        "city": "Djupivogur",
        "prov": "East",
        "region": "Dju00fapavogshreppur",
        "latt": "64.69167",
        "longt": "-14.25278",
        "address": "20227 Robinson LandnPort James, MA 19790"
    },
    {
        "state": "IS",
        "name": "Geru00f0isflu00f3i",
        "city": "Valpjofsstau00f0ir",
        "prov": "East",
        "region": "Flju00f3tsdalshreppur",
        "latt": "65.09292",
        "longt": "-15.00708",
        "address": "949 Moss Field Apt. 042nWest Thomas, WA 39374"
    },
    {
        "state": "IS",
        "name": "Miu00f0klettur",
        "city": "Vestmannaeyjar",
        "prov": "South",
        "region": "Vestmannaeyjabu00e6r",
        "latt": "63.45282",
        "longt": "-20.25733",
        "address": "040 David Extensions Apt. 161nDavidshire, NJ 27583"
    },
    {
        "state": "IS",
        "name": "Mu00edgindisdalur",
        "city": "Kopasker",
        "prov": "Northeast",
        "region": "Noru00f0uru00feing",
        "latt": "66.35781",
        "longt": "-16.50027",
        "address": "31003 Smith Crescent Apt. 180nLake Susanton, KY 56518"
    },
    {
        "state": "IS",
        "name": "Golfklu00fabburinn Setberg",
        "city": "Hafnarfjoerdur",
        "prov": "Capital Region",
        "region": "Garu00f0abu00e6r",
        "latt": "64.06825",
        "longt": "-21.9255",
        "address": "9646 Rhonda Ridges Suite 236nSanchezmouth, MS 02635"
    },
    {
        "state": "IS",
        "name": "Su00f6lvabakki",
        "city": "Bloenduos",
        "prov": "Northwest",
        "region": "Blu00f6nduu00f3sbu00e6r",
        "latt": "65.7082",
        "longt": "-20.27453",
        "address": "72218 Roy Divide Apt. 398nWest Thomas, GA 67094"
    },
    {
        "state": "IS",
        "name": "Flateyrarhreppur",
        "city": "Ingjaldssandur",
        "prov": "Westfjords",
        "region": "u00cdsafjaru00f0arbu00e6r",
        "latt": "66.05",
        "longt": "-23.61667",
        "address": "578 Winters ValleynNew Devonland, GA 34658"
    },
    {
        "state": "IS",
        "name": "Sundabakki",
        "city": "Reykjavik",
        "prov": "Capital Region",
        "region": "Reykjavu00edkurborg",
        "latt": "64.15556",
        "longt": "-21.84167",
        "address": "417 Garcia Village Apt. 605nSouth Davidfort, AK 37404"
    },
    {
        "state": "IS",
        "name": "Uppsalau00e1",
        "city": "Egilsstadir",
        "prov": "East",
        "region": "Flju00f3tsdalshu00e9rau00f0",
        "latt": "65.26667",
        "longt": "-14.38333",
        "address": "040 Benton LakesnAmandaside, SD 89271"
    },
    {
        "state": "IS",
        "name": "Fremra-Selvatn",
        "city": "Vatnsfjordhur",
        "prov": "Westfjords",
        "region": "Su00fau00f0avu00edkurhreppur",
        "latt": "65.86689",
        "longt": "-22.57388",
        "address": "74460 Nguyen Station Suite 479nKruegermouth, MI 34501"
    },
    {
        "state": "IS",
        "name": "u00cdpishu00f3ll",
        "city": "Varmahlid",
        "prov": "Northwest",
        "region": "Sveitarfu00e9lagiu00f0 Skagafju00f6ru00f0ur",
        "latt": "65.55",
        "longt": "-19.5",
        "address": "6488 Heather IslandsnKaylastad, NJ 77532"
    },
    {
        "state": "IS",
        "name": "Uppsalau00e1",
        "city": "Egilsstadir",
        "prov": "East",
        "region": "Flju00f3tsdalshu00e9rau00f0",
        "latt": "65.26667",
        "longt": "-14.38333",
        "address": "68034 Dodson Trafficway Suite 983nNew Charles, PA 31947"
    },
    {
        "state": "IS",
        "name": "Karlsstau00f0atangi",
        "city": "Djupivogur",
        "prov": "East",
        "region": "Dju00fapavogshreppur",
        "latt": "64.69167",
        "longt": "-14.25278",
        "address": "429 Christopher Motorway Suite 092nWest Belinda, WY 24403"
    },
    {
        "state": "IS",
        "name": "Svaru00feamrar",
        "city": "Starmyri",
        "prov": "East",
        "region": "Dju00fapavogshreppur",
        "latt": "64.49908",
        "longt": "-14.56791",
        "address": "USS CummingsnFPO AA 06966"
    },
    {
        "state": "IS",
        "name": "Stykkishu00f3lmsbu00e6r",
        "city": "Stykkisholmur",
        "prov": "West",
        "region": "Stykkishu00f3lmsbu00e6r",
        "latt": "65.05368",
        "longt": "-22.77178",
        "address": "Unit 8309 Box 2119nDPO AA 66018"
    },
    {
        "state": "IS",
        "name": "u00cdpishu00f3ll",
        "city": "Varmahlid",
        "prov": "Northwest",
        "region": "Sveitarfu00e9lagiu00f0 Skagafju00f6ru00f0ur",
        "latt": "65.55",
        "longt": "-19.5",
        "address": "655 Rodriguez RampnMitchellberg, VT 83830"
    },
    {
        "state": "IS",
        "name": "Golfklu00fabburinn Setberg",
        "city": "Hafnarfjoerdur",
        "prov": "Capital Region",
        "region": "Garu00f0abu00e6r",
        "latt": "64.06825",
        "longt": "-21.9255",
        "address": "8472 Charles Valley Apt. 942nSouth Mark, DE 87101"
    },
    {
        "state": "IS",
        "name": "Syu00f0stibu00e6r",
        "city": "Hrisey",
        "prov": "Northeast",
        "region": "Akureyrarkaupstau00f0ur",
        "latt": "65.97788",
        "longt": "-18.36717",
        "address": "65623 Ramsey ParksnPort Hollyview, AL 38411"
    },
    {
        "state": "IS",
        "name": "Hu00f3lshu00f6fu00f0i",
        "city": "Raufarhoefn",
        "prov": "Northeast",
        "region": "Noru00f0uru00feing",
        "latt": "66.43247",
        "longt": "-15.92545",
        "address": "26216 Hunt Tunnel Suite 008nMendezmouth, MD 43047"
    },
    {
        "state": "IS",
        "name": "Mu00edgindisdalur",
        "city": "Kopasker",
        "prov": "Northeast",
        "region": "Noru00f0uru00feing",
        "latt": "66.35781",
        "longt": "-16.50027",
        "address": "Unit 6883 Box 1981nDPO AE 67290"
    },
    {
        "state": "IS",
        "name": "Hornafjaru00f0aru00f3s",
        "city": "Hoefn",
        "prov": "East",
        "region": "Sveitarfu00e9lagiu00f0 Hornafju00f6ru00f0ur",
        "latt": "64.23252",
        "longt": "-15.1882",
        "address": "135 Burke HillsnSouth Ritaside, MA 88684"
    },
    {
        "state": "IS",
        "name": "Lu00f3nafju00f6ru00f0ur",
        "city": "THorshoefn",
        "prov": "Northeast",
        "region": "Langanesbyggu00f0",
        "latt": "66.17393",
        "longt": "-15.39251",
        "address": "713 Brandon DrivenNew Chadshire, MS 01037"
    },
    {
        "state": "IS",
        "name": "Svaru00feamrar",
        "city": "Starmyri",
        "prov": "East",
        "region": "Dju00fapavogshreppur",
        "latt": "64.49908",
        "longt": "-14.56791",
        "address": "959 Jones LandingnMichellehaven, VA 64649"
    },
    {
        "state": "IS",
        "name": "Streiti",
        "city": "Breiu00f0dalsvu00edk",
        "prov": "East",
        "region": "Breiu00f0dalshreppur",
        "latt": "64.72319",
        "longt": "-14.03631",
        "address": "88270 Mckinney Manor Apt. 075nMarilynberg, FL 55644"
    },
    {
        "state": "IS",
        "name": "Stykkishu00f3lmsbu00e6r",
        "city": "Stykkisholmur",
        "prov": "West",
        "region": "Stykkishu00f3lmsbu00e6r",
        "latt": "65.05368",
        "longt": "-22.77178",
        "address": "43855 Mary GreensnJohnsonport, VA 40108"
    },
    {
        "state": "IS",
        "name": "Miu00f0fossar",
        "city": "Hvanneyri",
        "prov": "West",
        "region": "Borgarbyggu00f0",
        "latt": "64.54907",
        "longt": "-21.69688",
        "address": "32021 David Branch Apt. 226nAdamville, IL 98428"
    },
    {
        "state": "IS",
        "name": "Rauu00f0sgil",
        "city": "u00c1s",
        "prov": "West",
        "region": "Borgarbyggu00f0",
        "latt": "64.65407",
        "longt": "-21.21569",
        "address": "424 Pruitt WallnEast James, IL 20539"
    },
    {
        "state": "IS",
        "name": "Lu00f3nafju00f6ru00f0ur",
        "city": "THorshoefn",
        "prov": "Northeast",
        "region": "Langanesbyggu00f0",
        "latt": "66.17393",
        "longt": "-15.39251",
        "address": "USNV YoungnFPO AE 34953"
    },
    {
        "state": "IS",
        "name": "Golfklu00fabburinn Setberg",
        "city": "Hafnarfjoerdur",
        "prov": "Capital Region",
        "region": "Garu00f0abu00e6r",
        "latt": "64.06825",
        "longt": "-21.9255",
        "address": "160 Moore Port Suite 034nMaryside, WA 33547"
    },
    {
        "state": "IS",
        "name": "Ytri-Bjarghu00f3ll",
        "city": "Reykjahlu00edu00f0",
        "prov": "Northeast",
        "region": "Sku00fatustau00f0ahreppur",
        "latt": "65.70968",
        "longt": "-16.87271",
        "address": "073 Powell PointsnChristinafurt, WY 07079"
    },
    {
        "state": "IS",
        "name": "Mu00edgindisdalur",
        "city": "Kopasker",
        "prov": "Northeast",
        "region": "Noru00f0uru00feing",
        "latt": "66.35781",
        "longt": "-16.50027",
        "address": "66218 Timothy VianWest Philipbury, IL 37875"
    },
    {
        "state": "IS",
        "name": "Rauu00f0sgil",
        "city": "u00c1s",
        "prov": "West",
        "region": "Borgarbyggu00f0",
        "latt": "64.65407",
        "longt": "-21.21569",
        "address": "0125 Heather IslandsnDarryltown, VA 83259"
    },
    {
        "state": "IS",
        "name": "Mu00edgindisdalur",
        "city": "Kopasker",
        "prov": "Northeast",
        "region": "Noru00f0uru00feing",
        "latt": "66.35781",
        "longt": "-16.50027",
        "address": "3603 Thompson Valleys Suite 105nNew Bethshire, MD 23263"
    },
    {
        "state": "IS",
        "name": "Fremra-Selvatn",
        "city": "Vatnsfjordhur",
        "prov": "Westfjords",
        "region": "Su00fau00f0avu00edkurhreppur",
        "latt": "65.86689",
        "longt": "-22.57388",
        "address": "644 Amanda Landing Suite 196nLake Ashley, WI 78627"
    },
    {
        "state": "IS",
        "name": "Heiu00f0i",
        "city": "Kirkjubu00e6jarklaustur",
        "prov": "South",
        "region": "Skaftu00e1rhreppur",
        "latt": "63.76782",
        "longt": "-18.15166",
        "address": "684 Hester Rue Suite 936nPort Kylebury, NJ 96561"
    },
    {
        "state": "IS",
        "name": "Golfklu00fabburinn Setberg",
        "city": "Hafnarfjoerdur",
        "prov": "Capital Region",
        "region": "Garu00f0abu00e6r",
        "latt": "64.06825",
        "longt": "-21.9255",
        "address": "Unit 1603 Box 2918nDPO AP 48770"
    },
    {
        "state": "IS",
        "name": "Geru00f0isflu00f3i",
        "city": "Valpjofsstau00f0ir",
        "prov": "East",
        "region": "Flju00f3tsdalshreppur",
        "latt": "65.09292",
        "longt": "-15.00708",
        "address": "8258 Rodriguez Pass Suite 265nBrianmouth, AZ 72845"
    },
    {
        "state": "IS",
        "name": "Ku00e1lfafellsstau00f0ur",
        "city": "Kalfafellsstadur",
        "prov": "East",
        "region": "Sveitarfu00e9lagiu00f0 Hornafju00f6ru00f0ur",
        "latt": "64.18105",
        "longt": "-15.91391",
        "address": "664 Reed TrailnSouth Lauren, UT 94986"
    },
    {
        "state": "IS",
        "name": "Rauu00f0sgil",
        "city": "u00c1s",
        "prov": "West",
        "region": "Borgarbyggu00f0",
        "latt": "64.65407",
        "longt": "-21.21569",
        "address": "35473 Christensen Ways Apt. 830nSouth Scottville, NE 63401"
    },
    {
        "state": "IS",
        "name": "Ytri-Bjarghu00f3ll",
        "city": "Reykjahlu00edu00f0",
        "prov": "Northeast",
        "region": "Sku00fatustau00f0ahreppur",
        "latt": "65.70968",
        "longt": "-16.87271",
        "address": "28758 Russell GlennBakerfort, NC 34224"
    },
    {
        "state": "IS",
        "name": "Rauu00f0sgil",
        "city": "u00c1s",
        "prov": "West",
        "region": "Borgarbyggu00f0",
        "latt": "64.65407",
        "longt": "-21.21569",
        "address": "68923 Stacy Wells Apt. 166nNew Julia, PA 17136"
    },
    {
        "state": "IS",
        "name": "Golfklu00fabburinn Setberg",
        "city": "Hafnarfjoerdur",
        "prov": "Capital Region",
        "region": "Garu00f0abu00e6r",
        "latt": "64.06825",
        "longt": "-21.9255",
        "address": "7026 Martinez GrovenLake Jeremy, NM 17335"
    },
    {
        "state": "IS",
        "name": "Ytri-Bjarghu00f3ll",
        "city": "Reykjahlu00edu00f0",
        "prov": "Northeast",
        "region": "Sku00fatustau00f0ahreppur",
        "latt": "65.70968",
        "longt": "-16.87271",
        "address": "PSC 7634, Box 5667nAPO AP 51333"
    },
    {
        "state": "IS",
        "name": "Hornafjaru00f0aru00f3s",
        "city": "Hoefn",
        "prov": "East",
        "region": "Sveitarfu00e9lagiu00f0 Hornafju00f6ru00f0ur",
        "latt": "64.23252",
        "longt": "-15.1882",
        "address": "90951 Courtney PortsnNew Kenneth, MI 65219"
    },
    {
        "state": "IS",
        "name": "Fremra-Selvatn",
        "city": "Vatnsfjordhur",
        "prov": "Westfjords",
        "region": "Su00fau00f0avu00edkurhreppur",
        "latt": "65.86689",
        "longt": "-22.57388",
        "address": "5363 Michael Vista Apt. 610nPort Danielburgh, HI 51249"
    },
    {
        "state": "IS",
        "name": "Lu00f3nafju00f6ru00f0ur",
        "city": "THorshoefn",
        "prov": "Northeast",
        "region": "Langanesbyggu00f0",
        "latt": "66.17393",
        "longt": "-15.39251",
        "address": "2762 Brian RapidsnBrendastad, MS 90562"
    },
    {
        "state": "IS",
        "name": "Flateyrarhreppur",
        "city": "Ingjaldssandur",
        "prov": "Westfjords",
        "region": "u00cdsafjaru00f0arbu00e6r",
        "latt": "66.05",
        "longt": "-23.61667",
        "address": "01429 Gordon Tunnel Apt. 919nNorth Derekburgh, MO 85904"
    },
    {
        "state": "IS",
        "name": "Oddalu00f6nd",
        "city": "Skalafell",
        "prov": "East",
        "region": "Sveitarfu00e9lagiu00f0 Hornafju00f6ru00f0ur",
        "latt": "64.2325",
        "longt": "-15.57975",
        "address": "0863 Marshall Course Suite 514nNorth Michaelstad, IL 53936"
    },
    {
        "state": "IS",
        "name": "Golfklu00fabburinn Setberg",
        "city": "Hafnarfjoerdur",
        "prov": "Capital Region",
        "region": "Garu00f0abu00e6r",
        "latt": "64.06825",
        "longt": "-21.9255",
        "address": "2443 Anthony Common Apt. 189nNew Kimberly, OK 36443"
    },
    {
        "state": "IS",
        "name": "Miu00f0fossar",
        "city": "Hvanneyri",
        "prov": "West",
        "region": "Borgarbyggu00f0",
        "latt": "64.54907",
        "longt": "-21.69688",
        "address": "113 Burgess Gardens Apt. 254nSouth Victor, NE 25115"
    },
    {
        "state": "IS",
        "name": "Lu00f3nafju00f6ru00f0ur",
        "city": "THorshoefn",
        "prov": "Northeast",
        "region": "Langanesbyggu00f0",
        "latt": "66.17393",
        "longt": "-15.39251",
        "address": "301 Gerald Ridge Suite 635nJacksonfurt, NY 99898"
    },
    {
        "state": "IS",
        "name": "Streiti",
        "city": "Breiu00f0dalsvu00edk",
        "prov": "East",
        "region": "Breiu00f0dalshreppur",
        "latt": "64.72319",
        "longt": "-14.03631",
        "address": "15415 Cory Drives Suite 817nRebeccaport, NY 38506"
    },
    {
        "state": "IS",
        "name": "Karlsstau00f0atangi",
        "city": "Djupivogur",
        "prov": "East",
        "region": "Dju00fapavogshreppur",
        "latt": "64.69167",
        "longt": "-14.25278",
        "address": "59264 Ward MewsnKochfurt, KS 45338"
    },
    {
        "state": "IS",
        "name": "Smju00f6rdalur",
        "city": "Flokalundur",
        "prov": "Westfjords",
        "region": "Vesturbyggu00f0",
        "latt": "65.59312",
        "longt": "-23.24462",
        "address": "5942 Strickland CliffsnAmberstad, VT 85884"
    },
    {
        "state": "IS",
        "name": "Heiu00f0ardalur",
        "city": "Vik i Myrdal",
        "prov": "South",
        "region": "Mu00fdrdalshreppur",
        "latt": "63.46724",
        "longt": "-19.00146",
        "address": "1553 Jeremy Square Apt. 236nPort Brendaville, WI 31454"
    },
    {
        "state": "IS",
        "name": "Golfklu00fabburinn Setberg",
        "city": "Hafnarfjoerdur",
        "prov": "Capital Region",
        "region": "Garu00f0abu00e6r",
        "latt": "64.06825",
        "longt": "-21.9255",
        "address": "8734 Joseph Junction Suite 240nBrownberg, SC 73392"
    },
    {
        "state": "IS",
        "name": "Su00f6lvabakki",
        "city": "Bloenduos",
        "prov": "Northwest",
        "region": "Blu00f6nduu00f3sbu00e6r",
        "latt": "65.7082",
        "longt": "-20.27453",
        "address": "USNS MartinnFPO AA 64371"
    },
    {
        "state": "IS",
        "name": "Keflavu00edk",
        "city": "Reykjanesbaer",
        "prov": "Southern Peninsula",
        "region": "Reykjanesbu00e6r",
        "latt": "64.00492",
        "longt": "-22.56242",
        "address": "0036 Mahoney RoadnBrownville, TN 93953"
    },
    {
        "state": "IS",
        "name": "Karlsstau00f0atangi",
        "city": "Djupivogur",
        "prov": "East",
        "region": "Dju00fapavogshreppur",
        "latt": "64.69167",
        "longt": "-14.25278",
        "address": "41150 Brent Lodge Suite 570nPort Markshire, OK 98244"
    },
    {
        "state": "IS",
        "name": "Miu00f0fossar",
        "city": "Hvanneyri",
        "prov": "West",
        "region": "Borgarbyggu00f0",
        "latt": "64.54907",
        "longt": "-21.69688",
        "address": "102 Gilbert Flat Apt. 751nWilliamsburgh, VA 88298"
    },
    {
        "state": "IS",
        "name": "u00deru00e6lageru00f0i",
        "city": "Vidhirholl",
        "prov": "Northeast",
        "region": "Noru00f0uru00feing",
        "latt": "65.69528",
        "longt": "-16.07084",
        "address": "9004 Foley TracknLisamouth, UT 38345"
    },
    {
        "state": "IS",
        "name": "Lu00f3nafju00f6ru00f0ur",
        "city": "THorshoefn",
        "prov": "Northeast",
        "region": "Langanesbyggu00f0",
        "latt": "66.17393",
        "longt": "-15.39251",
        "address": "225 Castillo TunnelnNorth Kathleen, GA 60767"
    },
    {
        "state": "IS",
        "name": "Flateyrarhreppur",
        "city": "Ingjaldssandur",
        "prov": "Westfjords",
        "region": "u00cdsafjaru00f0arbu00e6r",
        "latt": "66.05",
        "longt": "-23.61667",
        "address": "9987 Drake RidgenNew Jamesview, CA 73231"
    },
    {
        "state": "IS",
        "name": "Rauu00f0sgil",
        "city": "u00c1s",
        "prov": "West",
        "region": "Borgarbyggu00f0",
        "latt": "64.65407",
        "longt": "-21.21569",
        "address": "145 Patricia GrovenEast Christopherfurt, FL 90832"
    },
    {
        "state": "IS",
        "name": "Landabou00f0i",
        "city": "Stoedvarfjoerdur",
        "prov": "East",
        "region": "Fjaru00f0abyggu00f0",
        "latt": "64.82278",
        "longt": "-13.83056",
        "address": "25290 Anderson Grove Suite 462nKimberlyview, UT 16825"
    },
    {
        "state": "IS",
        "name": "Hornafjaru00f0aru00f3s",
        "city": "Hoefn",
        "prov": "East",
        "region": "Sveitarfu00e9lagiu00f0 Hornafju00f6ru00f0ur",
        "latt": "64.23252",
        "longt": "-15.1882",
        "address": "48387 Kevin Manors Suite 541nLake Jenniferhaven, VT 01099"
    },
    {
        "state": "IS",
        "name": "Miu00f0klettur",
        "city": "Vestmannaeyjar",
        "prov": "South",
        "region": "Vestmannaeyjabu00e6r",
        "latt": "63.45282",
        "longt": "-20.25733",
        "address": "00191 Kayla Fords Apt. 308nWest Danielbury, MT 05092"
    },
    {
        "state": "IS",
        "name": "Golfklu00fabburinn Setberg",
        "city": "Hafnarfjoerdur",
        "prov": "Capital Region",
        "region": "Garu00f0abu00e6r",
        "latt": "64.06825",
        "longt": "-21.9255",
        "address": "461 Foster Orchard Suite 219nWhiteland, DC 67607"
    },
    {
        "state": "IS",
        "name": "Geru00f0isflu00f3i",
        "city": "Valpjofsstau00f0ir",
        "prov": "East",
        "region": "Flju00f3tsdalshreppur",
        "latt": "65.09292",
        "longt": "-15.00708",
        "address": "209 Snyder Curve Apt. 655nAllentown, IL 28127"
    },
    {
        "state": "IS",
        "name": "u00deru00e6lageru00f0i",
        "city": "Vidhirholl",
        "prov": "Northeast",
        "region": "Noru00f0uru00feing",
        "latt": "65.69528",
        "longt": "-16.07084",
        "address": "3022 Alyssa Run Apt. 059nEast Sergio, CA 81430"
    },
    {
        "state": "IS",
        "name": "Dufansdalsu00e1",
        "city": "Bu00edldudalur",
        "prov": "Westfjords",
        "region": "Vesturbyggu00f0",
        "latt": "65.62221",
        "longt": "-23.56141",
        "address": "1907 Virginia PointnSouth Jasonbury, WI 39777"
    },
    {
        "state": "IS",
        "name": "Mu00edgindisdalur",
        "city": "Kopasker",
        "prov": "Northeast",
        "region": "Noru00f0uru00feing",
        "latt": "66.35781",
        "longt": "-16.50027",
        "address": "25426 Duncan LoopnEast Dianefort, MD 66446"
    },
    {
        "state": "IS",
        "name": "u00cdpishu00f3ll",
        "city": "Varmahlid",
        "prov": "Northwest",
        "region": "Sveitarfu00e9lagiu00f0 Skagafju00f6ru00f0ur",
        "latt": "65.55",
        "longt": "-19.5",
        "address": "206 Herbert Plain Apt. 481nBaileychester, HI 12554"
    },
    {
        "state": "IS",
        "name": "Golfklu00fabburinn Setberg",
        "city": "Hafnarfjoerdur",
        "prov": "Capital Region",
        "region": "Garu00f0abu00e6r",
        "latt": "64.06825",
        "longt": "-21.9255",
        "address": "690 Michele Alley Suite 469nBakerview, ME 27740"
    },
    {
        "state": "IS",
        "name": "Pu00f3sturinn, Grundargu00f6tu 38",
        "city": "Grundarfjoerdur",
        "prov": "West",
        "region": "Grundarfjaru00f0arbu00e6r",
        "latt": "64.92529",
        "longt": "-23.26006",
        "address": "205 Jerry Skyway Suite 136nMeyershire, LA 51960"
    },
    {
        "state": "IS",
        "name": "Uppsalau00e1",
        "city": "Egilsstadir",
        "prov": "East",
        "region": "Flju00f3tsdalshu00e9rau00f0",
        "latt": "65.26667",
        "longt": "-14.38333",
        "address": "39573 Knox Cove Suite 991nBaileyville, LA 76821"
    },
    {
        "state": "IS",
        "name": "Uppsalau00e1",
        "city": "Egilsstadir",
        "prov": "East",
        "region": "Flju00f3tsdalshu00e9rau00f0",
        "latt": "65.26667",
        "longt": "-14.38333",
        "address": "5427 Roberts Avenue Suite 498nNunezchester, DE 87026"
    },
    {
        "state": "IS",
        "name": "Golfklu00fabburinn Setberg",
        "city": "Hafnarfjoerdur",
        "prov": "Capital Region",
        "region": "Garu00f0abu00e6r",
        "latt": "64.06825",
        "longt": "-21.9255",
        "address": "344 Li BrooknEast Jennifer, KS 75502"
    },
    {
        "state": "IS",
        "name": "Efraholt",
        "city": "Asolfsskali",
        "prov": "South",
        "region": "Rangu00e1ru00feing Eystra",
        "latt": "63.55559",
        "longt": "-19.8971",
        "address": "651 Debra Crescent Apt. 832nLarryfurt, TN 50147"
    },
    {
        "state": "IS",
        "name": "Svaru00feamrar",
        "city": "Starmyri",
        "prov": "East",
        "region": "Dju00fapavogshreppur",
        "latt": "64.49908",
        "longt": "-14.56791",
        "address": "30229 Steele MountainsnWest Samantha, LA 05626"
    },
    {
        "state": "IS",
        "name": "Golfklu00fabburinn Setberg",
        "city": "Hafnarfjoerdur",
        "prov": "Capital Region",
        "region": "Garu00f0abu00e6r",
        "latt": "64.06825",
        "longt": "-21.9255",
        "address": "600 Kelly UnderpassnWest Julianburgh, MI 50152"
    },
    {
        "state": "IS",
        "name": "Fremra-Selvatn",
        "city": "Vatnsfjordhur",
        "prov": "Westfjords",
        "region": "Su00fau00f0avu00edkurhreppur",
        "latt": "65.86689",
        "longt": "-22.57388",
        "address": "USCGC HawkinsnFPO AA 86209"
    },
    {
        "state": "IS",
        "name": "Syu00f0stibu00e6r",
        "city": "Hrisey",
        "prov": "Northeast",
        "region": "Akureyrarkaupstau00f0ur",
        "latt": "65.97788",
        "longt": "-18.36717",
        "address": "95843 Yvette Glens Suite 299nEast Todd, NJ 45215"
    },
    {
        "state": "IS",
        "name": "Heiu00f0i",
        "city": "Kirkjubu00e6jarklaustur",
        "prov": "South",
        "region": "Skaftu00e1rhreppur",
        "latt": "63.76782",
        "longt": "-18.15166",
        "address": "8872 Martin Walk Apt. 356nNew Lesliebury, AZ 43364"
    },
    {
        "state": "IS",
        "name": "Stykkishu00f3lmsbu00e6r",
        "city": "Stykkisholmur",
        "prov": "West",
        "region": "Stykkishu00f3lmsbu00e6r",
        "latt": "65.05368",
        "longt": "-22.77178",
        "address": "8810 Cathy Drives Suite 151nNew Stephen, AL 47237"
    },
    {
        "state": "IS",
        "name": "Stykkishu00f3lmsbu00e6r",
        "city": "Stykkisholmur",
        "prov": "West",
        "region": "Stykkishu00f3lmsbu00e6r",
        "latt": "65.05368",
        "longt": "-22.77178",
        "address": "961 Adam Coves Suite 199nMitchellberg, AZ 40109"
    },
    {
        "state": "IS",
        "name": "Sundabakki",
        "city": "Reykjavik",
        "prov": "Capital Region",
        "region": "Reykjavu00edkurborg",
        "latt": "64.15556",
        "longt": "-21.84167",
        "address": "72116 Webb Villages Apt. 504nNew Thomasberg, MO 61075"
    },
    {
        "state": "IS",
        "name": "Golfklu00fabburinn Setberg",
        "city": "Hafnarfjoerdur",
        "prov": "Capital Region",
        "region": "Garu00f0abu00e6r",
        "latt": "64.06825",
        "longt": "-21.9255",
        "address": "571 Michael RadialnPort Ambertown, AZ 56270"
    },
    {
        "state": "IS",
        "name": "Miu00f0fossar",
        "city": "Hvanneyri",
        "prov": "West",
        "region": "Borgarbyggu00f0",
        "latt": "64.54907",
        "longt": "-21.69688",
        "address": "61940 Kaitlin Stream Suite 728nWest Shawn, AL 30839"
    },
    {
        "state": "IS",
        "name": "Neshreppur",
        "city": "Hellissandur",
        "prov": "West",
        "region": "Snu00e6fellsbu00e6r",
        "latt": "64.88333",
        "longt": "-23.9",
        "address": "74340 Frank Oval Suite 011nWilliamberg, SC 55678"
    },
    {
        "state": "IS",
        "name": "Miu00f0fossar",
        "city": "Hvanneyri",
        "prov": "West",
        "region": "Borgarbyggu00f0",
        "latt": "64.54907",
        "longt": "-21.69688",
        "address": "106 Johnson HillsnSuttonchester, MA 87802"
    },
    {
        "state": "IS",
        "name": "Su00f6lvabakki",
        "city": "Bloenduos",
        "prov": "Northwest",
        "region": "Blu00f6nduu00f3sbu00e6r",
        "latt": "65.7082",
        "longt": "-20.27453",
        "address": "38597 Parks Dale Suite 661nWest David, VT 01746"
    },
    {
        "state": "IS",
        "name": "Golfklu00fabburinn Setberg",
        "city": "Hafnarfjoerdur",
        "prov": "Capital Region",
        "region": "Garu00f0abu00e6r",
        "latt": "64.06825",
        "longt": "-21.9255",
        "address": "94912 Holt FieldnPort Josephhaven, TN 34465"
    },
    {
        "state": "IS",
        "name": "Mu00edgindisdalur",
        "city": "Kopasker",
        "prov": "Northeast",
        "region": "Noru00f0uru00feing",
        "latt": "66.35781",
        "longt": "-16.50027",
        "address": "081 Bright Shoals Suite 296nTheresahaven, NJ 13044"
    },
    {
        "state": "IS",
        "name": "Dufansdalsu00e1",
        "city": "Bu00edldudalur",
        "prov": "Westfjords",
        "region": "Vesturbyggu00f0",
        "latt": "65.62221",
        "longt": "-23.56141",
        "address": "113 Webb ThroughwaynHeatherview, CO 34266"
    },
    {
        "state": "IS",
        "name": "Pu00f3sturinn, Grundargu00f6tu 38",
        "city": "Grundarfjoerdur",
        "prov": "West",
        "region": "Grundarfjaru00f0arbu00e6r",
        "latt": "64.92529",
        "longt": "-23.26006",
        "address": "1805 Ballard HavennSouth Wendyton, IA 44485"
    },
    {
        "state": "IS",
        "name": "Landabou00f0i",
        "city": "Stoedvarfjoerdur",
        "prov": "East",
        "region": "Fjaru00f0abyggu00f0",
        "latt": "64.82278",
        "longt": "-13.83056",
        "address": "2712 Jeanne SquaresnNew Kaitlin, HI 84005"
    },
    {
        "state": "IS",
        "name": "Keflavu00edk",
        "city": "Reykjanesbaer",
        "prov": "Southern Peninsula",
        "region": "Reykjanesbu00e6r",
        "latt": "64.00492",
        "longt": "-22.56242",
        "address": "USNV MaddoxnFPO AE 79283"
    },
    {
        "state": "IS",
        "name": "Dufansdalsu00e1",
        "city": "Bu00edldudalur",
        "prov": "Westfjords",
        "region": "Vesturbyggu00f0",
        "latt": "65.62221",
        "longt": "-23.56141",
        "address": "915 Diana Walks Suite 167nBartonside, MD 47823"
    },
    {
        "state": "IS",
        "name": "Mu00edgindisdalur",
        "city": "Kopasker",
        "prov": "Northeast",
        "region": "Noru00f0uru00feing",
        "latt": "66.35781",
        "longt": "-16.50027",
        "address": "6700 Howard Trafficway Apt. 972nSouth Laura, MN 88336"
    },
    {
        "state": "IS",
        "name": "Stykkishu00f3lmsbu00e6r",
        "city": "Stykkisholmur",
        "prov": "West",
        "region": "Stykkishu00f3lmsbu00e6r",
        "latt": "65.05368",
        "longt": "-22.77178",
        "address": "011 Aaron TunnelnWilsonfort, IL 84248"
    },
    {
        "state": "IS",
        "name": "Eyrarland",
        "city": "Akureyri",
        "prov": "Northeast",
        "region": "Eyjafjaru00f0arsveit",
        "latt": "65.66038",
        "longt": "-18.02783",
        "address": "4177 Tucker Vista Apt. 297nMichaelshire, MD 06715"
    },
    {
        "state": "IS",
        "name": "Hornafjaru00f0aru00f3s",
        "city": "Hoefn",
        "prov": "East",
        "region": "Sveitarfu00e9lagiu00f0 Hornafju00f6ru00f0ur",
        "latt": "64.23252",
        "longt": "-15.1882",
        "address": "08574 Lewis SquaresnRodriguezshire, VT 58862"
    },
    {
        "state": "IS",
        "name": "Efra-Sel",
        "city": "Stokkseyri",
        "prov": "South",
        "region": "Sveitarfu00e9lagiu00f0 u00c1rborg",
        "latt": "63.85068",
        "longt": "-21.06887",
        "address": "200 Kim Club Suite 014nAndersonfurt, AL 73129"
    },
    {
        "state": "IS",
        "name": "Pu00f3sturinn, Grundargu00f6tu 38",
        "city": "Grundarfjoerdur",
        "prov": "West",
        "region": "Grundarfjaru00f0arbu00e6r",
        "latt": "64.92529",
        "longt": "-23.26006",
        "address": "2281 James Pass Apt. 470nWest Debra, NH 29388"
    },
    {
        "state": "IS",
        "name": "Miu00f0fossar",
        "city": "Hvanneyri",
        "prov": "West",
        "region": "Borgarbyggu00f0",
        "latt": "64.54907",
        "longt": "-21.69688",
        "address": "768 Catherine PointnNunezburgh, KS 73115"
    },
    {
        "state": "IS",
        "name": "Stykkishu00f3lmsbu00e6r",
        "city": "Stykkisholmur",
        "prov": "West",
        "region": "Stykkishu00f3lmsbu00e6r",
        "latt": "65.05368",
        "longt": "-22.77178",
        "address": "731 Davis Plaza Suite 736nRobertsside, ME 10147"
    },
    {
        "state": "IS",
        "name": "Miu00f0fossar",
        "city": "Hvanneyri",
        "prov": "West",
        "region": "Borgarbyggu00f0",
        "latt": "64.54907",
        "longt": "-21.69688",
        "address": "4797 Michael Parkways Suite 875nNew Caseyfort, NJ 41389"
    },
    {
        "state": "IS",
        "name": "Efraholt",
        "city": "Asolfsskali",
        "prov": "South",
        "region": "Rangu00e1ru00feing Eystra",
        "latt": "63.55559",
        "longt": "-19.8971",
        "address": "61127 Bradley UnderpassnLake Codybury, NC 94745"
    },
    {
        "state": "IS",
        "name": "Geru00f0isflu00f3i",
        "city": "Valpjofsstau00f0ir",
        "prov": "East",
        "region": "Flju00f3tsdalshreppur",
        "latt": "65.09292",
        "longt": "-15.00708",
        "address": "097 Nguyen Keys Apt. 630nEast John, RI 19689"
    },
    {
        "state": "IS",
        "name": "Hornafjaru00f0aru00f3s",
        "city": "Hoefn",
        "prov": "East",
        "region": "Sveitarfu00e9lagiu00f0 Hornafju00f6ru00f0ur",
        "latt": "64.23252",
        "longt": "-15.1882",
        "address": "083 Alexis Corner Suite 800nFerrellville, KS 60344"
    },
    {
        "state": "IS",
        "name": "Miu00f0klettur",
        "city": "Vestmannaeyjar",
        "prov": "South",
        "region": "Vestmannaeyjabu00e6r",
        "latt": "63.45282",
        "longt": "-20.25733",
        "address": "3948 Espinoza Road Suite 887nSchultzburgh, WY 54372"
    },
    {
        "state": "IS",
        "name": "Stykkishu00f3lmsbu00e6r",
        "city": "Stykkisholmur",
        "prov": "West",
        "region": "Stykkishu00f3lmsbu00e6r",
        "latt": "65.05368",
        "longt": "-22.77178",
        "address": "4397 Scott Green Suite 569nHallborough, MS 10542"
    },
    {
        "state": "IS",
        "name": "Sundabakki",
        "city": "Reykjavik",
        "prov": "Capital Region",
        "region": "Reykjavu00edkurborg",
        "latt": "64.15556",
        "longt": "-21.84167",
        "address": "8143 Powell Summit Apt. 312nThomasmouth, MO 19387"
    },
    {
        "state": "IS",
        "name": "Pu00f3sturinn, Grundargu00f6tu 38",
        "city": "Grundarfjoerdur",
        "prov": "West",
        "region": "Grundarfjaru00f0arbu00e6r",
        "latt": "64.92529",
        "longt": "-23.26006",
        "address": "2072 Joseph Landing Suite 584nTaylorchester, DE 57676"
    },
    {
        "state": "IS",
        "name": "Stykkishu00f3lmsbu00e6r",
        "city": "Stykkisholmur",
        "prov": "West",
        "region": "Stykkishu00f3lmsbu00e6r",
        "latt": "65.05368",
        "longt": "-22.77178",
        "address": "73594 Dale Plains Apt. 960nNew Stacyfort, RI 96001"
    },
    {
        "state": "IS",
        "name": "Fremra-Selvatn",
        "city": "Vatnsfjordhur",
        "prov": "Westfjords",
        "region": "Su00fau00f0avu00edkurhreppur",
        "latt": "65.86689",
        "longt": "-22.57388",
        "address": "193 Dawn VillagenWilliammouth, RI 51068"
    },
    {
        "state": "IS",
        "name": "Gru00e6nigaru00f0ur",
        "city": "Isafjoerdur",
        "prov": "Westfjords",
        "region": "u00cdsafjaru00f0arbu00e6r",
        "latt": "66.06932",
        "longt": "-23.15746",
        "address": "675 Bond LodgenWest Kristybury, CT 43497"
    },
    {
        "state": "IS",
        "name": "Bu00e6jarstau00f0asku00f3gur",
        "city": "Skaftafell",
        "prov": "East",
        "region": "Sveitarfu00e9lagiu00f0 Hornafju00f6ru00f0ur",
        "latt": "64.06242",
        "longt": "-17.02181",
        "address": "1677 Jacobs Ville Suite 044nWilliamberg, UT 74752"
    },
    {
        "state": "IS",
        "name": "Hornafjaru00f0aru00f3s",
        "city": "Hoefn",
        "prov": "East",
        "region": "Sveitarfu00e9lagiu00f0 Hornafju00f6ru00f0ur",
        "latt": "64.23252",
        "longt": "-15.1882",
        "address": "USS MendozanFPO AE 28770"
    },
    {
        "state": "IS",
        "name": "Karlsstau00f0atangi",
        "city": "Djupivogur",
        "prov": "East",
        "region": "Dju00fapavogshreppur",
        "latt": "64.69167",
        "longt": "-14.25278",
        "address": "48967 Wilson VillagenLake Kelly, DC 44235"
    },
    {
        "state": "IS",
        "name": "Stykkishu00f3lmsbu00e6r",
        "city": "Stykkisholmur",
        "prov": "West",
        "region": "Stykkishu00f3lmsbu00e6r",
        "latt": "65.05368",
        "longt": "-22.77178",
        "address": "69192 Mary LocksnNew Katherineberg, MS 18312"
    },
    {
        "state": "IS",
        "name": "u00cdpishu00f3ll",
        "city": "Varmahlid",
        "prov": "Northwest",
        "region": "Sveitarfu00e9lagiu00f0 Skagafju00f6ru00f0ur",
        "latt": "65.55",
        "longt": "-19.5",
        "address": "5461 Wilson StreamnLisafort, VT 35538"
    },
    {
        "state": "IS",
        "name": "Flateyrarhreppur",
        "city": "Ingjaldssandur",
        "prov": "Westfjords",
        "region": "u00cdsafjaru00f0arbu00e6r",
        "latt": "66.05",
        "longt": "-23.61667",
        "address": "6884 David CausewaynFergusonborough, VT 51597"
    },
    {
        "state": "IS",
        "name": "Neshreppur",
        "city": "Hellissandur",
        "prov": "West",
        "region": "Snu00e6fellsbu00e6r",
        "latt": "64.88333",
        "longt": "-23.9",
        "address": "PSC 2946, Box 4136nAPO AE 71873"
    },
    {
        "state": "IS",
        "name": "Miu00f0fossar",
        "city": "Hvanneyri",
        "prov": "West",
        "region": "Borgarbyggu00f0",
        "latt": "64.54907",
        "longt": "-21.69688",
        "address": "8308 Jason Inlet Apt. 102nLake Victorfurt, MT 76817"
    },
    {
        "state": "IS",
        "name": "Pu00f3sturinn, Grundargu00f6tu 38",
        "city": "Grundarfjoerdur",
        "prov": "West",
        "region": "Grundarfjaru00f0arbu00e6r",
        "latt": "64.92529",
        "longt": "-23.26006",
        "address": "584 Rodgers CirclenTorresmouth, KS 79482"
    },
    {
        "state": "IS",
        "name": "Eyrarland",
        "city": "Akureyri",
        "prov": "Northeast",
        "region": "Eyjafjaru00f0arsveit",
        "latt": "65.66038",
        "longt": "-18.02783",
        "address": "8706 Amy RanchnWest Tylerbury, AL 18416"
    },
    {
        "state": "IS",
        "name": "Lu00f3nafju00f6ru00f0ur",
        "city": "THorshoefn",
        "prov": "Northeast",
        "region": "Langanesbyggu00f0",
        "latt": "66.17393",
        "longt": "-15.39251",
        "address": "88385 Maldonado Fall Suite 060nPort Kyle, KY 65613"
    },
    {
        "state": "IS",
        "name": "u00cdpishu00f3ll",
        "city": "Varmahlid",
        "prov": "Northwest",
        "region": "Sveitarfu00e9lagiu00f0 Skagafju00f6ru00f0ur",
        "latt": "65.55",
        "longt": "-19.5",
        "address": "7325 Reyes BurgnSamanthaside, WA 81040"
    },
    {
        "state": "IS",
        "name": "Syu00f0stibu00e6r",
        "city": "Hrisey",
        "prov": "Northeast",
        "region": "Akureyrarkaupstau00f0ur",
        "latt": "65.97788",
        "longt": "-18.36717",
        "address": "1442 Robertson Street Apt. 693nNew Jacobfort, LA 44355"
    },
    {
        "state": "IS",
        "name": "Su00f6lvabakki",
        "city": "Bloenduos",
        "prov": "Northwest",
        "region": "Blu00f6nduu00f3sbu00e6r",
        "latt": "65.7082",
        "longt": "-20.27453",
        "address": "8762 Michelle RownLake Kevinview, NJ 84975"
    },
    {
        "state": "IS",
        "name": "Heiu00f0i",
        "city": "Kirkjubu00e6jarklaustur",
        "prov": "South",
        "region": "Skaftu00e1rhreppur",
        "latt": "63.76782",
        "longt": "-18.15166",
        "address": "94654 Gomez WalknAnneton, NC 86863"
    },
    {
        "state": "IS",
        "name": "Neshreppur",
        "city": "Hellissandur",
        "prov": "West",
        "region": "Snu00e6fellsbu00e6r",
        "latt": "64.88333",
        "longt": "-23.9",
        "address": "8379 Gonzalez Hills Suite 358nPort Daniellehaven, AZ 17525"
    },
    {
        "state": "IS",
        "name": "Rauu00f0sgil",
        "city": "u00c1s",
        "prov": "West",
        "region": "Borgarbyggu00f0",
        "latt": "64.65407",
        "longt": "-21.21569",
        "address": "0138 Melissa Key Apt. 109nEast James, ID 83574"
    },
    {
        "state": "IS",
        "name": "Miu00f0fossar",
        "city": "Hvanneyri",
        "prov": "West",
        "region": "Borgarbyggu00f0",
        "latt": "64.54907",
        "longt": "-21.69688",
        "address": "31928 Vargas Stream Suite 643nWhitefort, KS 93454"
    },
    {
        "state": "IS",
        "name": "Sundabakki",
        "city": "Reykjavik",
        "prov": "Capital Region",
        "region": "Reykjavu00edkurborg",
        "latt": "64.15556",
        "longt": "-21.84167",
        "address": "792 Tamara DrivenMannville, OH 62134"
    },
    {
        "state": "IS",
        "name": "Patreksfjordhur",
        "city": "Patreksfju00f6ru00f0ur",
        "prov": "Westfjords",
        "region": "Vesturbyggu00f0",
        "latt": "65.598665",
        "longt": "-23.994392",
        "address": "831 Chen Falls Apt. 222nColontown, WI 68952"
    },
    {
        "state": "IS",
        "name": "Ytri-Bjarghu00f3ll",
        "city": "Reykjahlu00edu00f0",
        "prov": "Northeast",
        "region": "Sku00fatustau00f0ahreppur",
        "latt": "65.70968",
        "longt": "-16.87271",
        "address": "754 Strickland FordsnJessebury, PA 61605"
    },
    {
        "state": "IS",
        "name": "Gru00e6nigaru00f0ur",
        "city": "Isafjoerdur",
        "prov": "Westfjords",
        "region": "u00cdsafjaru00f0arbu00e6r",
        "latt": "66.06932",
        "longt": "-23.15746",
        "address": "227 Johnson ForknPort Sandyport, IN 65020"
    },
    {
        "state": "IS",
        "name": "Miu00f0fossar",
        "city": "Hvanneyri",
        "prov": "West",
        "region": "Borgarbyggu00f0",
        "latt": "64.54907",
        "longt": "-21.69688",
        "address": "654 Hendrix CornernEatonburgh, MN 80641"
    },
    {
        "state": "IS",
        "name": "u00cdpishu00f3ll",
        "city": "Varmahlid",
        "prov": "Northwest",
        "region": "Sveitarfu00e9lagiu00f0 Skagafju00f6ru00f0ur",
        "latt": "65.55",
        "longt": "-19.5",
        "address": "06490 Taylor Ville Suite 109nTaylorfort, AR 13393"
    },
    {
        "state": "IS",
        "name": "Miu00f0fossar",
        "city": "Hvanneyri",
        "prov": "West",
        "region": "Borgarbyggu00f0",
        "latt": "64.54907",
        "longt": "-21.69688",
        "address": "160 Anna ParksnHunterstad, MO 69322"
    },
    {
        "state": "IS",
        "name": "Lu00f3nafju00f6ru00f0ur",
        "city": "THorshoefn",
        "prov": "Northeast",
        "region": "Langanesbyggu00f0",
        "latt": "66.17393",
        "longt": "-15.39251",
        "address": "77500 Angela Ville Apt. 819nDawnhaven, MO 77664"
    },
    {
        "state": "IS",
        "name": "Svaru00feamrar",
        "city": "Starmyri",
        "prov": "East",
        "region": "Dju00fapavogshreppur",
        "latt": "64.49908",
        "longt": "-14.56791",
        "address": "6140 Rogers Tunnel Apt. 816nMacdonaldbury, RI 24146"
    },
    {
        "state": "IS",
        "name": "Su00f6lvabakki",
        "city": "Bloenduos",
        "prov": "Northwest",
        "region": "Blu00f6nduu00f3sbu00e6r",
        "latt": "65.7082",
        "longt": "-20.27453",
        "address": "474 Logan Prairie Suite 677nNorth Brianville, CA 49932"
    },
    {
        "state": "IS",
        "name": "Neshreppur",
        "city": "Hellissandur",
        "prov": "West",
        "region": "Snu00e6fellsbu00e6r",
        "latt": "64.88333",
        "longt": "-23.9",
        "address": "58541 Jo Hills Suite 058nEast Dustinshire, WV 04963"
    },
    {
        "state": "IS",
        "name": "Fremra-Selvatn",
        "city": "Vatnsfjordhur",
        "prov": "Westfjords",
        "region": "Su00fau00f0avu00edkurhreppur",
        "latt": "65.86689",
        "longt": "-22.57388",
        "address": "58065 Julia IslandnEast Nicholas, OK 55300"
    },
    {
        "state": "IS",
        "name": "Hu00f3lmavu00edk Airport",
        "city": "Holmavik",
        "prov": "Westfjords",
        "region": "Strandabyggu00f0",
        "latt": "65.7047",
        "longt": "-21.6964",
        "address": "52394 Luke Causeway Suite 472nRogersland, VA 59889"
    },
    {
        "state": "IS",
        "name": "Su00f6lvabakki",
        "city": "Bloenduos",
        "prov": "Northwest",
        "region": "Blu00f6nduu00f3sbu00e6r",
        "latt": "65.7082",
        "longt": "-20.27453",
        "address": "7284 Zachary Union Suite 574nLindsayfurt, LA 85913"
    },
    {
        "state": "IS",
        "name": "Uppsalau00e1",
        "city": "Egilsstadir",
        "prov": "East",
        "region": "Flju00f3tsdalshu00e9rau00f0",
        "latt": "65.26667",
        "longt": "-14.38333",
        "address": "06596 Vaughan ParkwaynOrtegaton, CA 75716"
    },
    {
        "state": "IS",
        "name": "u00deru00e6lageru00f0i",
        "city": "Vidhirholl",
        "prov": "Northeast",
        "region": "Noru00f0uru00feing",
        "latt": "65.69528",
        "longt": "-16.07084",
        "address": "3772 Christopher Crest Suite 529nHoganfort, MT 85489"
    },
    {
        "state": "IS",
        "name": "Miu00f0fossar",
        "city": "Hvanneyri",
        "prov": "West",
        "region": "Borgarbyggu00f0",
        "latt": "64.54907",
        "longt": "-21.69688",
        "address": "3967 Bradshaw MotorwaynHousefort, MO 43922"
    },
    {
        "state": "IS",
        "name": "Miu00f0klettur",
        "city": "Vestmannaeyjar",
        "prov": "South",
        "region": "Vestmannaeyjabu00e6r",
        "latt": "63.45282",
        "longt": "-20.25733",
        "address": "157 Michelle GlennJamesland, DE 45076"
    },
    {
        "state": "IS",
        "name": "Stykkishu00f3lmsbu00e6r",
        "city": "Stykkisholmur",
        "prov": "West",
        "region": "Stykkishu00f3lmsbu00e6r",
        "latt": "65.05368",
        "longt": "-22.77178",
        "address": "06315 Williams Track Suite 463nPort Laurenburgh, CO 09902"
    },
    {
        "state": "IS",
        "name": "Lu00f3nafju00f6ru00f0ur",
        "city": "THorshoefn",
        "prov": "Northeast",
        "region": "Langanesbyggu00f0",
        "latt": "66.17393",
        "longt": "-15.39251",
        "address": "605 Clarke ShoalnBatesshire, MS 33801"
    },
    {
        "state": "IS",
        "name": "Kaplasker",
        "city": "Saebol",
        "prov": "Westfjords",
        "region": "u00cdsafjaru00f0arbu00e6r",
        "latt": "66.06667",
        "longt": "-23.73333",
        "address": "38417 Charlene GlensnJasonview, GA 12391"
    },
    {
        "state": "IS",
        "name": "u00deju00f3tarsker",
        "city": "Akranes",
        "prov": "West",
        "region": "Akraneskaupstau00f0ur",
        "latt": "64.3",
        "longt": "-22.08333",
        "address": "17427 Terry Expressway Apt. 865nEast Ryanton, GA 19322"
    },
    {
        "state": "IS",
        "name": "Streiti",
        "city": "Breiu00f0dalsvu00edk",
        "prov": "East",
        "region": "Breiu00f0dalshreppur",
        "latt": "64.72319",
        "longt": "-14.03631",
        "address": "4296 Jeffrey TracknLake Anthony, WA 05054"
    },
    {
        "state": "IS",
        "name": "Uppsalau00e1",
        "city": "Egilsstadir",
        "prov": "East",
        "region": "Flju00f3tsdalshu00e9rau00f0",
        "latt": "65.26667",
        "longt": "-14.38333",
        "address": "Unit 8630 Box 8422nDPO AA 07167"
    },
    {
        "state": "IS",
        "name": "Miu00f0fossar",
        "city": "Hvanneyri",
        "prov": "West",
        "region": "Borgarbyggu00f0",
        "latt": "64.54907",
        "longt": "-21.69688",
        "address": "5233 Michelle Cove Suite 231nBrianburgh, MT 83212"
    },
    {
        "state": "IS",
        "name": "Ytri-Bjarghu00f3ll",
        "city": "Reykjahlu00edu00f0",
        "prov": "Northeast",
        "region": "Sku00fatustau00f0ahreppur",
        "latt": "65.70968",
        "longt": "-16.87271",
        "address": "PSC 6535, Box 1921nAPO AA 97090"
    },
    {
        "state": "IS",
        "name": "Keflavu00edk",
        "city": "Reykjanesbaer",
        "prov": "Southern Peninsula",
        "region": "Reykjanesbu00e6r",
        "latt": "64.00492",
        "longt": "-22.56242",
        "address": "8345 Jeffrey TrailnMichaelbury, IL 84420"
    },
    {
        "state": "IS",
        "name": "Syu00f0stibu00e6r",
        "city": "Hrisey",
        "prov": "Northeast",
        "region": "Akureyrarkaupstau00f0ur",
        "latt": "65.97788",
        "longt": "-18.36717",
        "address": "8104 Mary EstatenMcfarlandton, ND 01842"
    },
    {
        "state": "IS",
        "name": "Neshreppur",
        "city": "Hellissandur",
        "prov": "West",
        "region": "Snu00e6fellsbu00e6r",
        "latt": "64.88333",
        "longt": "-23.9",
        "address": "1147 Simmons PlacenJasmineberg, KS 44404"
    },
    {
        "state": "IS",
        "name": "Uppsalau00e1",
        "city": "Egilsstadir",
        "prov": "East",
        "region": "Flju00f3tsdalshu00e9rau00f0",
        "latt": "65.26667",
        "longt": "-14.38333",
        "address": "41004 Holly MeadownPort Joseph, MO 55250"
    },
    {
        "state": "IS",
        "name": "Mu00edgindisdalur",
        "city": "Kopasker",
        "prov": "Northeast",
        "region": "Noru00f0uru00feing",
        "latt": "66.35781",
        "longt": "-16.50027",
        "address": "PSC 7870, Box 8953nAPO AP 19807"
    },
    {
        "state": "IS",
        "name": "Patreksfjordhur",
        "city": "Patreksfju00f6ru00f0ur",
        "prov": "Westfjords",
        "region": "Vesturbyggu00f0",
        "latt": "65.598665",
        "longt": "-23.994392",
        "address": "177 Austin ExpresswaynAshleychester, NH 89172"
    },
    {
        "state": "IS",
        "name": "Mu00edgindisdalur",
        "city": "Kopasker",
        "prov": "Northeast",
        "region": "Noru00f0uru00feing",
        "latt": "66.35781",
        "longt": "-16.50027",
        "address": "48042 Alison Island Apt. 404nShawnborough, TX 35638"
    },
    {
        "state": "IS",
        "name": "Sundabakki",
        "city": "Reykjavik",
        "prov": "Capital Region",
        "region": "Reykjavu00edkurborg",
        "latt": "64.15556",
        "longt": "-21.84167",
        "address": "8213 Brittany Summit Apt. 623nLake Williamport, OH 68408"
    },
    {
        "state": "IS",
        "name": "Miu00f0klettur",
        "city": "Vestmannaeyjar",
        "prov": "South",
        "region": "Vestmannaeyjabu00e6r",
        "latt": "63.45282",
        "longt": "-20.25733",
        "address": "2739 Michael Lane Apt. 639nPort Caroline, NC 63246"
    },
    {
        "state": "IS",
        "name": "Heiu00f0i",
        "city": "Kirkjubu00e6jarklaustur",
        "prov": "South",
        "region": "Skaftu00e1rhreppur",
        "latt": "63.76782",
        "longt": "-18.15166",
        "address": "602 Steven CrossroadnCherrymouth, GA 68249"
    },
    {
        "state": "IS",
        "name": "Stau00f0arhu00f3ll",
        "city": "Siglufjoerdur",
        "prov": "Northeast",
        "region": "Fjallabyggu00f0",
        "latt": "66.14824",
        "longt": "-18.88131",
        "address": "348 Tracy WalknVictoriaburgh, DC 07773"
    },
    {
        "state": "IS",
        "name": "Golfklu00fabburinn Setberg",
        "city": "Hafnarfjoerdur",
        "prov": "Capital Region",
        "region": "Garu00f0abu00e6r",
        "latt": "64.06825",
        "longt": "-21.9255",
        "address": "4848 Adams FordnPort Jamesland, AL 74269"
    },
    {
        "state": "IS",
        "name": "Pu00f3sthu00fas, Suu00f0urgu00f6tu 2 - 4",
        "city": "Sandgerdi",
        "prov": "Southern Peninsula",
        "region": "Sandgeru00f0isbu00e6r",
        "latt": "64.03811",
        "longt": "-22.70305",
        "address": "0237 Navarro Skyway Apt. 611nBrownborough, WA 10528"
    },
    {
        "state": "IS",
        "name": "Ku00e1lfafellsstau00f0ur",
        "city": "Kalfafellsstadur",
        "prov": "East",
        "region": "Sveitarfu00e9lagiu00f0 Hornafju00f6ru00f0ur",
        "latt": "64.18105",
        "longt": "-15.91391",
        "address": "925 Riley Village Suite 776nWest Samantha, PA 66504"
    },
    {
        "state": "IS",
        "name": "Uppsalau00e1",
        "city": "Egilsstadir",
        "prov": "East",
        "region": "Flju00f3tsdalshu00e9rau00f0",
        "latt": "65.26667",
        "longt": "-14.38333",
        "address": "25446 Petty Shoal Apt. 482nSouth Patrick, CO 75662"
    },
    {
        "state": "IS",
        "name": "Hornafjaru00f0aru00f3s",
        "city": "Hoefn",
        "prov": "East",
        "region": "Sveitarfu00e9lagiu00f0 Hornafju00f6ru00f0ur",
        "latt": "64.23252",
        "longt": "-15.1882",
        "address": "9690 Sheppard Extensions Apt. 312nNorth Robertbury, AR 45053"
    },
    {
        "state": "IS",
        "name": "Golfklu00fabburinn Setberg",
        "city": "Hafnarfjoerdur",
        "prov": "Capital Region",
        "region": "Garu00f0abu00e6r",
        "latt": "64.06825",
        "longt": "-21.9255",
        "address": "063 Gregory Track Apt. 955nLake Juliemouth, MA 78591"
    },
    {
        "state": "IS",
        "name": "Hundsu00e1",
        "city": "Su00e6bu00f3l",
        "prov": "Westfjords",
        "region": "u00cdsafjaru00f0arbu00e6r",
        "latt": "66.1",
        "longt": "-23.63333",
        "address": "8413 Bailey Lane Apt. 445nSaraside, OR 61648"
    },
    {
        "state": "IS",
        "name": "Heiu00f0i",
        "city": "Kirkjubu00e6jarklaustur",
        "prov": "South",
        "region": "Skaftu00e1rhreppur",
        "latt": "63.76782",
        "longt": "-18.15166",
        "address": "465 Waters RoadsnWellsview, CA 41034"
    },
    {
        "state": "IS",
        "name": "Heiu00f0i",
        "city": "Kirkjubu00e6jarklaustur",
        "prov": "South",
        "region": "Skaftu00e1rhreppur",
        "latt": "63.76782",
        "longt": "-18.15166",
        "address": "57576 Evan Lights Apt. 206nPiercefurt, IA 29643"
    },
    {
        "state": "IS",
        "name": "Hu00f3lshu00f6fu00f0i",
        "city": "Raufarhoefn",
        "prov": "Northeast",
        "region": "Noru00f0uru00feing",
        "latt": "66.43247",
        "longt": "-15.92545",
        "address": "13726 Stark Fields Suite 172nEast Ronald, NC 85499"
    },
    {
        "state": "IS",
        "name": "Hu00f3p",
        "city": "Grindavu00edk",
        "prov": "Southern Peninsula",
        "region": "Grindavu00edkurbu00e6r",
        "latt": "63.84183",
        "longt": "-22.41694",
        "address": "3430 Anderson SummitnSouth Jason, OR 21013"
    },
    {
        "state": "IS",
        "name": "Su00f6lvabakki",
        "city": "Bloenduos",
        "prov": "Northwest",
        "region": "Blu00f6nduu00f3sbu00e6r",
        "latt": "65.7082",
        "longt": "-20.27453",
        "address": "731 Anna VillagenValdezmouth, DC 60254"
    },
    {
        "state": "IS",
        "name": "Uppsalau00e1",
        "city": "Egilsstadir",
        "prov": "East",
        "region": "Flju00f3tsdalshu00e9rau00f0",
        "latt": "65.26667",
        "longt": "-14.38333",
        "address": "8898 Alicia WellnScottfort, NE 64537"
    },
    {
        "state": "IS",
        "name": "Mu00edgindisdalur",
        "city": "Kopasker",
        "prov": "Northeast",
        "region": "Noru00f0uru00feing",
        "latt": "66.35781",
        "longt": "-16.50027",
        "address": "1917 West MeadownSandersland, WI 54412"
    },
    {
        "state": "IS",
        "name": "Patreksfjordhur",
        "city": "Patreksfju00f6ru00f0ur",
        "prov": "Westfjords",
        "region": "Vesturbyggu00f0",
        "latt": "65.598665",
        "longt": "-23.994392",
        "address": "88037 Charles Club Suite 242nPort Ricardo, VT 57293"
    },
    {
        "state": "IS",
        "name": "Sundabakki",
        "city": "Reykjavik",
        "prov": "Capital Region",
        "region": "Reykjavu00edkurborg",
        "latt": "64.15556",
        "longt": "-21.84167",
        "address": "PSC 0958, Box 5129nAPO AA 70763"
    },
    {
        "state": "IS",
        "name": "Stykkishu00f3lmsbu00e6r",
        "city": "Stykkisholmur",
        "prov": "West",
        "region": "Stykkishu00f3lmsbu00e6r",
        "latt": "65.05368",
        "longt": "-22.77178",
        "address": "0926 Chavez Trail Apt. 806nSouth Tommyton, AL 17474"
    },
    {
        "state": "IS",
        "name": "Mu00edgindisdalur",
        "city": "Kopasker",
        "prov": "Northeast",
        "region": "Noru00f0uru00feing",
        "latt": "66.35781",
        "longt": "-16.50027",
        "address": "84310 Lam Parkway Apt. 035nSouth Jeffreyhaven, PA 67158"
    },
    {
        "state": "IS",
        "name": "Eyrarland",
        "city": "Akureyri",
        "prov": "Northeast",
        "region": "Eyjafjaru00f0arsveit",
        "latt": "65.66038",
        "longt": "-18.02783",
        "address": "PSC 9724, Box 2564nAPO AA 05745"
    },
    {
        "state": "IS",
        "name": "Geru00f0isflu00f3i",
        "city": "Valpjofsstau00f0ir",
        "prov": "East",
        "region": "Flju00f3tsdalshreppur",
        "latt": "65.09292",
        "longt": "-15.00708",
        "address": "Unit 6597 Box 9755nDPO AE 49780"
    },
    {
        "state": "IS",
        "name": "Sundabakki",
        "city": "Reykjavik",
        "prov": "Capital Region",
        "region": "Reykjavu00edkurborg",
        "latt": "64.15556",
        "longt": "-21.84167",
        "address": "2791 Fernandez InletnNew Davidmouth, PA 89945"
    },
    {
        "state": "IS",
        "name": "Fremra-Selvatn",
        "city": "Vatnsfjordhur",
        "prov": "Westfjords",
        "region": "Su00fau00f0avu00edkurhreppur",
        "latt": "65.86689",
        "longt": "-22.57388",
        "address": "593 Young StravenuenWest Tinaville, NV 30396"
    },
    {
        "state": "IS",
        "name": "Hornafjaru00f0aru00f3s",
        "city": "Hoefn",
        "prov": "East",
        "region": "Sveitarfu00e9lagiu00f0 Hornafju00f6ru00f0ur",
        "latt": "64.23252",
        "longt": "-15.1882",
        "address": "088 Chelsea RestnWarrenstad, ME 66264"
    },
    {
        "state": "IS",
        "name": "Geru00f0isflu00f3i",
        "city": "Valpjofsstau00f0ir",
        "prov": "East",
        "region": "Flju00f3tsdalshreppur",
        "latt": "65.09292",
        "longt": "-15.00708",
        "address": "04498 Allen SkywaynLorimouth, MD 20047"
    },
    {
        "state": "IS",
        "name": "u00cdpishu00f3ll",
        "city": "Varmahlid",
        "prov": "Northwest",
        "region": "Sveitarfu00e9lagiu00f0 Skagafju00f6ru00f0ur",
        "latt": "65.55",
        "longt": "-19.5",
        "address": "USS WilliamsnFPO AA 23495"
    },
    {
        "state": "IS",
        "name": "u00deru00e6lageru00f0i",
        "city": "Vidhirholl",
        "prov": "Northeast",
        "region": "Noru00f0uru00feing",
        "latt": "65.69528",
        "longt": "-16.07084",
        "address": "Unit 1336 Box 1302nDPO AA 70410"
    },
    {
        "state": "IS",
        "name": "Su00f6lvabakki",
        "city": "Bloenduos",
        "prov": "Northwest",
        "region": "Blu00f6nduu00f3sbu00e6r",
        "latt": "65.7082",
        "longt": "-20.27453",
        "address": "10291 Jeanne Light Suite 539nNorth Bonnieview, CT 34469"
    },
    {
        "state": "IS",
        "name": "u00cdpishu00f3ll",
        "city": "Varmahlid",
        "prov": "Northwest",
        "region": "Sveitarfu00e9lagiu00f0 Skagafju00f6ru00f0ur",
        "latt": "65.55",
        "longt": "-19.5",
        "address": "5022 Franklin GatewaynSouth Rickymouth, NY 31727"
    },
    {
        "state": "IS",
        "name": "Keflavu00edk",
        "city": "Reykjanesbaer",
        "prov": "Southern Peninsula",
        "region": "Reykjanesbu00e6r",
        "latt": "64.00492",
        "longt": "-22.56242",
        "address": "81560 Smith LandingnNew Bruce, ID 28043"
    },
    {
        "state": "IS",
        "name": "Miu00f0fossar",
        "city": "Hvanneyri",
        "prov": "West",
        "region": "Borgarbyggu00f0",
        "latt": "64.54907",
        "longt": "-21.69688",
        "address": "89200 Klein Passage Apt. 893nNew Danielton, KS 56777"
    },
    {
        "state": "IS",
        "name": "Smju00f6rdalur",
        "city": "Flokalundur",
        "prov": "Westfjords",
        "region": "Vesturbyggu00f0",
        "latt": "65.59312",
        "longt": "-23.24462",
        "address": "39738 Harper FieldsnNorth Claire, AZ 15569"
    },
    {
        "state": "IS",
        "name": "Ytri-Bjarghu00f3ll",
        "city": "Reykjahlu00edu00f0",
        "prov": "Northeast",
        "region": "Sku00fatustau00f0ahreppur",
        "latt": "65.70968",
        "longt": "-16.87271",
        "address": "4422 Hull Walks Suite 799nWest Brianton, NC 18283"
    },
    {
        "state": "IS",
        "name": "Smju00f6rdalur",
        "city": "Flokalundur",
        "prov": "Westfjords",
        "region": "Vesturbyggu00f0",
        "latt": "65.59312",
        "longt": "-23.24462",
        "address": "8976 Lam Isle Suite 287nNorth Kristopher, FL 98348"
    },
    {
        "state": "IS",
        "name": "Sundabakki",
        "city": "Reykjavik",
        "prov": "Capital Region",
        "region": "Reykjavu00edkurborg",
        "latt": "64.15556",
        "longt": "-21.84167",
        "address": "581 Day FortnPort Matthewchester, HI 64001"
    },
    {
        "state": "IS",
        "name": "Mu00edgindisdalur",
        "city": "Kopasker",
        "prov": "Northeast",
        "region": "Noru00f0uru00feing",
        "latt": "66.35781",
        "longt": "-16.50027",
        "address": "422 Crystal Spur Suite 321nBrucefurt, AZ 22563"
    },
    {
        "state": "IS",
        "name": "Miu00f0fossar",
        "city": "Hvanneyri",
        "prov": "West",
        "region": "Borgarbyggu00f0",
        "latt": "64.54907",
        "longt": "-21.69688",
        "address": "001 Anderson RidgesnSouth Johnmouth, VT 98725"
    },
    {
        "state": "IS",
        "name": "Rauu00f0sgil",
        "city": "u00c1s",
        "prov": "West",
        "region": "Borgarbyggu00f0",
        "latt": "64.65407",
        "longt": "-21.21569",
        "address": "482 Valerie SquaresnNorth Jessicaview, MO 02172"
    },
    {
        "state": "IS",
        "name": "Stykkishu00f3lmsbu00e6r",
        "city": "Stykkisholmur",
        "prov": "West",
        "region": "Stykkishu00f3lmsbu00e6r",
        "latt": "65.05368",
        "longt": "-22.77178",
        "address": "847 Charles CreeknPatriciaberg, WV 38795"
    },
    {
        "state": "IS",
        "name": "Miu00f0klettur",
        "city": "Vestmannaeyjar",
        "prov": "South",
        "region": "Vestmannaeyjabu00e6r",
        "latt": "63.45282",
        "longt": "-20.25733",
        "address": "163 Tucker SquarenSheltonport, GA 40936"
    },
    {
        "state": "IS",
        "name": "Pu00f3sturinn, Grundargu00f6tu 38",
        "city": "Grundarfjoerdur",
        "prov": "West",
        "region": "Grundarfjaru00f0arbu00e6r",
        "latt": "64.92529",
        "longt": "-23.26006",
        "address": "01209 Walker Forest Suite 799nNew James, CT 12435"
    },
    {
        "state": "IS",
        "name": "Lu00f3nafju00f6ru00f0ur",
        "city": "THorshoefn",
        "prov": "Northeast",
        "region": "Langanesbyggu00f0",
        "latt": "66.17393",
        "longt": "-15.39251",
        "address": "867 Janice Trace Suite 303nNew Kathryn, PA 11825"
    },
    {
        "state": "IS",
        "name": "Su00f6lvabakki",
        "city": "Bloenduos",
        "prov": "Northwest",
        "region": "Blu00f6nduu00f3sbu00e6r",
        "latt": "65.7082",
        "longt": "-20.27453",
        "address": "881 Daniel Manor Suite 374nBellchester, LA 72172"
    },
    {
        "state": "IS",
        "name": "Flateyrarhreppur",
        "city": "Ingjaldssandur",
        "prov": "Westfjords",
        "region": "u00cdsafjaru00f0arbu00e6r",
        "latt": "66.05",
        "longt": "-23.61667",
        "address": "08515 Jennifer Locks Suite 658nBurnsfort, SC 63731"
    },
    {
        "state": "IS",
        "name": "u00deru00e6lageru00f0i",
        "city": "Vidhirholl",
        "prov": "Northeast",
        "region": "Noru00f0uru00feing",
        "latt": "65.69528",
        "longt": "-16.07084",
        "address": "5939 Kennedy Throughway Apt. 823nBlanchardmouth, DC 98519"
    },
    {
        "state": "IS",
        "name": "u00cdpishu00f3ll",
        "city": "Varmahlid",
        "prov": "Northwest",
        "region": "Sveitarfu00e9lagiu00f0 Skagafju00f6ru00f0ur",
        "latt": "65.55",
        "longt": "-19.5",
        "address": "039 Jonathan Plains Suite 909nLake Jessicaborough, MO 35419"
    },
    {
        "state": "IS",
        "name": "u00cdpishu00f3ll",
        "city": "Varmahlid",
        "prov": "Northwest",
        "region": "Sveitarfu00e9lagiu00f0 Skagafju00f6ru00f0ur",
        "latt": "65.55",
        "longt": "-19.5",
        "address": "043 Linda RadialnThompsonville, OK 66110"
    },