[
    {
        "state": "NO",
        "name": "Tju00f8rnslu00e6ttju00f8rna",
        "city": "Holten",
        "prov": "Mu00f8re og Romsdal",
        "region": "Halsa",
        "latt": "63.07305",
        "longt": "8.67802",
        "address": "PSC 2570, Box 3184nAPO AE 74254"
    },
    {
        "state": "NO",
        "name": "Marker",
        "city": "Orje",
        "prov": "u00d8stfold",
        "region": "Marker",
        "latt": "59.47952",
        "longt": "11.65917",
        "address": "71714 Samuel PikenPort Jennifer, MD 84869"
    },
    {
        "state": "NO",
        "name": "Hatlu00f8ykru00e5ka",
        "city": "Ulsteinvik weather pws station",
        "prov": "Mu00f8re og Romsdal",
        "region": "Ulstein",
        "latt": "62.34979",
        "longt": "5.80862",
        "address": "0527 Briana RadialnHudsonshire, NM 98512"
    },
    {
        "state": "NO",
        "name": "Demmetju00f8rnhaugane",
        "city": "Sunnarvik",
        "prov": "Sogn og Fjordane",
        "region": "Flora",
        "latt": "61.56379",
        "longt": "5.46898",
        "address": "623 Cantrell JunctionsnRebeccafort, AR 41145"
    },
    {
        "state": "NO",
        "name": "Bekkegata",
        "city": "Holmestrand",
        "prov": "Vestfold",
        "region": "Holmestrand",
        "latt": "59.48973",
        "longt": "10.31475",
        "address": "6519 Robert MountainsnLake Kayla, AZ 15980"
    },
    {
        "state": "NO",
        "name": "Hammersbrua",
        "city": "Buvika",
        "prov": "Tru00f8ndelag",
        "region": "Skaun",
        "latt": "63.30858",
        "longt": "10.16477",
        "address": "188 Greg Cape Suite 761nCarterfort, IN 62556"
    },
    {
        "state": "NO",
        "name": "Vestrehagen",
        "city": "Oppsal",
        "prov": "Vest-Agder",
        "region": "Lyngdal",
        "latt": "58.18571",
        "longt": "7.20582",
        "address": "USCGC SimsnFPO AP 78166"
    },
    {
        "state": "NO",
        "name": "Tveelv",
        "city": "Fiskevik",
        "prov": "Finnmark",
        "region": "Kvalsund",
        "latt": "70.491944",
        "longt": "24.103611",
        "address": "94274 Manuel Light Apt. 070nWest Michaelbury, OH 03919"
    },
    {
        "state": "NO",
        "name": "Lu00f8kjebrue",
        "city": "Heggenes",
        "prov": "Oppland",
        "region": "u00d8ystre Slidre",
        "latt": "61.13052",
        "longt": "9.08537",
        "address": "94645 Harris GardennNew Jackie, SC 43374"
    },
    {
        "state": "NO",
        "name": "Lauvlitjenn",
        "city": "Herefoss",
        "prov": "Aust-Agder",
        "region": "Froland",
        "latt": "58.49634",
        "longt": "8.38729",
        "address": "272 Randall Crossroad Apt. 474nSouth Michelle, OR 30471"
    },
    {
        "state": "NO",
        "name": "Hu00f8neskju00e6ret",
        "city": "Kristiansund",
        "prov": "Mu00f8re og Romsdal",
        "region": "Kristiansund",
        "latt": "63.1073",
        "longt": "7.73488",
        "address": "681 Molly MissionnGutierreztown, AZ 28136"
    },
    {
        "state": "NO",
        "name": "Grindbukta",
        "city": "Vinsternes",
        "prov": "Mu00f8re og Romsdal",
        "region": "Aure",
        "latt": "63.24828",
        "longt": "8.27238",
        "address": "06308 French Crossroad Suite 694nShahville, MN 51819"
    },
    {
        "state": "NO",
        "name": "Stulstjernbekken",
        "city": "Svene",
        "prov": "Buskerud",
        "region": "Flesberg",
        "latt": "59.7983",
        "longt": "9.62466",
        "address": "46825 Mitchell Expressway Suite 048nJoshuaview, WY 27143"
    },
    {
        "state": "NO",
        "name": "Bjugn",
        "city": "Botngard",
        "prov": "Tru00f8ndelag",
        "region": "Bjugn",
        "latt": "63.76522",
        "longt": "9.8094",
        "address": "027 Morse ManornNorth Christopher, MI 33035"
    },
    {
        "state": "NO",
        "name": "Bru00f8dskjerholmen",
        "city": "Ytre Kvaroya",
        "prov": "Nordland",
        "region": "Luru00f8y",
        "latt": "66.50994",
        "longt": "12.89174",
        "address": "349 Betty FieldnNorth Jennifer, FL 18202"
    },
    {
        "state": "NO",
        "name": "Vondbekken",
        "city": "Flu00f8ttom",
        "prov": "Tru00f8ndelag",
        "region": "Midtre Gauldal",
        "latt": "62.84481",
        "longt": "10.78167",
        "address": "857 Stephen Run Suite 410nEast Ericshire, WI 11034"
    },
    {
        "state": "NO",
        "name": "Vasstakahaug",
        "city": "Balestrand",
        "prov": "Sogn og Fjordane",
        "region": "Balestrand",
        "latt": "61.16209",
        "longt": "6.53612",
        "address": "274 Robert Ridges Apt. 564nPort Michaelville, WI 77319"
    },
    {
        "state": "NO",
        "name": "Su00f8rholt",
        "city": "Levanger",
        "prov": "Tru00f8ndelag",
        "region": "Levanger",
        "latt": "63.72372",
        "longt": "11.23691",
        "address": "36273 David DalenAshleystad, IL 17943"
    },
    {
        "state": "NO",
        "name": "Sandbakken",
        "city": "Veidnes",
        "prov": "Finnmark",
        "region": "Lebesby",
        "latt": "70.655663",
        "longt": "26.605733",
        "address": "3010 Gray Bypass Suite 788nJanetton, VA 81537"
    },
    {
        "state": "NO",
        "name": "Troberget",
        "city": "Floro",
        "prov": "Sogn og Fjordane",
        "region": "Flora",
        "latt": "61.5571",
        "longt": "5.10111",
        "address": "721 Brittany ValleysnSouth Jessicafurt, DC 60027"
    },
    {
        "state": "NO",
        "name": "Motju00f8rna",
        "city": "Brenn",
        "prov": "Hedmark",
        "region": "Stor-Elvdal",
        "latt": "61.8294",
        "longt": "10.18248",
        "address": "Unit 7647 Box 8536nDPO AE 02807"
    },
    {
        "state": "NO",
        "name": "Furuvatnet",
        "city": "Simle",
        "prov": "Nordland",
        "region": "Bindal",
        "latt": "65.07543",
        "longt": "11.99944",
        "address": "2420 David TurnpikenDerrickburgh, IN 93945"
    },
    {
        "state": "NO",
        "name": "Gartnerveien",
        "city": "Stavanger",
        "prov": "Rogaland",
        "region": "Stavanger",
        "latt": "58.94735",
        "longt": "5.74046",
        "address": "01058 Ward Island Suite 768nCalvinland, DE 25367"
    },
    {
        "state": "NO",
        "name": "Stakku00f8yna",
        "city": "Hjelset",
        "prov": "Mu00f8re og Romsdal",
        "region": "Molde",
        "latt": "62.80496",
        "longt": "7.58027",
        "address": "0013 Jeanne Falls Suite 006nMichaelbury, ID 04843"
    },
    {
        "state": "NO",
        "name": "Fossdalsbekken",
        "city": "Lysthaugen",
        "prov": "Tru00f8ndelag",
        "region": "Verdal",
        "latt": "63.75764",
        "longt": "11.6335",
        "address": "523 David WaysnNorth Jeffrey, UT 63069"
    },
    {
        "state": "NO",
        "name": "Su00f8ndre Snersrud",
        "city": "Surteberg",
        "prov": "Buskerud",
        "region": "Kru00f8dsherad",
        "latt": "60.22229",
        "longt": "9.60243",
        "address": "8510 Kelly Radial Apt. 082nLake Jamesland, AL 13814"
    },
    {
        "state": "NO",
        "name": "Aslefetmyra",
        "city": "Fu00f8rle",
        "prov": "Buskerud",
        "region": "Flesberg",
        "latt": "59.87493",
        "longt": "9.39835",
        "address": "0135 Mullen GlensnEast Julianfurt, KS 58608"
    },
    {
        "state": "NO",
        "name": "Lakselv",
        "city": "Lakselv",
        "prov": "Finnmark",
        "region": "Porsanger",
        "latt": "70.05133",
        "longt": "24.97182",
        "address": "0941 Holly Forges Suite 489nNew Calebville, WV 29994"
    },
    {
        "state": "NO",
        "name": "Gjevde",
        "city": "Smedland",
        "prov": "Aust-Agder",
        "region": "u00c5mli",
        "latt": "58.95925",
        "longt": "8.17481",
        "address": "648 Williams Plaza Suite 488nWest Michellechester, OR 18776"
    },
    {
        "state": "NO",
        "name": "Motju00f8rna",
        "city": "Brenn",
        "prov": "Hedmark",
        "region": "Stor-Elvdal",
        "latt": "61.8294",
        "longt": "10.18248",
        "address": "602 Gonzalez ViewsnSouth Ellenmouth, IA 73042"
    },
    {
        "state": "NO",
        "name": "u00d8yfjellia",
        "city": "Mosju00f8en",
        "prov": "Nordland",
        "region": "Vefsn",
        "latt": "65.8382",
        "longt": "13.18002",
        "address": "5485 Adams MountnJohnburgh, SC 35726"
    },
    {
        "state": "NO",
        "name": "Rypvikodden",
        "city": "Hopen",
        "prov": "Nordland",
        "region": "Steigen",
        "latt": "67.84713",
        "longt": "15.54465",
        "address": "386 Michelle Plain Apt. 522nAndrewfurt, IL 26439"
    },
    {
        "state": "NO",
        "name": "Skjoldlbrya",
        "city": "Vu00e5je",
        "prov": "Nordland",
        "region": "Vestvu00e5gu00f8y",
        "latt": "68.22641",
        "longt": "13.42504",
        "address": "93247 Watson CapenJenniferchester, OK 14482"
    },
    {
        "state": "NO",
        "name": "Skardhaugane",
        "city": "Kalvik",
        "prov": "Hordaland",
        "region": "Kvinnherad",
        "latt": "59.80042",
        "longt": "6.13558",
        "address": "47110 Jeffrey RoadsnBaileyberg, NJ 41012"
    },
    {
        "state": "NO",
        "name": "Amarkus",
        "city": "Hognfjord",
        "prov": "Nordland",
        "region": "Sortland",
        "latt": "68.76001",
        "longt": "15.63759",
        "address": "8883 Watkins Pines Apt. 538nNorth Larry, OK 36065"
    },
    {
        "state": "NO",
        "name": "Bakkatju00f8rnane",
        "city": "Eike",
        "prov": "Rogaland",
        "region": "Tysvu00e6r",
        "latt": "59.43873",
        "longt": "5.39424",
        "address": "97904 Cook WallnPalmerville, MS 95380"
    },
    {
        "state": "NO",
        "name": "Tonafjellet",
        "city": "Askoy",
        "prov": "Hordaland",
        "region": "Fjell",
        "latt": "60.36291",
        "longt": "5.14957",
        "address": "06505 Jamie ForksnDawnville, WY 39445"
    },
    {
        "state": "NO",
        "name": "Goeknuten",
        "city": "Breland",
        "prov": "Vest-Agder",
        "region": "u00c5seral",
        "latt": "58.74462",
        "longt": "7.32828",
        "address": "42111 Richard Plaza Suite 966nEnglishmouth, DC 19271"
    },
    {
        "state": "NO",
        "name": "Skardhaugane",
        "city": "Kalvik",
        "prov": "Hordaland",
        "region": "Kvinnherad",
        "latt": "59.80042",
        "longt": "6.13558",
        "address": "5691 Wright PointnWest Yeseniachester, OH 85857"
    },
    {
        "state": "NO",
        "name": "Lavangen",
        "city": "Tennevollen",
        "prov": "Troms",
        "region": "Lavangen",
        "latt": "68.74722",
        "longt": "17.80558",
        "address": "60563 Ernest ShoresnCatherinemouth, NC 21969"
    },
    {
        "state": "NO",
        "name": "Kvitvasselva",
        "city": "Nedre Hjartu00e5sen",
        "prov": "Nordland",
        "region": "Rana",
        "latt": "66.56667",
        "longt": "14.95",
        "address": "68259 Dustin Ranch Suite 309nMikeport, MA 32068"
    },
    {
        "state": "NO",
        "name": "Brandstveit",
        "city": "Lofthus",
        "prov": "Hordaland",
        "region": "Ullensvang",
        "latt": "60.36033",
        "longt": "6.62925",
        "address": "171 Craig GrovesnLake Connie, WV 37638"
    },
    {
        "state": "NO",
        "name": "Katrinebru00e5ten",
        "city": "Bekken",
        "prov": "Hedmark",
        "region": "Kongsvinger",
        "latt": "60.12546",
        "longt": "12.41947",
        "address": "5906 Jennifer LodgenWest Henry, ND 18847"
    },
    {
        "state": "NO",
        "name": "Lihesten",
        "city": "Lundeland",
        "prov": "Sogn og Fjordane",
        "region": "Hyllestad",
        "latt": "61.17499",
        "longt": "5.21449",
        "address": "398 Ward Mountain Suite 119nOmarchester, MI 33176"
    },
    {
        "state": "NO",
        "name": "Ru00e5sabekken",
        "city": "Tengesdal",
        "prov": "Rogaland",
        "region": "Suldal",
        "latt": "59.5586",
        "longt": "6.43413",
        "address": "19308 Jaime PathnBrewerfort, AL 61488"
    },
    {
        "state": "NO",
        "name": "Nondagsisen",
        "city": "Reinvika",
        "prov": "Nordland",
        "region": "Steigen",
        "latt": "67.7813",
        "longt": "15.72259",
        "address": "18157 Cathy Spurs Suite 266nNorth James, UT 62169"
    },
    {
        "state": "NO",
        "name": "Tu00f8rsju00f8dalen",
        "city": "Gullset",
        "prov": "Tru00f8ndelag",
        "region": "Selbu",
        "latt": "63.15774",
        "longt": "11.01721",
        "address": "64496 James VistanRobinsonport, NM 16028"
    },
    {
        "state": "NO",
        "name": "Bukkelvlia",
        "city": "Botn",
        "prov": "Nordland",
        "region": "Evenes",
        "latt": "68.45947",
        "longt": "17.18433",
        "address": "PSC 0183, Box 1852nAPO AA 88920"
    },
    {
        "state": "NO",
        "name": "Gjuvstaulgjuvet",
        "city": "Flatbygdi",
        "prov": "Telemark",
        "region": "Seljord",
        "latt": "59.53774",
        "longt": "8.53456",
        "address": "52190 Erica LandnJeffreyfurt, AR 80772"
    },
    {
        "state": "NO",
        "name": "Liabu00f8tru00f8a",
        "city": "Liaboen",
        "prov": "Mu00f8re og Romsdal",
        "region": "Halsa",
        "latt": "63.11865",
        "longt": "8.31483",
        "address": "516 Daniel Unions Suite 713nLake Alyssabury, WV 46842"
    },
    {
        "state": "NO",
        "name": "Vikesu00e5bakken",
        "city": "Vikesa",
        "prov": "Rogaland",
        "region": "Bjerkreim",
        "latt": "58.6356",
        "longt": "6.08211",
        "address": "52089 Janet Islands Apt. 548nNorth Jillianshire, AL 15097"
    },
    {
        "state": "NO",
        "name": "Saalijoki",
        "city": "Gorbovuotna",
        "prov": "Finnmark",
        "region": "Porsanger",
        "latt": "70.36961",
        "longt": "25.09157",
        "address": "PSC 5326, Box 6225nAPO AP 67859"
    },
    {
        "state": "NO",
        "name": "Bustatangen",
        "city": "Tunnsjororvika",
        "prov": "Tru00f8ndelag",
        "region": "Raarvihke - Ru00f8yrvik",
        "latt": "64.79139",
        "longt": "13.38089",
        "address": "475 Dillon TurnpikenEast Richardshire, PA 09777"
    },
    {
        "state": "NO",
        "name": "Nygu00e5rdstinden",
        "city": "Litleberget",
        "prov": "Nordland",
        "region": "Narvik",
        "latt": "68.48024",
        "longt": "17.74944",
        "address": "PSC 9550, Box 4555nAPO AP 23994"
    },
    {
        "state": "NO",
        "name": "Gartnerveien",
        "city": "Stavanger",
        "prov": "Rogaland",
        "region": "Stavanger",
        "latt": "58.94735",
        "longt": "5.74046",
        "address": "65873 Joseph MallnWest Carolburgh, SC 83369"
    },
    {
        "state": "NO",
        "name": "Vu00e5gengskardet",
        "city": "Svenolsavika",
        "prov": "Nordland",
        "region": "Ru00f8du00f8y",
        "latt": "66.70556",
        "longt": "13.29405",
        "address": "3180 Ramirez PointsnNorth Bridgetview, SC 09628"
    },
    {
        "state": "NO",
        "name": "Hofstad",
        "city": "Hofstad",
        "prov": "Tru00f8ndelag",
        "region": "Roan",
        "latt": "64.19763",
        "longt": "10.4033",
        "address": "24192 Hunter Path Apt. 929nJenniferfort, WI 87995"
    },
    {
        "state": "NO",
        "name": "Skjoldavegen",
        "city": "Haugesund",
        "prov": "Rogaland",
        "region": "Haugesund",
        "latt": "59.41646",
        "longt": "5.27259",
        "address": "6810 Aaron CornernBryantport, MD 35638"
    },
    {
        "state": "NO",
        "name": "Fu00e6ringsholman",
        "city": "Flatval",
        "prov": "Tru00f8ndelag",
        "region": "Fru00f8ya",
        "latt": "63.67037",
        "longt": "8.27334",
        "address": "PSC 5519, Box 3490nAPO AA 51485"
    },
    {
        "state": "NO",
        "name": "Su00f8ndre Snersrud",
        "city": "Surteberg",
        "prov": "Buskerud",
        "region": "Kru00f8dsherad",
        "latt": "60.22229",
        "longt": "9.60243",
        "address": "438 James OverpassnEast Janeside, MD 85392"
    },
    {
        "state": "NO",
        "name": "u00c5rumvann",
        "city": "Grorud",
        "prov": "Telemark",
        "region": "Siljan",
        "latt": "59.37561",
        "longt": "9.75153",
        "address": "907 Alexis Junctions Apt. 786nHillland, TX 94093"
    },
    {
        "state": "NO",
        "name": "Tju00f8rnabottsvarden",
        "city": "Dale",
        "prov": "Hordaland",
        "region": "Voss",
        "latt": "60.63814",
        "longt": "5.84311",
        "address": "8133 Harold Crest Apt. 248nPort Kathleentown, AK 90385"
    },
    {
        "state": "NO",
        "name": "Drangedal",
        "city": "Prestestranda",
        "prov": "Telemark",
        "region": "Drangedal",
        "latt": "59.09655",
        "longt": "9.0596",
        "address": "646 Daniel Lock Apt. 671nDeannafort, MO 71400"
    },
    {
        "state": "NO",
        "name": "Bju00f8rnekjerra",
        "city": "Su00f8ndeled",
        "prov": "Aust-Agder",
        "region": "Risu00f8r",
        "latt": "58.76508",
        "longt": "9.06374",
        "address": "149 Melissa Overpass Suite 910nLake Ericville, NE 50604"
    },
    {
        "state": "NO",
        "name": "Valbysta",
        "city": "Hemnesberget",
        "prov": "Nordland",
        "region": "Hemnes",
        "latt": "66.183333",
        "longt": "13.566667",
        "address": "3361 Cindy ForgesnClaymouth, UT 75262"
    },
    {
        "state": "NO",
        "name": "Suttuhaugen",
        "city": "Lokken Verk",
        "prov": "Tru00f8ndelag",
        "region": "Meldal",
        "latt": "63.111",
        "longt": "9.67439",
        "address": "060 Leonard Spring Suite 331nWest Jennifer, TX 24617"
    },
    {
        "state": "NO",
        "name": "Vu00e5ttfloen",
        "city": "Aas",
        "prov": "Tru00f8ndelag",
        "region": "Tydal",
        "latt": "63.0514",
        "longt": "11.64091",
        "address": "340 Williams OvalnPort Deanna, TN 34086"
    },
    {
        "state": "NO",
        "name": "Nibbetju00f8rn",
        "city": "Lisetstol",
        "prov": "Telemark",
        "region": "Tinn",
        "latt": "59.96522",
        "longt": "8.62857",
        "address": "74668 Rebekah EstatenPort Jennifer, NJ 10012"
    },
    {
        "state": "NO",
        "name": "Farger",
        "city": "Sandane",
        "prov": "Sogn og Fjordane",
        "region": "Gloppen",
        "latt": "61.77645",
        "longt": "6.21621",
        "address": "48089 Hernandez WaynPort Judymouth, DE 48721"
    },
    {
        "state": "NO",
        "name": "Bw Svolvaer Hotell Lofoten",
        "city": "Svolvaer",
        "prov": "Nordland",
        "region": "Vu00e5gan",
        "latt": "68.2333",
        "longt": "14.5666",
        "address": "891 Ryan Vista Suite 003nJeffreyfort, MO 50620"
    },
    {
        "state": "NO",
        "name": "Makrellheia",
        "city": "Fillan",
        "prov": "Tru00f8ndelag",
        "region": "Hitra",
        "latt": "63.57147",
        "longt": "8.9644",
        "address": "334 Rollins Port Suite 972nMejiafurt, TN 11943"
    },
    {
        "state": "NO",
        "name": "Raudbergsholten",
        "city": "Andalen",
        "prov": "Nordland",
        "region": "Vevelstad",
        "latt": "65.62778",
        "longt": "12.50683",
        "address": "USNV PereznFPO AE 23158"
    },
    {
        "state": "NO",
        "name": "Anlaugsholune",
        "city": "Bu00f8",
        "prov": "Telemark",
        "region": "Bu00f8",
        "latt": "59.46851",
        "longt": "9.00197",
        "address": "1536 April ThroughwaynAllenburgh, AZ 20471"
    },
    {
        "state": "NO",
        "name": "Breidvikkollen",
        "city": "Sandfjord",
        "prov": "Troms",
        "region": "Karlsu00f8y",
        "latt": "70.24874",
        "longt": "19.63737",
        "address": "326 Jane InletnJamieville, MN 64467"
    },
    {
        "state": "NO",
        "name": "Grindbukta",
        "city": "Vinsternes",
        "prov": "Mu00f8re og Romsdal",
        "region": "Aure",
        "latt": "63.24828",
        "longt": "8.27238",
        "address": "3623 Maynard StreetnWest Sarah, TN 75873"
    },
    {
        "state": "NO",
        "name": "u00c5rnesbrua",
        "city": "A i Afjord",
        "prov": "Tru00f8ndelag",
        "region": "u00c5fjord",
        "latt": "63.96154",
        "longt": "10.22237",
        "address": "35029 Brandon JunctionnKellytown, DE 90781"
    },
    {
        "state": "NO",
        "name": "Vesleslethaugen",
        "city": "Lu00f8nset",
        "prov": "Tru00f8ndelag",
        "region": "Oppdal",
        "latt": "62.616667",
        "longt": "9.316667",
        "address": "47674 Spears Circles Apt. 143nNew Timothychester, ID 48425"
    },
    {
        "state": "NO",
        "name": "Steinsvannet",
        "city": "Loyte",
        "prov": "Aust-Agder",
        "region": "Gjerstad",
        "latt": "58.87557",
        "longt": "8.93512",
        "address": "852 Kline StreetnPhillipston, PA 88824"
    },
    {
        "state": "NO",
        "name": "Bju00f8rnekjerra",
        "city": "Su00f8ndeled",
        "prov": "Aust-Agder",
        "region": "Risu00f8r",
        "latt": "58.76508",
        "longt": "9.06374",
        "address": "618 Schmidt Divide Suite 018nSouth Johnfurt, GA 28831"
    },
    {
        "state": "NO",
        "name": "Teltnes",
        "city": "Lavvonju00e1rga",
        "prov": "Finnmark",
        "region": "Tana",
        "latt": "70.510726",
        "longt": "28.469078",
        "address": "2089 Austin Vista Apt. 545nSerranotown, ID 84006"
    },
    {
        "state": "NO",
        "name": "Klopptjern",
        "city": "Linstad",
        "prov": "Oppland",
        "region": "Gran",
        "latt": "60.38568",
        "longt": "10.61723",
        "address": "853 David BrooknNorth Julieshire, NC 41993"
    },
    {
        "state": "NO",
        "name": "Osemyr",
        "city": "Tveitsund",
        "prov": "Telemark",
        "region": "Nissedal",
        "latt": "59.02165",
        "longt": "8.52111",
        "address": "7299 Sandra Meadow Suite 923nSmithbury, SD 59209"
    },
    {
        "state": "NO",
        "name": "Grova",
        "city": "Grova",
        "prov": "Tru00f8ndelag",
        "region": "Orkdal",
        "latt": "63.29445",
        "longt": "9.84449",
        "address": "483 Johnson FlatnNorth Katieville, ND 52358"
    },
    {
        "state": "NO",
        "name": "Drangedal",
        "city": "Prestestranda",
        "prov": "Telemark",
        "region": "Drangedal",
        "latt": "59.09655",
        "longt": "9.0596",
        "address": "44649 Jeremy Court Suite 733nRobinsonshire, CT 47975"
    },
    {
        "state": "NO",
        "name": "Munkejord",
        "city": "Vedavagen",
        "prov": "Rogaland",
        "region": "Karmu00f8y",
        "latt": "59.29156",
        "longt": "5.22742",
        "address": "20537 Jessica Track Apt. 654nLake Karenstad, SC 49022"
    },
    {
        "state": "NO",
        "name": "Anlaugsholune",
        "city": "Bu00f8",
        "prov": "Telemark",
        "region": "Bu00f8",
        "latt": "59.46851",
        "longt": "9.00197",
        "address": "1094 Williams RunnPort Ryan, OK 21064"
    },
    {
        "state": "NO",
        "name": "Bismo",
        "city": "Bismoen",
        "prov": "Oppland",
        "region": "Skju00e5k",
        "latt": "61.88406",
        "longt": "8.26665",
        "address": "3634 Reginald FallsnPort Ray, IA 74513"
    },
    {
        "state": "NO",
        "name": "Kabyholmen",
        "city": "Opphaug",
        "prov": "Tru00f8ndelag",
        "region": "Bjugn",
        "latt": "63.75655",
        "longt": "9.66837",
        "address": "73602 Juarez VianEast Troyton, CT 49878"
    },
    {
        "state": "NO",
        "name": "Hornindal",
        "city": "Grodas",
        "prov": "Sogn og Fjordane",
        "region": "Hornindal",
        "latt": "61.96921",
        "longt": "6.52418",
        "address": "71549 Sanford Village Suite 423nEast Joanport, SC 45301"
    },
    {
        "state": "NO",
        "name": "Byskogen",
        "city": "Larvik",
        "prov": "Vestfold",
        "region": "Larvik",
        "latt": "59.05526",
        "longt": "10.05371",
        "address": "455 Danielle Shoals Suite 952nNew Richardchester, MS 39614"
    },
    {
        "state": "NO",
        "name": "Barbubekken",
        "city": "Arendal",
        "prov": "Aust-Agder",
        "region": "Arendal",
        "latt": "58.46259",
        "longt": "8.77406",
        "address": "8570 Jennifer Ports Suite 259nJohnsonborough, MI 66125"
    },
    {
        "state": "NO",
        "name": "Hamnesvola",
        "city": "Kolgrov",
        "prov": "Sogn og Fjordane",
        "region": "Solund",
        "latt": "60.93861",
        "longt": "4.61755",
        "address": "6223 April HollownLake Stephen, AK 69247"
    },
    {
        "state": "NO",
        "name": "Norheimsund",
        "city": "Norheimsund",
        "prov": "Hordaland",
        "region": "Kvam",
        "latt": "60.37089",
        "longt": "6.14562",
        "address": "87664 Cheryl CrestnEast Jessica, MT 40889"
    },
    {
        "state": "NO",
        "name": "Gjersdalen",
        "city": "Tveit",
        "prov": "Vest-Agder",
        "region": "Kristiansand",
        "latt": "58.21111",
        "longt": "8.11032",
        "address": "94953 Oliver Motorway Suite 104nLeeburgh, TN 42613"
    },
    {
        "state": "NO",
        "name": "Lauvlitjenn",
        "city": "Herefoss",
        "prov": "Aust-Agder",
        "region": "Froland",
        "latt": "58.49634",
        "longt": "8.38729",
        "address": "81142 Jerome VillenEast Nichole, WA 13468"
    },
    {
        "state": "NO",
        "name": "Sju00f8lsvikbukta",
        "city": "Angvika",
        "prov": "Mu00f8re og Romsdal",
        "region": "Gjemnes",
        "latt": "62.90454",
        "longt": "8.10155",
        "address": "21590 Moreno Manors Apt. 811nLake Kristineville, RI 70031"
    },
    {
        "state": "NO",
        "name": "Skredbekklia",
        "city": "Lauksletta",
        "prov": "Nordland",
        "region": "Beiarn",
        "latt": "66.75203",
        "longt": "14.55182",
        "address": "Unit 7312 Box 2906nDPO AA 70093"
    },
    {
        "state": "NO",
        "name": "Posemosan",
        "city": "Trandum",
        "prov": "u00d8stfold",
        "region": "Ru00f8mskog",
        "latt": "59.7405",
        "longt": "11.91712",
        "address": "4280 Rodriguez FreewaynWest Mindy, WY 98140"
    },
    {
        "state": "NO",
        "name": "Rasten",
        "city": "Rasten",
        "prov": "Akershus",
        "region": "Oppegu00e5rd",
        "latt": "59.81262",
        "longt": "10.80015",
        "address": "41300 Decker RoadsnPort Michelle, IA 86129"
    },
    {
        "state": "NO",
        "name": "Stolsvassu00e5na",
        "city": "Gautefall",
        "prov": "Telemark",
        "region": "Nissedal",
        "latt": "59.00456",
        "longt": "8.7619",
        "address": "74276 Claudia MillsnEast Michaelberg, ME 98055"
    },
    {
        "state": "NO",
        "name": "Tonstadbekken",
        "city": "Tonstad",
        "prov": "Vest-Agder",
        "region": "Sirdal",
        "latt": "58.66457",
        "longt": "6.71649",
        "address": "USS GainesnFPO AP 42603"
    },
    {
        "state": "NO",
        "name": "Husanotten",
        "city": "Jondal",
        "prov": "Hordaland",
        "region": "Jondal",
        "latt": "60.28751",
        "longt": "6.25876",
        "address": "356 William Mountain Apt. 208nLake Mauricechester, ID 48987"
    },
    {
        "state": "NO",
        "name": "Kyrkjebygdi",
        "city": "Kyrkjebygdi",
        "prov": "Vest-Agder",
        "region": "u00c5seral",
        "latt": "58.61524",
        "longt": "7.41391",
        "address": "08592 Lawrence Well Suite 135nJenniferport, TN 22889"
    },
    {
        "state": "NO",
        "name": "Grova",
        "city": "Grova",
        "prov": "Tru00f8ndelag",
        "region": "Orkdal",
        "latt": "63.29445",
        "longt": "9.84449",
        "address": "6868 Holloway KnollsnBaileyville, WI 27608"
    },
    {
        "state": "NO",
        "name": "Sarpsborg",
        "city": "Sarpsborg",
        "prov": "u00d8stfold",
        "region": "Sarpsborg",
        "latt": "59.28391",
        "longt": "11.10962",
        "address": "254 Laura DalenFosterton, IA 61209"
    },
    {
        "state": "NO",
        "name": "Dokk",
        "city": "Haeim",
        "prov": "Buskerud",
        "region": "u00c5l",
        "latt": "60.70593",
        "longt": "8.47864",
        "address": "6456 Wright EstatesnSusanstad, VA 10940"
    },
    {
        "state": "NO",
        "name": "Tju00f8rnabottsvarden",
        "city": "Dale",
        "prov": "Hordaland",
        "region": "Voss",
        "latt": "60.63814",
        "longt": "5.84311",
        "address": "71866 Kathy Track Apt. 177nNorth Christopherside, ID 24795"
    },
    {
        "state": "NO",
        "name": "Nysu00e6tri",
        "city": "Nysaetri",
        "prov": "Oppland",
        "region": "Skju00e5k",
        "latt": "62.01457",
        "longt": "7.77534",
        "address": "8932 Hodge UnionsnNew Joseph, IN 67311"
    },
    {
        "state": "NO",
        "name": "Bergerkju00f8len",
        "city": "Berge",
        "prov": "Hedmark",
        "region": "Elverum",
        "latt": "61.05915",
        "longt": "11.81406",
        "address": "1109 Ashley LodgenDavisburgh, WI 33007"
    },
    {
        "state": "NO",
        "name": "Tonafjellet",
        "city": "Askoy",
        "prov": "Hordaland",
        "region": "Fjell",
        "latt": "60.36291",
        "longt": "5.14957",
        "address": "08680 Park Wells Suite 258nWest Shelby, IN 96301"
    },
    {
        "state": "NO",
        "name": "Sku00e5lestrondi",
        "city": "Sku00e5lestrondi",
        "prov": "Telemark",
        "region": "Vinje",
        "latt": "59.66273",
        "longt": "8.03801",
        "address": "Unit 9563 Box 9494nDPO AE 19578"
    },
    {
        "state": "NO",
        "name": "Skardhaugane",
        "city": "Kalvik",
        "prov": "Hordaland",
        "region": "Kvinnherad",
        "latt": "59.80042",
        "longt": "6.13558",
        "address": "27921 Hudson ViewnAllentown, MO 59216"
    },
    {
        "state": "NO",
        "name": "Vikesu00e5bakken",
        "city": "Vikesa",
        "prov": "Rogaland",
        "region": "Bjerkreim",
        "latt": "58.6356",
        "longt": "6.08211",
        "address": "0916 Hunter Trafficway Apt. 872nCarlfurt, WA 93159"
    },
    {
        "state": "NO",
        "name": "Gjuvstaulgjuvet",
        "city": "Flatbygdi",
        "prov": "Telemark",
        "region": "Seljord",
        "latt": "59.53774",
        "longt": "8.53456",
        "address": "77405 Cunningham Inlet Apt. 405nColinstad, AZ 60154"
    },
    {
        "state": "NO",
        "name": "Rimu00e5smyr",
        "city": "Skiftenes",
        "prov": "Aust-Agder",
        "region": "Grimstad",
        "latt": "58.40349",
        "longt": "8.51559",
        "address": "770 Garcia VistanLake Ashley, GA 93978"
    },
    {
        "state": "NO",
        "name": "Vikesu00e5bakken",
        "city": "Vikesa",
        "prov": "Rogaland",
        "region": "Bjerkreim",
        "latt": "58.6356",
        "longt": "6.08211",
        "address": "3657 Dalton RoadsnSouth Ralph, MD 57376"
    },
    {
        "state": "NO",
        "name": "Husmosen",
        "city": "Prestebakke",
        "prov": "u00d8stfold",
        "region": "Halden",
        "latt": "59.00927",
        "longt": "11.56132",
        "address": "4570 Murray LandingnSouth Terry, ME 53307"
    },
    {
        "state": "NO",
        "name": "u010cuotnjatbovdna",
        "city": "Suossjavri",
        "prov": "Finnmark",
        "region": "Karasjok",
        "latt": "69.38041",
        "longt": "24.26505",
        "address": "6404 Franklin ForgesnNorth Daniel, WY 78987"
    },
    {
        "state": "NO",
        "name": "Ollernes",
        "city": "Hevik",
        "prov": "Hordaland",
        "region": "Vaksdal",
        "latt": "60.77998",
        "longt": "5.8782",
        "address": "USS WilsonnFPO AE 56134"
    },
    {
        "state": "NO",
        "name": "Drugen",
        "city": "Nodsinni",
        "prov": "Oppland",
        "region": "Nordre Land",
        "latt": "60.85057",
        "longt": "9.94881",
        "address": "612 Shane Ports Apt. 245nPort Katherine, WA 41840"
    },
    {
        "state": "NO",
        "name": "Kibergsnesvatnan",
        "city": "Kiberg",
        "prov": "Finnmark",
        "region": "Vardu00f8",
        "latt": "70.29225",
        "longt": "31.03473",
        "address": "53421 Brandy Meadows Apt. 413nStephaniemouth, MA 88956"
    },
    {
        "state": "NO",
        "name": "Stordalsbakkane",
        "city": "Moseid",
        "prov": "Aust-Agder",
        "region": "Evje og Hornnes",
        "latt": "58.62687",
        "longt": "7.7811",
        "address": "607 Stephanie DividenLake Melinda, MS 02675"
    },
    {
        "state": "NO",
        "name": "Svelgen",
        "city": "Svelgen",
        "prov": "Sogn og Fjordane",
        "region": "Bremanger",
        "latt": "61.76976",
        "longt": "5.29544",
        "address": "PSC 5639, Box 6817nAPO AE 22224"
    },
    {
        "state": "NO",
        "name": "Su00f8reide",
        "city": "Ytrebygda",
        "prov": "Hordaland",
        "region": "Bergen",
        "latt": "60.31518",
        "longt": "5.27121",
        "address": "82704 Cynthia MeadowsnWest David, KY 98111"
    },
    {
        "state": "NO",
        "name": "Hardbakke",
        "city": "Hardbakke",
        "prov": "Sogn og Fjordane",
        "region": "Solund",
        "latt": "61.07562",
        "longt": "4.84111",
        "address": "237 Jessica Divide Apt. 148nLopezchester, VT 40459"
    },
    {
        "state": "NO",
        "name": "Vu00e5ttfloen",
        "city": "Aas",
        "prov": "Tru00f8ndelag",
        "region": "Tydal",
        "latt": "63.0514",
        "longt": "11.64091",
        "address": "94183 Jessica CrossingnSouth Patrickside, AZ 87217"
    },
    {
        "state": "NO",
        "name": "Falningssju00f6en",
        "city": "Kvikne",
        "prov": "Hedmark",
        "region": "Tynset",
        "latt": "62.6",
        "longt": "10.416667",
        "address": "293 Long BypassnAustinfurt, TN 76508"
    },
    {
        "state": "NO",
        "name": "Hollandsk Gjestehus",
        "city": "Vinstra",
        "prov": "Oppland",
        "region": "Nord-Fron",
        "latt": "61.59944",
        "longt": "9.74101",
        "address": "82281 Jonathan RapidnWest Wendy, ID 68999"
    },
    {
        "state": "NO",
        "name": "Demmetju00f8rnhaugane",
        "city": "Sunnarvik",
        "prov": "Sogn og Fjordane",
        "region": "Flora",
        "latt": "61.56379",
        "longt": "5.46898",
        "address": "39950 Nelson Circle Suite 762nEast Ronaldland, MS 37086"
    },
    {
        "state": "NO",
        "name": "Kvennhauggrova",
        "city": "Elnesvu00e5gen",
        "prov": "Mu00f8re og Romsdal",
        "region": "Fru00e6na",
        "latt": "62.91098",
        "longt": "7.19236",
        "address": "4788 Alvarez WaynLake Teresa, ID 38057"
    },
    {
        "state": "NO",
        "name": "Nordtveitslene",
        "city": "Bykle",
        "prov": "Aust-Agder",
        "region": "Bykle",
        "latt": "59.38693",
        "longt": "7.25892",
        "address": "75545 Jean Street Suite 249nLake Diane, IA 05341"
    },
    {
        "state": "NO",
        "name": "Langstrandosen",
        "city": "Offersu00f8y",
        "prov": "Nordland",
        "region": "Lu00f8dingen",
        "latt": "68.31018",
        "longt": "15.65142",
        "address": "816 Devin MountainnKathleenburgh, OH 89686"
    },
    {
        "state": "NO",
        "name": "Holsenga",
        "city": "Auli",
        "prov": "Akershus",
        "region": "Nes",
        "latt": "60.09244",
        "longt": "11.36564",
        "address": "98561 Dixon GrovenKellyview, CA 01241"
    },
    {
        "state": "NO",
        "name": "Ramberg",
        "city": "Ramberg",
        "prov": "Nordland",
        "region": "Bu00f8",
        "latt": "68.63344",
        "longt": "14.62503",
        "address": "7078 Robert KeynSouth Kristinamouth, ID 53268"
    },
    {
        "state": "NO",
        "name": "Vikesu00e5bakken",
        "city": "Vikesa",
        "prov": "Rogaland",
        "region": "Bjerkreim",
        "latt": "58.6356",
        "longt": "6.08211",
        "address": "USNV CraignFPO AA 35917"
    },
    {
        "state": "NO",
        "name": "Lu00f8kjebrue",
        "city": "Heggenes",
        "prov": "Oppland",
        "region": "u00d8ystre Slidre",
        "latt": "61.13052",
        "longt": "9.08537",
        "address": "Unit 3170 Box 9089nDPO AP 56616"
    },
    {
        "state": "NO",
        "name": "Sundsstu00f8ylen",
        "city": "Skei",
        "prov": "Sogn og Fjordane",
        "region": "Ju00f8lster",
        "latt": "61.53214",
        "longt": "6.47188",
        "address": "37548 Tony PlainsnEast Randybury, WA 57758"
    },
    {
        "state": "NO",
        "name": "Ektvet",
        "city": "Gju00f8tteru00f8d",
        "prov": "Vestfold",
        "region": "Re",
        "latt": "59.4",
        "longt": "10.133333",
        "address": "90214 Andrew PortnVeronicaland, VT 27672"
    },
    {
        "state": "NO",
        "name": "Drugen",
        "city": "Nodsinni",
        "prov": "Oppland",
        "region": "Nordre Land",
        "latt": "60.85057",
        "longt": "9.94881",
        "address": "70140 Daniel Trace Suite 544nPort Eddiemouth, MI 11170"
    },
    {
        "state": "NO",
        "name": "Lauvlitjenn",
        "city": "Herefoss",
        "prov": "Aust-Agder",
        "region": "Froland",
        "latt": "58.49634",
        "longt": "8.38729",
        "address": "11939 Chen Radial Suite 013nNorth Michelleport, IL 07489"
    },
    {
        "state": "NO",
        "name": "Suttuhaugen",
        "city": "Lokken Verk",
        "prov": "Tru00f8ndelag",
        "region": "Meldal",
        "latt": "63.111",
        "longt": "9.67439",
        "address": "14041 Brandy SpursnDavidhaven, AL 97076"
    },
    {
        "state": "NO",
        "name": "Gju00e6ra",
        "city": "Vatne",
        "prov": "Mu00f8re og Romsdal",
        "region": "Skodje",
        "latt": "62.52788",
        "longt": "6.62418",
        "address": "04554 Amanda Street Apt. 255nPort Jamesmouth, WA 40978"
    },
    {
        "state": "NO",
        "name": "Stuu00e5lia",
        "city": "Mauset",
        "prov": "Mu00f8re og Romsdal",
        "region": "Surnadal",
        "latt": "63.02675",
        "longt": "8.87031",
        "address": "077 Jonathan InletnEast Allison, AL 49516"
    },
    {
        "state": "NO",
        "name": "Vasskoppen",
        "city": "Orsta",
        "prov": "Mu00f8re og Romsdal",
        "region": "u00d8rsta",
        "latt": "62.23511",
        "longt": "6.10097",
        "address": "9992 Scott Circles Apt. 921nPort Susan, IL 44529"
    },
    {
        "state": "NO",
        "name": "Skinnstu00f8det",
        "city": "Stryn",
        "prov": "Sogn og Fjordane",
        "region": "Stryn",
        "latt": "61.88156",
        "longt": "6.76795",
        "address": "5889 Christine Harbor Apt. 396nNorth Daniel, LA 69626"
    },
    {
        "state": "NO",
        "name": "Vasstakahaug",
        "city": "Balestrand",
        "prov": "Sogn og Fjordane",
        "region": "Balestrand",
        "latt": "61.16209",
        "longt": "6.53612",
        "address": "85312 Jasmine HillnHarrisborough, MA 01231"
    },
    {
        "state": "NO",
        "name": "Tu00e5ru00e5nu00e5sen",
        "city": "Veggli",
        "prov": "Buskerud",
        "region": "Rollag",
        "latt": "60.05496",
        "longt": "9.11689",
        "address": "4336 Mary IslandsnGreenland, WA 88456"
    },
    {
        "state": "NO",
        "name": "Audnedal",
        "city": "Konsmo",
        "prov": "Vest-Agder",
        "region": "Audnedal",
        "latt": "58.28378",
        "longt": "7.35487",
        "address": "Unit 3876 Box 1941nDPO AE 05715"
    },
    {
        "state": "NO",
        "name": "Bru00f8stadelva",
        "city": "Brostadbotn",
        "prov": "Troms",
        "region": "Dyru00f8y",
        "latt": "69.08694",
        "longt": "17.69778",
        "address": "9357 Michael LodgenNorth Danielside, MI 46594"
    },
    {
        "state": "NO",
        "name": "Kasperstua",
        "city": "Gjovik",
        "prov": "Hedmark",
        "region": "Ringsaker",
        "latt": "60.83798",
        "longt": "10.75879",
        "address": "663 Michelle CliffnMoorechester, DC 50258"
    },
    {
        "state": "NO",
        "name": "Nondagsisen",
        "city": "Reinvika",
        "prov": "Nordland",
        "region": "Steigen",
        "latt": "67.7813",
        "longt": "15.72259",
        "address": "780 Price Brooks Suite 411nLake Amandaborough, WA 16487"
    },
    {
        "state": "NO",
        "name": "Regnfossen",
        "city": "Naevsgrenda",
        "prov": "Tru00f8ndelag",
        "region": "Meldal",
        "latt": "63.11382",
        "longt": "9.87679",
        "address": "809 Kirk AlleynDavidstad, NE 41528"
    },
    {
        "state": "NO",
        "name": "Vikesu00e5bakken",
        "city": "Vikesa",
        "prov": "Rogaland",
        "region": "Bjerkreim",
        "latt": "58.6356",
        "longt": "6.08211",
        "address": "70241 Zoe Road Apt. 334nGonzalezland, CO 31985"
    },
    {
        "state": "NO",
        "name": "Tonafjellet",
        "city": "Askoy",
        "prov": "Hordaland",
        "region": "Fjell",
        "latt": "60.36291",
        "longt": "5.14957",
        "address": "183 Christian PortnGutierrezbury, WV 96589"
    },
    {
        "state": "NO",
        "name": "Tronesfossen",
        "city": "Trones",
        "prov": "Tru00f8ndelag",
        "region": "Namsskogan",
        "latt": "64.7364",
        "longt": "12.85016",
        "address": "USNS NelsonnFPO AE 10506"
    },
    {
        "state": "NO",
        "name": "Kju00f8llefjord",
        "city": "Kjollefjord",
        "prov": "Finnmark",
        "region": "Lebesby",
        "latt": "70.94574",
        "longt": "27.3465",
        "address": "83335 Isabella Valley Suite 282nCalhounmouth, WY 75257"
    },
    {
        "state": "NO",
        "name": "Grova",
        "city": "Grova",
        "prov": "Tru00f8ndelag",
        "region": "Orkdal",
        "latt": "63.29445",
        "longt": "9.84449",
        "address": "18357 John LocksnRodriguezchester, NV 73369"
    },
    {
        "state": "NO",
        "name": "Vigda",
        "city": "Asanfeltet",
        "prov": "Tru00f8ndelag",
        "region": "Stju00f8rdal",
        "latt": "63.5",
        "longt": "11.43333",
        "address": "42368 Ronald Brooks Apt. 804nKelleyport, CT 61693"
    },
    {
        "state": "NO",
        "name": "Sannesu00f8ddin",
        "city": "Vole",
        "prov": "Oppland",
        "region": "u00d8ystre Slidre",
        "latt": "61.14379",
        "longt": "9.03969",
        "address": "94253 Moss GreennEverettfort, AL 45218"
    },
    {
        "state": "NO",
        "name": "Vesleslethaugen",
        "city": "Lu00f8nset",
        "prov": "Tru00f8ndelag",
        "region": "Oppdal",
        "latt": "62.616667",
        "longt": "9.316667",
        "address": "587 Colleen ParkwaysnHessberg, SD 79165"
    },
    {
        "state": "NO",
        "name": "Hu00f8neskju00e6ret",
        "city": "Kristiansund",
        "prov": "Mu00f8re og Romsdal",
        "region": "Kristiansund",
        "latt": "63.1073",
        "longt": "7.73488",
        "address": "55492 Tyler SpringsnNew Michaelshire, NV 17166"
    },
    {
        "state": "NO",
        "name": "Sannesu00f8ddin",
        "city": "Vole",
        "prov": "Oppland",
        "region": "u00d8ystre Slidre",
        "latt": "61.14379",
        "longt": "9.03969",
        "address": "PSC 8574, Box 3827nAPO AA 74101"
    },
    {
        "state": "NO",
        "name": "Lisetstu00f8len",
        "city": "Grunkestu00f8len",
        "prov": "Oppland",
        "region": "Vestre Slidre",
        "latt": "60.93324",
        "longt": "8.77536",
        "address": "4067 Michael Motorway Suite 826nIngramview, CO 17757"
    },
    {
        "state": "NO",
        "name": "Bendalen",
        "city": "Nu00f8rdrevu00e5g",
        "prov": "Mu00f8re og Romsdal",
        "region": "Heru00f8y",
        "latt": "62.33489",
        "longt": "5.65944",
        "address": "865 Edward LandingnWest Shelly, MT 30218"
    },
    {
        "state": "NO",
        "name": "Kyrkjebygdi",
        "city": "Kyrkjebygdi",
        "prov": "Vest-Agder",
        "region": "u00c5seral",
        "latt": "58.61524",
        "longt": "7.41391",
        "address": "7497 Kim Fall Suite 269nSamanthastad, NV 34408"
    },
    {
        "state": "NO",
        "name": "Tallaksbru",
        "city": "Haukeli",
        "prov": "Telemark",
        "region": "Vinje",
        "latt": "59.73465",
        "longt": "7.55158",
        "address": "2881 Brett Forest Apt. 590nNorth Christopher, ID 93912"
    },
    {
        "state": "NO",
        "name": "Skjoldlbrya",
        "city": "Vu00e5je",
        "prov": "Nordland",
        "region": "Vestvu00e5gu00f8y",
        "latt": "68.22641",
        "longt": "13.42504",
        "address": "2027 Juan Crescent Apt. 217nPort Justinshire, WY 56018"
    },
    {
        "state": "NO",
        "name": "Moskevika",
        "city": "Indre Torhop",
        "prov": "Finnmark",
        "region": "Tana",
        "latt": "70.50946",
        "longt": "27.90366",
        "address": "5626 Maria Expressway Apt. 423nLake Karen, AR 81375"
    },
    {
        "state": "NO",
        "name": "Fremstestu00f8len",
        "city": "Soggemoen",
        "prov": "Mu00f8re og Romsdal",
        "region": "Rauma",
        "latt": "62.46719",
        "longt": "7.66943",
        "address": "5113 Lauren Row Suite 136nSamuelland, HI 64370"
    },
    {
        "state": "NO",
        "name": "Mellomrusten",
        "city": "Rosti",
        "prov": "Oppland",
        "region": "Dovre",
        "latt": "61.90252",
        "longt": "9.37948",
        "address": "50706 Combs Crest Apt. 226nNorth Victor, TN 37536"
    },
    {
        "state": "NO",
        "name": "Tonstadbekken",
        "city": "Tonstad",
        "prov": "Vest-Agder",
        "region": "Sirdal",
        "latt": "58.66457",
        "longt": "6.71649",
        "address": "93022 Jessica ManorsnNew Pamelaberg, CT 86333"
    },
    {
        "state": "NO",
        "name": "Tu00f8rsju00f8dalen",
        "city": "Gullset",
        "prov": "Tru00f8ndelag",
        "region": "Selbu",
        "latt": "63.15774",
        "longt": "11.01721",
        "address": "4053 Joshua RoutenNorth Luisborough, IA 95889"
    },
    {
        "state": "NO",
        "name": "Vebergan",
        "city": "Ulvagen",
        "prov": "Nordland",
        "region": "Vu00e5gan",
        "latt": "68.28638",
        "longt": "14.96063",
        "address": "PSC 6119, Box 8936nAPO AE 70454"
    },
    {
        "state": "NO",
        "name": "Gjersdalen",
        "city": "Tveit",
        "prov": "Vest-Agder",
        "region": "Kristiansand",
        "latt": "58.21111",
        "longt": "8.11032",
        "address": "73601 Gray Parks Apt. 185nMitchellborough, CO 39597"
    },
    {
        "state": "NO",
        "name": "Slu00e6ttmyra",
        "city": "Malm",
        "prov": "Tru00f8ndelag",
        "region": "Verran",
        "latt": "64.08844",
        "longt": "11.26182",
        "address": "USNS WhitenFPO AE 88414"
    },
    {
        "state": "NO",
        "name": "Vu00e5gengskardet",
        "city": "Svenolsavika",
        "prov": "Nordland",
        "region": "Ru00f8du00f8y",
        "latt": "66.70556",
        "longt": "13.29405",
        "address": "25651 Pope SpringsnNew Danielle, MD 10250"
    },
    {
        "state": "NO",
        "name": "Dokkje",
        "city": "Grasdalen",
        "prov": "Telemark",
        "region": "Tinn",
        "latt": "59.90036",
        "longt": "8.93766",
        "address": "1644 Reynolds CrossingnSouth Tracey, AK 72844"
    },
    {
        "state": "NO",
        "name": "Steinsvannet",
        "city": "Loyte",
        "prov": "Aust-Agder",
        "region": "Gjerstad",
        "latt": "58.87557",
        "longt": "8.93512",
        "address": "670 Amy Prairie Apt. 773nNorth Amyport, VT 17358"
    },
    {
        "state": "NO",
        "name": "Tju00f8rnabottsvarden",
        "city": "Dale",
        "prov": "Hordaland",
        "region": "Voss",
        "latt": "60.63814",
        "longt": "5.84311",
        "address": "3884 Ricardo Station Apt. 581nPort Sarahchester, IA 24639"
    },
    {
        "state": "NO",
        "name": "Dokkje",
        "city": "Grasdalen",
        "prov": "Telemark",
        "region": "Tinn",
        "latt": "59.90036",
        "longt": "8.93766",
        "address": "9889 Adam UnderpassnNorth Marilyn, CA 63708"
    },
    {
        "state": "NO",
        "name": "Langelandshavn",
        "city": "Knarvik",
        "prov": "Hordaland",
        "region": "Meland",
        "latt": "60.52326",
        "longt": "5.24762",
        "address": "804 Hernandez Turnpike Suite 441nEast Donnaburgh, WA 31362"
    },
    {
        "state": "NO",
        "name": "Langelandshavn",
        "city": "Knarvik",
        "prov": "Hordaland",
        "region": "Meland",
        "latt": "60.52326",
        "longt": "5.24762",
        "address": "253 Ross Falls Apt. 552nCarolynchester, NV 91648"
    },
    {
        "state": "NO",
        "name": "Kobbu00e5sen",
        "city": "Husoya",
        "prov": "Nordland",
        "region": "Tru00e6na",
        "latt": "66.56219",
        "longt": "12.10098",
        "address": "1737 Matthew Mission Suite 578nLake Lindsaymouth, HI 26255"
    },
    {
        "state": "NO",
        "name": "Hunborhaugen",
        "city": "Haverjorda",
        "prov": "Troms",
        "region": "Berg",
        "latt": "69.34888",
        "longt": "17.47802",
        "address": "00190 Ronald CirclesnLake Melanie, CA 40533"
    },
    {
        "state": "NO",
        "name": "Holtekilen folkehu00f8gskole",
        "city": "Nesoddtangen",
        "prov": "Akershus",
        "region": "Bu00e6rum",
        "latt": "59.90377",
        "longt": "10.60437",
        "address": "9501 Martin RoadsnPort Jefferytown, NJ 69243"
    },
    {
        "state": "NO",
        "name": "Viktind",
        "city": "Fornes",
        "prov": "Troms",
        "region": "Ibestad",
        "latt": "68.88698",
        "longt": "17.42883",
        "address": "9564 Gates MotorwaynMalikhaven, SC 74018"
    },
    {
        "state": "NO",
        "name": "Gjevde",
        "city": "Smedland",
        "prov": "Aust-Agder",
        "region": "u00c5mli",
        "latt": "58.95925",
        "longt": "8.17481",
        "address": "PSC 1690, Box 9106nAPO AP 24389"
    },
    {
        "state": "NO",
        "name": "Smu00f8rvikja",
        "city": "Mannvikja",
        "prov": "Nordland",
        "region": "Du00f8nna",
        "latt": "66.21258",
        "longt": "12.60741",
        "address": "5053 Bradley HeightsnClarkchester, KY 91342"
    },
    {
        "state": "NO",
        "name": "Resmu00e5lsvatnet",
        "city": "Vikan",
        "prov": "Troms",
        "region": "Karlsu00f8y",
        "latt": "70.16168",
        "longt": "20.03916",
        "address": "37119 Patty HarbornRushside, DE 09621"
    },
    {
        "state": "NO",
        "name": "Hengedytju00f8nn",
        "city": "Strai",
        "prov": "Vest-Agder",
        "region": "Kristiansand",
        "latt": "58.20637",
        "longt": "7.94598",
        "address": "52955 Wilkins Pass Suite 188nNorth Brittneyfurt, MN 95566"
    },
    {
        "state": "NO",
        "name": "Linsheimslu00e5gu00e5n",
        "city": "Bruvoll",
        "prov": "Oppland",
        "region": "Skju00e5k",
        "latt": "61.87413",
        "longt": "8.11414",
        "address": "USNS CruznFPO AA 53008"
    },
    {
        "state": "NO",
        "name": "Hannabekkdalen",
        "city": "Ranemsletta",
        "prov": "Tru00f8ndelag",
        "region": "Overhalla",
        "latt": "64.48141",
        "longt": "11.94257",
        "address": "3099 Chloe LodgenMatthewfurt, IA 47484"
    },
    {
        "state": "NO",
        "name": "Su00f8reide",
        "city": "Ytrebygda",
        "prov": "Hordaland",
        "region": "Bergen",
        "latt": "60.31518",
        "longt": "5.27121",
        "address": "07140 Jones WalknNorth Jennifer, GA 57565"
    },
    {
        "state": "NO",
        "name": "Erkebispegu00e5rden",
        "city": "Trondheim",
        "prov": "Tru00f8ndelag",
        "region": "Trondheim",
        "latt": "63.42609",
        "longt": "10.39656",
        "address": "4321 Haley Stravenue Suite 182nNew Andrea, KS 27003"
    },
    {
        "state": "NO",
        "name": "Sannesu00f8ddin",
        "city": "Vole",
        "prov": "Oppland",
        "region": "u00d8ystre Slidre",
        "latt": "61.14379",
        "longt": "9.03969",
        "address": "74051 Rodriguez Skyway Apt. 943nKimberlyville, KS 02794"
    },
    {
        "state": "NO",
        "name": "Haukestu00f8len",
        "city": "Sande",
        "prov": "Sogn og Fjordane",
        "region": "Gaular",
        "latt": "61.31788",
        "longt": "5.84363",
        "address": "2377 Danny AlleynSouth Robert, WY 72778"
    },
    {
        "state": "NO",
        "name": "Gjersdalen",
        "city": "Tveit",
        "prov": "Vest-Agder",
        "region": "Kristiansand",
        "latt": "58.21111",
        "longt": "8.11032",
        "address": "389 Barber Port Suite 110nEast Julieshire, WV 92640"
    },
    {
        "state": "NO",
        "name": "Vu00e5gu00e5mo",
        "city": "Vagamo",
        "prov": "Oppland",
        "region": "Vu00e5gu00e5",
        "latt": "61.87505",
        "longt": "9.09671",
        "address": "077 Kathleen MillsnLindachester, MD 43136"
    },
    {
        "state": "NO",
        "name": "Helligver",
        "city": "Kvalvik",
        "prov": "Nordland",
        "region": "Bodu00f8",
        "latt": "67.416667",
        "longt": "14",
        "address": "45262 Adam Locks Apt. 654nNorth John, VT 66797"
    },
    {
        "state": "NO",
        "name": "Ramberg",
        "city": "Ramberg",
        "prov": "Nordland",
        "region": "Bu00f8",
        "latt": "68.63344",
        "longt": "14.62503",
        "address": "2149 Joseph SpursnWest Jared, MN 06902"
    },
    {
        "state": "NO",
        "name": "Bygdalia",
        "city": "Vevring",
        "prov": "Sogn og Fjordane",
        "region": "Naustdal",
        "latt": "61.49878",
        "longt": "5.42987",
        "address": "7730 Amber Run Apt. 583nClarkfurt, SD 49780"
    },
    {
        "state": "NO",
        "name": "Bismo",
        "city": "Bismoen",
        "prov": "Oppland",
        "region": "Skju00e5k",
        "latt": "61.88406",
        "longt": "8.26665",
        "address": "5010 Ashley DalenMartinborough, TN 95960"
    },
    {
        "state": "NO",
        "name": "Pollskard",
        "city": "u00c5svik",
        "prov": "Nordland",
        "region": "Luru00f8y",
        "latt": "66.366667",
        "longt": "13.25",
        "address": "0739 Crosby RuenTracichester, DE 39196"
    },
    {
        "state": "NO",
        "name": "Bekreskjer",
        "city": "Stokke",
        "prov": "Mu00f8re og Romsdal",
        "region": "Vanylven",
        "latt": "62.075",
        "longt": "5.5175",
        "address": "602 Alvarado PassagenJonesland, IA 03868"
    },
    {
        "state": "NO",
        "name": "Suttuhaugen",
        "city": "Lokken Verk",
        "prov": "Tru00f8ndelag",
        "region": "Meldal",
        "latt": "63.111",
        "longt": "9.67439",
        "address": "703 Torres ClubnJamesberg, OK 15411"
    },
    {
        "state": "NO",
        "name": "Hagelykkja",
        "city": "Lu00f8ten",
        "prov": "Hedmark",
        "region": "Lu00f8ten",
        "latt": "60.77576",
        "longt": "11.3406",
        "address": "087 Garner PassagenEllisonchester, AL 31943"
    },
    {
        "state": "NO",
        "name": "Stordalsbakkane",
        "city": "Moseid",
        "prov": "Aust-Agder",
        "region": "Evje og Hornnes",
        "latt": "58.62687",
        "longt": "7.7811",
        "address": "63551 Smith Lake Apt. 936nLake Williamborough, ND 64763"
    },
    {
        "state": "NO",
        "name": "Rimu00e5smyr",
        "city": "Skiftenes",
        "prov": "Aust-Agder",
        "region": "Grimstad",
        "latt": "58.40349",
        "longt": "8.51559",
        "address": "58935 Gwendolyn Course Suite 760nNew David, WA 75242"
    },
    {
        "state": "NO",
        "name": "Hengedytju00f8nn",
        "city": "Strai",
        "prov": "Vest-Agder",
        "region": "Kristiansand",
        "latt": "58.20637",
        "longt": "7.94598",
        "address": "171 Linda Plain Apt. 720nLake Nicoleton, NY 26472"
    },
    {
        "state": "NO",
        "name": "Alvedalstju00f8rn",
        "city": "Kjellbju",
        "prov": "Sogn og Fjordane",
        "region": "Gulen",
        "latt": "60.9561",
        "longt": "5.27458",
        "address": "0655 Michelle GardensnJohnborough, NC 97406"
    },
    {
        "state": "NO",
        "name": "Lassetju00f8rnholtan",
        "city": "Meland",
        "prov": "Nordland",
        "region": "Hemnes",
        "latt": "66.09401",
        "longt": "13.9535",
        "address": "72257 Martinez CrossroadnMatthewchester, WI 84172"
    },
    {
        "state": "NO",
        "name": "Audnedal",
        "city": "Konsmo",
        "prov": "Vest-Agder",
        "region": "Audnedal",
        "latt": "58.28378",
        "longt": "7.35487",
        "address": "7284 Thornton GardennNorth Samanthaland, WA 59740"
    },
    {
        "state": "NO",
        "name": "Slu00f8kjeelvdalen",
        "city": "Storli",
        "prov": "Troms",
        "region": "Balsfjord",
        "latt": "69.26753",
        "longt": "18.8051",
        "address": "0145 Chelsea Wall Suite 524nNew Caitlin, IL 25325"
    },
    {
        "state": "NO",
        "name": "Flu00f8ytamoen",
        "city": "Velta",
        "prov": "Hedmark",
        "region": "u00c5snes",
        "latt": "60.64504",
        "longt": "12.26912",
        "address": "Unit 1454 Box 6975nDPO AE 17264"
    },
    {
        "state": "NO",
        "name": "Alvedalstju00f8rn",
        "city": "Kjellbju",
        "prov": "Sogn og Fjordane",
        "region": "Gulen",
        "latt": "60.9561",
        "longt": "5.27458",
        "address": "3378 Tiffany Pine Suite 412nNew Casey, MS 29717"
    },
    {
        "state": "NO",
        "name": "Iveland",
        "city": "Birketveit",
        "prov": "Aust-Agder",
        "region": "Iveland",
        "latt": "58.4574",
        "longt": "7.91817",
        "address": "730 Young Park Suite 060nSummersport, OK 78669"
    },
    {
        "state": "NO",
        "name": "Iveland",
        "city": "Birketveit",
        "prov": "Aust-Agder",
        "region": "Iveland",
        "latt": "58.4574",
        "longt": "7.91817",
        "address": "261 White LoafnWest James, WV 06684"
    },
    {
        "state": "NO",
        "name": "Skjoldlbrya",
        "city": "Vu00e5je",
        "prov": "Nordland",
        "region": "Vestvu00e5gu00f8y",
        "latt": "68.22641",
        "longt": "13.42504",
        "address": "288 Amy Prairie Apt. 267nNew Sarahhaven, KS 65090"
    },
    {
        "state": "NO",
        "name": "Furuvatnet",
        "city": "Simle",
        "prov": "Nordland",
        "region": "Bindal",
        "latt": "65.07543",
        "longt": "11.99944",
        "address": "97327 Bryant Divide Suite 854nShawmouth, FL 94280"
    },
    {
        "state": "NO",
        "name": "Hannabekkdalen",
        "city": "Ranemsletta",
        "prov": "Tru00f8ndelag",
        "region": "Overhalla",
        "latt": "64.48141",
        "longt": "11.94257",
        "address": "3402 Fleming MewsnPort Gregory, NE 94436"
    },
    {
        "state": "NO",
        "name": "Fossdalsbekken",
        "city": "Lysthaugen",
        "prov": "Tru00f8ndelag",
        "region": "Verdal",
        "latt": "63.75764",
        "longt": "11.6335",
        "address": "823 Johnson AlleynNorth Teresamouth, VA 85364"
    },
    {
        "state": "NO",
        "name": "Kalvekrolia",
        "city": "Fidjeland",
        "prov": "Vest-Agder",
        "region": "Sirdal",
        "latt": "58.95564",
        "longt": "6.91131",
        "address": "USCGC KingnFPO AE 59827"
    },
    {
        "state": "NO",
        "name": "Mohaugan",
        "city": "Sortland",
        "prov": "Nordland",
        "region": "Sortland",
        "latt": "68.74281",
        "longt": "15.31443",
        "address": "844 Karen PrairienEast Brian, NV 34144"
    },
    {
        "state": "NO",
        "name": "Indre Simavik",
        "city": "Indre Simavik",
        "prov": "Finnmark",
        "region": "Alta",
        "latt": "70.25694",
        "longt": "22.7275",
        "address": "326 Johnston MillnBrandistad, NV 41433"
    },
    {
        "state": "NO",
        "name": "Leksa",
        "city": "Stjordalshalsen",
        "prov": "Tru00f8ndelag",
        "region": "Stju00f8rdal",
        "latt": "63.44633",
        "longt": "10.92848",
        "address": "USS BurtonnFPO AE 86941"
    },
    {
        "state": "NO",
        "name": "Farger",
        "city": "Sandane",
        "prov": "Sogn og Fjordane",
        "region": "Gloppen",
        "latt": "61.77645",
        "longt": "6.21621",
        "address": "1785 Michael DrivesnEast Hailey, AK 25825"
    },
    {
        "state": "NO",
        "name": "Fochsennesset",
        "city": "Sandneshamn",
        "prov": "Troms",
        "region": "Tromsu00f8",
        "latt": "69.62704",
        "longt": "18.18036",
        "address": "205 Franklin PrairienMargaretland, TX 74244"
    },
    {
        "state": "NO",
        "name": "u00c5rumvann",
        "city": "Grorud",
        "prov": "Telemark",
        "region": "Siljan",
        "latt": "59.37561",
        "longt": "9.75153",
        "address": "1792 Nelson Expressway Apt. 040nTranside, UT 14847"
    },
    {
        "state": "NO",
        "name": "Slu00f8kjeelvdalen",
        "city": "Storli",
        "prov": "Troms",
        "region": "Balsfjord",
        "latt": "69.26753",
        "longt": "18.8051",
        "address": "628 Lisa Points Apt. 033nNorth Walter, ME 60503"
    },
    {
        "state": "NO",
        "name": "Steinsvannet",
        "city": "Loyte",
        "prov": "Aust-Agder",
        "region": "Gjerstad",
        "latt": "58.87557",
        "longt": "8.93512",
        "address": "59037 Jones JunctionnWest Alejandro, HI 52873"
    },
    {
        "state": "NO",
        "name": "Bekreskjer",
        "city": "Stokke",
        "prov": "Mu00f8re og Romsdal",
        "region": "Vanylven",
        "latt": "62.075",
        "longt": "5.5175",
        "address": "906 George SkywaynAmberport, NY 41832"
    },
    {
        "state": "NO",
        "name": "Barbubekken",
        "city": "Arendal",
        "prov": "Aust-Agder",
        "region": "Arendal",
        "latt": "58.46259",
        "longt": "8.77406",
        "address": "Unit 2659 Box 2102nDPO AE 58348"
    },
    {
        "state": "NO",
        "name": "Huldertjenndalen",
        "city": "Lju00f8ner",
        "prov": "Hedmark",
        "region": "Eidskog",
        "latt": "59.95937",
        "longt": "11.92158",
        "address": "73253 Veronica LakesnPort Steve, NC 80489"
    },
    {
        "state": "NO",
        "name": "Hjelmelandsvu00e5gen",
        "city": "Hjelmelandsvagen",
        "prov": "Rogaland",
        "region": "Hjelmeland",
        "latt": "59.23692",
        "longt": "6.17907",
        "address": "863 Robert StreamnWest Michelle, FL 22781"
    },
    {
        "state": "NO",
        "name": "Vestrehagen",
        "city": "Oppsal",
        "prov": "Vest-Agder",
        "region": "Lyngdal",
        "latt": "58.18571",
        "longt": "7.20582",
        "address": "3878 Mora IslandnBriggsfort, TX 54573"
    },
    {
        "state": "NO",
        "name": "Smu00f8rvikja",
        "city": "Mannvikja",
        "prov": "Nordland",
        "region": "Du00f8nna",
        "latt": "66.21258",
        "longt": "12.60741",
        "address": "747 Bradley GlensnLake Ianstad, IN 80148"
    },
    {
        "state": "NO",
        "name": "Katrinebru00e5ten",
        "city": "Bekken",
        "prov": "Hedmark",
        "region": "Kongsvinger",
        "latt": "60.12546",
        "longt": "12.41947",
        "address": "1947 Stephanie Freeway Suite 859nEast Deniseton, ND 90440"
    },
    {
        "state": "NO",
        "name": "Okraneset",
        "city": "Voss",
        "prov": "Hordaland",
        "region": "Voss",
        "latt": "60.68001",
        "longt": "6.4765",
        "address": "3081 Ortiz Rest Suite 438nWest Sharon, OR 56844"
    },
    {
        "state": "NO",
        "name": "Skei",
        "city": "Skei",
        "prov": "Sogn og Fjordane",
        "region": "Ju00f8lster",
        "latt": "61.5715",
        "longt": "6.4791",
        "address": "4579 Keller Neck Suite 143nKatherinetown, IN 07674"
    },
    {
        "state": "NO",
        "name": "Su00f8ndre Hu00e5kvik",
        "city": "Ginnasluokta",
        "prov": "Nordland",
        "region": "Narvik",
        "latt": "68.39986",
        "longt": "17.29191",
        "address": "50816 Kimberly Ports Suite 328nRobertburgh, AK 11723"
    },
    {
        "state": "NO",
        "name": "Fju00f8lheia",
        "city": "Bryne",
        "prov": "Rogaland",
        "region": "Klepp",
        "latt": "58.75009",
        "longt": "5.57006",
        "address": "8605 Juarez RanchnSouth Valeriemouth, MO 07918"
    },
    {
        "state": "NO",
        "name": "Viktind",
        "city": "Fornes",
        "prov": "Troms",
        "region": "Ibestad",
        "latt": "68.88698",
        "longt": "17.42883",
        "address": "0699 Charlene RoadnGarciaview, UT 83874"
    },
    {
        "state": "NO",
        "name": "Geitebrua",
        "city": "Steinberg",
        "prov": "Rogaland",
        "region": "Lund",
        "latt": "58.54859",
        "longt": "6.4928",
        "address": "0793 Krista LocknEast Kevin, OR 24459"
    },
    {
        "state": "NO",
        "name": "Erkebispegu00e5rden",
        "city": "Trondheim",
        "prov": "Tru00f8ndelag",
        "region": "Trondheim",
        "latt": "63.42609",
        "longt": "10.39656",
        "address": "551 Christopher Flats Suite 539nLeslieshire, ID 33010"
    },
    {
        "state": "NO",
        "name": "Rypskju00e6ret",
        "city": "Roroya",
        "prov": "Nordland",
        "region": "Vega",
        "latt": "65.67188",
        "longt": "12.03839",
        "address": "82083 Lane Inlet Apt. 670nNorth Johnhaven, RI 11598"
    },
    {
        "state": "NO",
        "name": "Landavatnet",
        "city": "Vestvoll",
        "prov": "Rogaland",
        "region": "Vindafjord",
        "latt": "59.536",
        "longt": "5.71518",
        "address": "629 Emma RanchnWest Christinatown, WY 03484"
    },
    {
        "state": "NO",
        "name": "Midtunvu00e5gen",
        "city": "Midttun",
        "prov": "Sogn og Fjordane",
        "region": "Gulen",
        "latt": "60.98386",
        "longt": "5.08511",
        "address": "166 Jason Way Apt. 321nWest Troy, SD 61227"
    },
    {
        "state": "NO",
        "name": "Pu00e5lgamlia",
        "city": "Straumen",
        "prov": "Nordland",
        "region": "Su00f8rfold",
        "latt": "67.36419",
        "longt": "15.50671",
        "address": "1495 Andrew ExtensionnNorth Ravenport, WY 98662"
    },
    {
        "state": "NO",
        "name": "Ju00e6rnes",
        "city": "Du00e5fjorden",
        "prov": "Troms",
        "region": "Karlsu00f8y",
        "latt": "70.01042",
        "longt": "19.37773",
        "address": "3158 Megan TurnpikenNew Austin, WI 36009"
    },
    {
        "state": "NO",
        "name": "Stortveita",
        "city": "Fju00e6rvoll",
        "prov": "Nordland",
        "region": "Bu00f8",
        "latt": "68.65538",
        "longt": "14.4495",
        "address": "0167 Mcbride Dale Apt. 128nLake Laurabury, CA 07406"
    },
    {
        "state": "NO",
        "name": "Mursteinshatten",
        "city": "Utvorda",
        "prov": "Tru00f8ndelag",
        "region": "Flatanger",
        "latt": "64.5775",
        "longt": "10.91",
        "address": "4323 Isaiah FallsnRachelton, CT 12807"
    },
    {
        "state": "NO",
        "name": "Ru00f8rvik",
        "city": "Rorvik",
        "prov": "Tru00f8ndelag",
        "region": "Vikna",
        "latt": "64.86185",
        "longt": "11.23969",
        "address": "103 Weaver Ridge Apt. 732nLake Dillonburgh, AL 75912"
    },
    {
        "state": "NO",
        "name": "Hengedytju00f8nn",
        "city": "Strai",
        "prov": "Vest-Agder",
        "region": "Kristiansand",
        "latt": "58.20637",
        "longt": "7.94598",
        "address": "949 Odonnell DalenBaileyborough, WA 18986"
    },
    {
        "state": "NO",
        "name": "Midtre Gauldal",
        "city": "Storen",
        "prov": "Tru00f8ndelag",
        "region": "Midtre Gauldal",
        "latt": "63.03902",
        "longt": "10.28701",
        "address": "4815 Bell Springs Suite 921nHallbury, MN 63980"
    },
    {
        "state": "NO",
        "name": "Trefura",
        "city": "Skjaerhalden",
        "prov": "u00d8stfold",
        "region": "Hvaler",
        "latt": "59.07465",
        "longt": "11.09543",
        "address": "Unit 1627 Box 3558nDPO AA 84129"
    },
    {
        "state": "NO",
        "name": "Jorudu00e5sen",
        "city": "Hamnas",
        "prov": "u00d8stfold",
        "region": "Tru00f8gstad",
        "latt": "59.61502",
        "longt": "11.36272",
        "address": "USCGC MoralesnFPO AA 82462"
    },
    {
        "state": "NO",
        "name": "Grindbukta",
        "city": "Vinsternes",
        "prov": "Mu00f8re og Romsdal",
        "region": "Aure",
        "latt": "63.24828",
        "longt": "8.27238",
        "address": "432 Carroll Mall Suite 841nRodriguezmouth, MI 46704"
    },
    {
        "state": "NO",
        "name": "Bjerkebakka",
        "city": "Tjaldal",
        "prov": "Vest-Agder",
        "region": "u00c5seral",
        "latt": "58.80028",
        "longt": "7.47445",
        "address": "04494 Michael Ports Apt. 978nEast Christopherview, MA 25401"
    },
    {
        "state": "NO",
        "name": "Hammersbrua",
        "city": "Buvika",
        "prov": "Tru00f8ndelag",
        "region": "Skaun",
        "latt": "63.30858",
        "longt": "10.16477",
        "address": "91136 Natasha Vista Apt. 632nFarleystad, PA 07080"
    },
    {
        "state": "NO",
        "name": "Setnesmyra",
        "city": "Floa",
        "prov": "Nordland",
        "region": "Vega",
        "latt": "65.6425",
        "longt": "11.9557",
        "address": "8319 Meyers KeynSouth Catherineville, OK 52766"
    },
    {
        "state": "NO",
        "name": "Vestrehagen",
        "city": "Oppsal",
        "prov": "Vest-Agder",
        "region": "Lyngdal",
        "latt": "58.18571",
        "longt": "7.20582",
        "address": "51141 Gamble RanchnNew Bianca, NE 26265"
    },
    {
        "state": "NO",
        "name": "Bjugn",
        "city": "Botngard",
        "prov": "Tru00f8ndelag",
        "region": "Bjugn",
        "latt": "63.76522",
        "longt": "9.8094",
        "address": "USNV HicksnFPO AP 45401"
    },
    {
        "state": "NO",
        "name": "Trolldalstindan",
        "city": "Stamsund",
        "prov": "Nordland",
        "region": "Vestvu00e5gu00f8y",
        "latt": "68.18356",
        "longt": "13.82446",
        "address": "4672 Andrade Route Apt. 676nSouth Jeremy, SC 31345"
    },
    {
        "state": "NO",
        "name": "Regnfossen",
        "city": "Naevsgrenda",
        "prov": "Tru00f8ndelag",
        "region": "Meldal",
        "latt": "63.11382",
        "longt": "9.87679",
        "address": "0307 Anderson InletnBradleyville, PA 39357"
    },
    {
        "state": "NO",
        "name": "Knappkju00f8len",
        "city": "Blikberget",
        "prov": "Hedmark",
        "region": "u00c5mot",
        "latt": "61.15686",
        "longt": "11.59461",
        "address": "8146 Miller Station Suite 362nCherylland, TN 73013"
    },
    {
        "state": "NO",
        "name": "Langelandshavn",
        "city": "Knarvik",
        "prov": "Hordaland",
        "region": "Meland",
        "latt": "60.52326",
        "longt": "5.24762",
        "address": "192 Barnes CovesnAprilshire, MT 45181"
    },
    {
        "state": "NO",
        "name": "Hyllviktangen",
        "city": "Frosta",
        "prov": "Tru00f8ndelag",
        "region": "Frosta",
        "latt": "63.60355",
        "longt": "10.70356",
        "address": "3235 Evans VistanSouth Barbarachester, KS 04564"
    },
    {
        "state": "NO",
        "name": "Fu00e6ringsholman",
        "city": "Flatval",
        "prov": "Tru00f8ndelag",
        "region": "Fru00f8ya",
        "latt": "63.67037",
        "longt": "8.27334",
        "address": "106 Rose Ridges Apt. 839nSmithside, HI 32333"
    },
    {
        "state": "NO",
        "name": "Skinnstu00f8det",
        "city": "Stryn",
        "prov": "Sogn og Fjordane",
        "region": "Stryn",
        "latt": "61.88156",
        "longt": "6.76795",
        "address": "9928 Kelley ExpresswaynMooreview, ND 28191"
    },
    {
        "state": "NO",
        "name": "Vassdalsbukta",
        "city": "Lillesand",
        "prov": "Aust-Agder",
        "region": "Lillesand",
        "latt": "58.22673",
        "longt": "8.37072",
        "address": "885 Nancy Glens Suite 278nNew William, WV 41560"
    },
    {
        "state": "NO",
        "name": "Ju00f8rghaugen",
        "city": "Voll",
        "prov": "Mu00f8re og Romsdal",
        "region": "u00d8rskog",
        "latt": "62.46279",
        "longt": "6.84914",
        "address": "Unit 9113 Box 4774nDPO AA 09326"
    },
    {
        "state": "NO",
        "name": "Dokkje",
        "city": "Grasdalen",
        "prov": "Telemark",
        "region": "Tinn",
        "latt": "59.90036",
        "longt": "8.93766",
        "address": "55925 Martin LodgenSouth Alexafort, NH 24945"
    },
    {
        "state": "NO",
        "name": "Alvedalstju00f8rn",
        "city": "Kjellbju",
        "prov": "Sogn og Fjordane",
        "region": "Gulen",
        "latt": "60.9561",
        "longt": "5.27458",
        "address": "06525 Martin Views Suite 017nSouth Tracy, SD 08711"
    },
    {
        "state": "NO",
        "name": "Henjelven",
        "city": "Hermansverk",
        "prov": "Sogn og Fjordane",
        "region": "Leikanger",
        "latt": "61.18307",
        "longt": "6.85167",
        "address": "7773 Olivia Terrace Suite 823nNorth Brandonside, TN 22492"
    },
    {
        "state": "NO",
        "name": "Vasskoppen",
        "city": "Orsta",
        "prov": "Mu00f8re og Romsdal",
        "region": "u00d8rsta",
        "latt": "62.23511",
        "longt": "6.10097",
        "address": "698 Wong Pines Suite 851nWest Rickyburgh, GA 54570"
    },
    {
        "state": "NO",
        "name": "Fargar",
        "city": "Nordfjordeid",
        "prov": "Sogn og Fjordane",
        "region": "Eid",
        "latt": "61.91237",
        "longt": "5.98376",
        "address": "3804 Alisha Tunnel Suite 962nStokesstad, ME 98413"
    },
    {
        "state": "NO",
        "name": "Stu00e5steingu00f8tta",
        "city": "Vaskinn",
        "prov": "Troms",
        "region": "Harstad",
        "latt": "68.89442",
        "longt": "16.43738",
        "address": "209 Timothy CirclesnEast James, AK 25009"
    },
    {
        "state": "NO",
        "name": "Haugeru00f8ya",
        "city": "Varoya",
        "prov": "Tru00f8ndelag",
        "region": "Nu00e6ru00f8y",
        "latt": "64.78317",
        "longt": "11.30573",
        "address": "02386 Timothy WellsnSouth Kennethton, PA 92466"
    },
    {
        "state": "NO",
        "name": "Hu00f8gasu00e6te",
        "city": "Espeland",
        "prov": "Rogaland",
        "region": "Bjerkreim",
        "latt": "58.71684",
        "longt": "6.23941",
        "address": "568 Mcmillan ViewsnCummingsport, MS 91638"
    },
    {
        "state": "NO",
        "name": "Ulvsnestangan",
        "city": "Vikan",
        "prov": "Mu00f8re og Romsdal",
        "region": "Aure",
        "latt": "63.35819",
        "longt": "8.69356",
        "address": "105 Kristina Prairie Apt. 537nNew Annemouth, LA 35903"
    },
    {
        "state": "NO",
        "name": "Ju00f8raberget",
        "city": "Skillemo",
        "prov": "Finnmark",
        "region": "Alta",
        "latt": "69.90101",
        "longt": "23.28121",
        "address": "0014 John Summit Suite 710nWest Dianatown, VA 25348"
    },
    {
        "state": "NO",
        "name": "Kjeslifjellet",
        "city": "Mosjoen",
        "prov": "Nordland",
        "region": "Vefsn",
        "latt": "65.87029",
        "longt": "13.12327",
        "address": "732 Garcia Shoal Suite 225nNorth Karen, DE 32928"
    },
    {
        "state": "NO",
        "name": "Hollandsk Gjestehus",
        "city": "Vinstra",
        "prov": "Oppland",
        "region": "Nord-Fron",
        "latt": "61.59944",
        "longt": "9.74101",
        "address": "9855 Alejandro GardennArnoldmouth, NM 84148"
    },
    {
        "state": "NO",
        "name": "Birigivifjellet",
        "city": "Potka",
        "prov": "Troms",
        "region": "Nordreisa",
        "latt": "69.70039",
        "longt": "21.21432",
        "address": "395 Hayden RapidsnGailstad, NH 95305"
    },
    {
        "state": "NO",
        "name": "Su00f8ndre Vu00e5lengbakken",
        "city": "Vu00e5ler",
        "prov": "Hedmark",
        "region": "Vu00e5ler",
        "latt": "60.7057",
        "longt": "11.80276",
        "address": "58070 Davis ManorsnMichellemouth, MI 89866"
    },
    {
        "state": "NO",
        "name": "Su00f8ndre Snersrud",
        "city": "Surteberg",
        "prov": "Buskerud",
        "region": "Kru00f8dsherad",
        "latt": "60.22229",
        "longt": "9.60243",
        "address": "3449 Kirk BrooksnJamesstad, WI 47418"
    },
    {
        "state": "NO",
        "name": "Munkejord",
        "city": "Vedavagen",
        "prov": "Rogaland",
        "region": "Karmu00f8y",
        "latt": "59.29156",
        "longt": "5.22742",
        "address": "502 Jamie Key Apt. 777nEveretthaven, KY 34513"
    },
    {
        "state": "NO",
        "name": "Kvitbekken bru",
        "city": "Holoya",
        "prov": "Hedmark",
        "region": "Tolga",
        "latt": "62.21026",
        "longt": "11.40579",
        "address": "121 Romero Estates Suite 494nSouth Amyfort, SC 11212"
    },
    {
        "state": "NO",
        "name": "Sverigetinden",
        "city": "Bleik",
        "prov": "Nordland",
        "region": "Andu00f8y",
        "latt": "69.2167",
        "longt": "15.97091",
        "address": "4665 Cobb Mount Apt. 524nPort Samanthamouth, TN 04664"
    },
    {
        "state": "NO",
        "name": "Steinsvannet",
        "city": "Loyte",
        "prov": "Aust-Agder",
        "region": "Gjerstad",
        "latt": "58.87557",
        "longt": "8.93512",
        "address": "1735 Cindy CenternMatthewport, PA 33205"
    },
    {
        "state": "NO",
        "name": "Slu00e6ttmyra",
        "city": "Malm",
        "prov": "Tru00f8ndelag",
        "region": "Verran",
        "latt": "64.08844",
        "longt": "11.26182",
        "address": "Unit 7267 Box 5224nDPO AA 90962"
    },
    {
        "state": "NO",
        "name": "Ulvsnestangan",
        "city": "Vikan",
        "prov": "Mu00f8re og Romsdal",
        "region": "Aure",
        "latt": "63.35819",
        "longt": "8.69356",
        "address": "02280 Diaz AlleynNorth Johnnyhaven, SC 56091"
    },
    {
        "state": "NO",
        "name": "Hornnesvika",
        "city": "Forde",
        "prov": "Sogn og Fjordane",
        "region": "Fu00f8rde",
        "latt": "61.47212",
        "longt": "5.81177",
        "address": "2325 Mendez HollownEast Jonathan, FL 66596"
    },
    {
        "state": "NO",
        "name": "Bendalen",
        "city": "Nu00f8rdrevu00e5g",
        "prov": "Mu00f8re og Romsdal",
        "region": "Heru00f8y",
        "latt": "62.33489",
        "longt": "5.65944",
        "address": "99629 Miller RoadnRodriguezchester, NV 46584"
    },
    {
        "state": "NO",
        "name": "Lavangen",
        "city": "Tennevollen",
        "prov": "Troms",
        "region": "Lavangen",
        "latt": "68.74722",
        "longt": "17.80558",
        "address": "605 Gaines Oval Suite 714nHowellfurt, KS 37832"
    },
    {
        "state": "NO",
        "name": "Vuohppeju00e1vrrit",
        "city": "Buolbmat",
        "prov": "Finnmark",
        "region": "Tana",
        "latt": "70.04055",
        "longt": "28.09693",
        "address": "PSC 2258, Box 0898nAPO AA 81581"
    },
    {
        "state": "NO",
        "name": "Latru00e6va",
        "city": "Latraeva",
        "prov": "Mu00f8re og Romsdal",
        "region": "Smu00f8la",
        "latt": "63.5191",
        "longt": "7.95323",
        "address": "682 Meredith JunctionsnRoyview, TN 81987"
    },
    {
        "state": "NO",
        "name": "Stegabergskori",
        "city": "Eidfjord",
        "prov": "Hordaland",
        "region": "Eidfjord",
        "latt": "60.41941",
        "longt": "7.10559",
        "address": "911 Johnson GardennJefferyshire, NY 20231"
    },
    {
        "state": "NO",
        "name": "Sju00f8fossen",
        "city": "Heggmoen",
        "prov": "Hedmark",
        "region": "Trysil",
        "latt": "61.16161",
        "longt": "12.34694",
        "address": "80225 Michael Lane Apt. 427nNorth Darrell, SC 43059"
    },
    {
        "state": "NO",
        "name": "Hamnvika",
        "city": "Ibestad",
        "prov": "Troms",
        "region": "Ibestad",
        "latt": "68.78",
        "longt": "17.17361",
        "address": "097 Brooks PassagenWest Johnburgh, AZ 78126"
    },
    {
        "state": "NO",
        "name": "Mursteinshatten",
        "city": "Utvorda",
        "prov": "Tru00f8ndelag",
        "region": "Flatanger",
        "latt": "64.5775",
        "longt": "10.91",
        "address": "Unit 6720 Box 6560nDPO AA 71043"
    },
    {
        "state": "NO",
        "name": "Tenu00e5skju00f8len",
        "city": "Nysu00e6tergrenda",
        "prov": "Hedmark",
        "region": "Trysil",
        "latt": "61.32308",
        "longt": "11.90729",
        "address": "Unit 3807 Box 5353nDPO AP 77580"
    },
    {
        "state": "NO",
        "name": "Stolsvassu00e5na",
        "city": "Gautefall",
        "prov": "Telemark",
        "region": "Nissedal",
        "latt": "59.00456",
        "longt": "8.7619",
        "address": "435 Bobby Crest Suite 625nSouth Nathanport, MI 82438"
    },
    {
        "state": "NO",
        "name": "Veiskiftet",
        "city": "Storsteinnes",
        "prov": "Troms",
        "region": "Balsfjord",
        "latt": "69.24119",
        "longt": "19.22944",
        "address": "916 Lewis Lodge Suite 684nPinedamouth, MS 69305"
    },
    {
        "state": "NO",
        "name": "Panengstuen",
        "city": "Skreia",
        "prov": "Oppland",
        "region": "u00d8stre Toten",
        "latt": "60.65209",
        "longt": "11.00384",
        "address": "0963 Samuel RoadsnPort Alexisberg, WA 91872"
    },
    {
        "state": "NO",
        "name": "Hengedytju00f8nn",
        "city": "Strai",
        "prov": "Vest-Agder",
        "region": "Kristiansand",
        "latt": "58.20637",
        "longt": "7.94598",
        "address": "962 Duane Drive Apt. 394nStevenburgh, CT 39878"
    },
    {
        "state": "NO",
        "name": "Falningssju00f6en",
        "city": "Kvikne",
        "prov": "Hedmark",
        "region": "Tynset",
        "latt": "62.6",
        "longt": "10.416667",
        "address": "65561 Rosario ShoresnLisaberg, DC 71606"
    },
    {
        "state": "NO",
        "name": "Stakku00f8yna",
        "city": "Hjelset",
        "prov": "Mu00f8re og Romsdal",
        "region": "Molde",
        "latt": "62.80496",
        "longt": "7.58027",
        "address": "29032 White Club Suite 539nPort Tiffanyhaven, WI 31053"
    },
    {
        "state": "NO",
        "name": "Stortveita",
        "city": "Fju00e6rvoll",
        "prov": "Nordland",
        "region": "Bu00f8",
        "latt": "68.65538",
        "longt": "14.4495",
        "address": "16705 Raven MotorwaynLake Jeffside, PA 68629"
    },
    {
        "state": "NO",
        "name": "Vigda",
        "city": "Asanfeltet",
        "prov": "Tru00f8ndelag",
        "region": "Stju00f8rdal",
        "latt": "63.5",
        "longt": "11.43333",
        "address": "USNV StonenFPO AE 02597"
    },
    {
        "state": "NO",
        "name": "Okraneset",
        "city": "Voss",
        "prov": "Hordaland",
        "region": "Voss",
        "latt": "60.68001",
        "longt": "6.4765",
        "address": "508 Brown FieldsnPort Jenniferstad, AL 06141"
    },
    {
        "state": "NO",
        "name": "Hollandsk Gjestehus",
        "city": "Vinstra",
        "prov": "Oppland",
        "region": "Nord-Fron",
        "latt": "61.59944",
        "longt": "9.74101",
        "address": "5219 Jessica Center Apt. 023nKennethfurt, MT 02544"
    },
    {
        "state": "NO",
        "name": "Vestrehagen",
        "city": "Oppsal",
        "prov": "Vest-Agder",
        "region": "Lyngdal",
        "latt": "58.18571",
        "longt": "7.20582",
        "address": "0653 Schaefer Mews Apt. 562nTerrychester, WI 62927"
    },
    {
        "state": "NO",
        "name": "Grova",
        "city": "Grova",
        "prov": "Tru00f8ndelag",
        "region": "Orkdal",
        "latt": "63.29445",
        "longt": "9.84449",
        "address": "607 Tiffany Point Apt. 326nSouth Carl, RI 59219"
    },
    {
        "state": "NO",
        "name": "Hannabekkdalen",
        "city": "Ranemsletta",
        "prov": "Tru00f8ndelag",
        "region": "Overhalla",
        "latt": "64.48141",
        "longt": "11.94257",
        "address": "890 Mason Ford Suite 982nPort Lindsaychester, UT 28798"
    },
    {
        "state": "NO",
        "name": "Skorofossen",
        "city": "Brunstad",
        "prov": "Tru00f8ndelag",
        "region": "Steinkjer",
        "latt": "64.13056",
        "longt": "11.82226",
        "address": "5321 Miller EstatesnYoungside, NH 06502"
    },
    {
        "state": "NO",
        "name": "Kjerkhu00e5gen",
        "city": "Skytterhagen",
        "prov": "Nordland",
        "region": "Tjeldsund",
        "latt": "68.55417",
        "longt": "16.32965",
        "address": "49116 Buck Roads Suite 974nCarrollfort, VA 14977"
    },
    {
        "state": "NO",
        "name": "Norheimsund",
        "city": "Norheimsund",
        "prov": "Hordaland",
        "region": "Kvam",
        "latt": "60.37089",
        "longt": "6.14562",
        "address": "65230 Mike Glen Apt. 009nSchmidtstad, KY 62173"
    },
    {
        "state": "NO",
        "name": "Byskogen",
        "city": "Larvik",
        "prov": "Vestfold",
        "region": "Larvik",
        "latt": "59.05526",
        "longt": "10.05371",
        "address": "2333 Rose MountnDonaldton, FL 58519"
    },
    {
        "state": "NO",
        "name": "Gartnerveien",
        "city": "Stavanger",
        "prov": "Rogaland",
        "region": "Stavanger",
        "latt": "58.94735",
        "longt": "5.74046",
        "address": "128 Mitchell CliffsnSouth Jeffery, FL 60264"
    },
    {
        "state": "NO",
        "name": "Steinstufjellet",
        "city": "Ogna",
        "prov": "Rogaland",
        "region": "Hu00e5",
        "latt": "58.52391",
        "longt": "5.7884",
        "address": "3672 Nicole TerracenEast Jasonfurt, MA 24107"
    },
    {
        "state": "NO",
        "name": "Skataromphaugen",
        "city": "Storforshei",
        "prov": "Nordland",
        "region": "Rana",
        "latt": "66.41386",
        "longt": "14.43798",
        "address": "20721 Vanessa DrivenTorresbury, IA 29373"
    },
    {
        "state": "NO",
        "name": "Veslvorda",
        "city": "Stralsjoasen",
        "prov": "Hedmark",
        "region": "Tynset",
        "latt": "62.27321",
        "longt": "10.39238",
        "address": "355 Randolph FlatnCynthiaborough, WV 57681"
    },
    {
        "state": "NO",
        "name": "Langelandshavn",
        "city": "Knarvik",
        "prov": "Hordaland",
        "region": "Meland",
        "latt": "60.52326",
        "longt": "5.24762",
        "address": "950 Rodriguez Mountains Apt. 590nNew Christopher, KS 39433"
    },
    {
        "state": "NO",
        "name": "Langelandshavn",
        "city": "Knarvik",
        "prov": "Hordaland",
        "region": "Meland",
        "latt": "60.52326",
        "longt": "5.24762",
        "address": "5803 Thomas Mills Suite 937nWallsburgh, OH 34666"
    },
    {
        "state": "NO",
        "name": "Kvitvasselva",
        "city": "Nedre Hjartu00e5sen",
        "prov": "Nordland",
        "region": "Rana",
        "latt": "66.56667",
        "longt": "14.95",
        "address": "81137 Roberts Manors Suite 579nKarenland, CO 27769"
    },
    {
        "state": "NO",
        "name": "Bragernes",
        "city": "Drammen",
        "prov": "Buskerud",
        "region": "Drammen",
        "latt": "59.74727",
        "longt": "10.20695",
        "address": "598 Walter RownNorth Dawn, KY 82213"
    },
    {
        "state": "NO",
        "name": "Leksa",
        "city": "Stjordalshalsen",
        "prov": "Tru00f8ndelag",
        "region": "Stju00f8rdal",
        "latt": "63.44633",
        "longt": "10.92848",
        "address": "845 Christine IslandsnDakotaberg, TN 28973"
    },
    {
        "state": "NO",
        "name": "Grindbukta",
        "city": "Vinsternes",
        "prov": "Mu00f8re og Romsdal",
        "region": "Aure",
        "latt": "63.24828",
        "longt": "8.27238",
        "address": "637 Walter Stravenue Suite 685nNew Devinville, MO 77916"
    },
    {
        "state": "NO",
        "name": "Haukestu00f8len",
        "city": "Sande",
        "prov": "Sogn og Fjordane",
        "region": "Gaular",
        "latt": "61.31788",
        "longt": "5.84363",
        "address": "6974 Lara Wells Apt. 581nEast Madisonside, DC 95368"
    },
    {
        "state": "NO",
        "name": "Hermannstu00f8len",
        "city": "Hermanstolen",
        "prov": "Oppland",
        "region": "Nord-Aurdal",
        "latt": "60.86688",
        "longt": "9.15636",
        "address": "Unit 3640 Box 8688nDPO AP 24214"
    },
    {
        "state": "NO",
        "name": "Dokkje",
        "city": "Grasdalen",
        "prov": "Telemark",
        "region": "Tinn",
        "latt": "59.90036",
        "longt": "8.93766",
        "address": "37737 Daniel Track Apt. 545nNorth Danaton, DC 65164"
    },
    {
        "state": "NO",
        "name": "Su00f8rgutvikvatnet",
        "city": "Gutvik",
        "prov": "Tru00f8ndelag",
        "region": "Leka",
        "latt": "65.09005",
        "longt": "11.88428",
        "address": "4388 Lori VillagenWest Kayla, DC 50255"
    },
    {
        "state": "NO",
        "name": "Rendalen",
        "city": "Bergset",
        "prov": "Hedmark",
        "region": "Rendalen",
        "latt": "61.89004",
        "longt": "11.07694",
        "address": "013 Ryan SquarenWest Robinborough, MI 19015"
    },
    {
        "state": "NO",
        "name": "Ustu",
        "city": "u00c5len",
        "prov": "Tru00f8ndelag",
        "region": "Holtu00e5len",
        "latt": "62.8426",
        "longt": "11.29575",
        "address": "23580 Holloway OvalnNorth Stephanie, GA 90999"
    },
    {
        "state": "NO",
        "name": "Tonstadbekken",
        "city": "Tonstad",
        "prov": "Vest-Agder",
        "region": "Sirdal",
        "latt": "58.66457",
        "longt": "6.71649",
        "address": "153 Traci Mission Apt. 589nStephanieton, AK 78072"
    },
    {
        "state": "NO",
        "name": "Stokmarknes",
        "city": "Stokmarknes",
        "prov": "Nordland",
        "region": "Hadsel",
        "latt": "68.56462",
        "longt": "14.91075",
        "address": "1000 Perez GrovenRileystad, MO 18688"
    },
    {
        "state": "NO",
        "name": "Nordmannsetdalen",
        "city": "Struppo",
        "prov": "Finnmark",
        "region": "Berlevu00e5g",
        "latt": "70.75921",
        "longt": "29.29265",
        "address": "0425 Angela Canyon Suite 594nPennymouth, NE 89366"
    },
    {
        "state": "NO",
        "name": "Gjuvstaulgjuvet",
        "city": "Flatbygdi",
        "prov": "Telemark",
        "region": "Seljord",
        "latt": "59.53774",
        "longt": "8.53456",
        "address": "7719 Schultz HarbornNew Cynthiamouth, GA 91335"
    },
    {
        "state": "NO",
        "name": "Skjeivu00e5gen",
        "city": "Russelv",
        "prov": "Troms",
        "region": "Lyngen",
        "latt": "69.96361",
        "longt": "20.25057",
        "address": "45744 Dennis Prairie Suite 553nPriceborough, DE 46030"
    },
    {
        "state": "NO",
        "name": "Mo",
        "city": "Maura",
        "prov": "Akershus",
        "region": "Nannestad",
        "latt": "60.21667",
        "longt": "11.01667",
        "address": "33844 Debra IslenNorth Miguelport, LA 09982"
    },
    {
        "state": "NO",
        "name": "Fargar",
        "city": "Nordfjordeid",
        "prov": "Sogn og Fjordane",
        "region": "Eid",
        "latt": "61.91237",
        "longt": "5.98376",
        "address": "5451 Amanda Spurs Suite 055nNorth Joseph, MI 52537"
    },
    {
        "state": "NO",
        "name": "Dybingen",
        "city": "Kristiansand",
        "prov": "Vest-Agder",
        "region": "Kristiansand",
        "latt": "58.116667",
        "longt": "8",
        "address": "3704 Mason CovenMariamouth, IL 93642"
    },
    {
        "state": "NO",
        "name": "Utstumovollen",
        "city": "Gammelsu00e6tra",
        "prov": "Hedmark",
        "region": "Os",
        "latt": "62.58033",
        "longt": "11.09545",
        "address": "33089 Hernandez GardennBrianfort, NC 85618"
    },
    {
        "state": "NO",
        "name": "Audnedal",
        "city": "Konsmo",
        "prov": "Vest-Agder",
        "region": "Audnedal",
        "latt": "58.28378",
        "longt": "7.35487",
        "address": "8991 Meyer Mountains Apt. 666nChristianside, RI 93975"
    },
    {
        "state": "NO",
        "name": "Stu00f8rkaneset",
        "city": "Vingvu00e5gen",
        "prov": "Tru00f8ndelag",
        "region": "Snillfjord",
        "latt": "63.51304",
        "longt": "9.39404",
        "address": "250 Wagner StationnSouth Robert, DE 27806"
    },
    {
        "state": "NO",
        "name": "Bragernes",
        "city": "Drammen",
        "prov": "Buskerud",
        "region": "Drammen",
        "latt": "59.74727",
        "longt": "10.20695",
        "address": "4762 Spencer Stravenue Apt. 357nMatthewview, VA 41442"
    },
    {
        "state": "NO",
        "name": "Ramberg",
        "city": "Ramberg",
        "prov": "Nordland",
        "region": "Bu00f8",
        "latt": "68.63344",
        "longt": "14.62503",
        "address": "87218 Adams PointsnRhondatown, OK 51863"
    },
    {
        "state": "NO",
        "name": "Rasten",
        "city": "Rasten",
        "prov": "Akershus",
        "region": "Oppegu00e5rd",
        "latt": "59.81262",
        "longt": "10.80015",
        "address": "0987 Debra ForgesnLake Charles, MT 14940"
    },
    {
        "state": "NO",
        "name": "Dybingen",
        "city": "Kristiansand",
        "prov": "Vest-Agder",
        "region": "Kristiansand",
        "latt": "58.116667",
        "longt": "8",
        "address": "55796 Anthony Fields Suite 155nMichelleville, IL 58969"
    },
    {
        "state": "NO",
        "name": "Halvdortj.",
        "city": "Velbe",
        "prov": "Tru00f8ndelag",
        "region": "Steinkjer",
        "latt": "64.15845",
        "longt": "11.46789",
        "address": "321 Alexis Hollow Apt. 679nLake Gregoryton, MA 70327"
    },
    {
        "state": "NO",
        "name": "Holtekilen folkehu00f8gskole",
        "city": "Nesoddtangen",
        "prov": "Akershus",
        "region": "Bu00e6rum",
        "latt": "59.90377",
        "longt": "10.60437",
        "address": "6662 Williams DrivesnChristopherview, GA 55743"
    },
    {
        "state": "NO",
        "name": "Vesleslethaugen",
        "city": "Lu00f8nset",
        "prov": "Tru00f8ndelag",
        "region": "Oppdal",
        "latt": "62.616667",
        "longt": "9.316667",
        "address": "89377 John Ports Suite 911nHaleyview, UT 86815"
    },
    {
        "state": "NO",
        "name": "Sannesu00f8ddin",
        "city": "Vole",
        "prov": "Oppland",
        "region": "u00d8ystre Slidre",
        "latt": "61.14379",
        "longt": "9.03969",
        "address": "25141 Sellers Meadow Apt. 690nCurtisberg, MD 94311"
    },
    {
        "state": "NO",
        "name": "Su00f8r-Odal",
        "city": "Skarnes",
        "prov": "Hedmark",
        "region": "Su00f8r-Odal",
        "latt": "60.25455",
        "longt": "11.68246",
        "address": "95119 Smith BurgnWest Dwayne, OH 05468"
    },
    {
        "state": "NO",
        "name": "Gartnerveien",
        "city": "Stavanger",
        "prov": "Rogaland",
        "region": "Stavanger",
        "latt": "58.94735",
        "longt": "5.74046",
        "address": "9243 Louis Unions Suite 058nWest Roberttown, VA 37455"
    },
    {
        "state": "NO",
        "name": "u010cohkkaholmen",
        "city": "Polleidet",
        "prov": "Troms",
        "region": "Lyngen",
        "latt": "69.47777",
        "longt": "20.18842",
        "address": "841 Martin CornersnRodriguezhaven, NJ 86738"
    },
    {
        "state": "NO",
        "name": "Hardbakke",
        "city": "Hardbakke",
        "prov": "Sogn og Fjordane",
        "region": "Solund",
        "latt": "61.07562",
        "longt": "4.84111",
        "address": "4150 Benson PointsnLake Melissa, NH 30050"
    },
    {
        "state": "NO",
        "name": "Su00f8re Lysekammen",
        "city": "Lyse",
        "prov": "Rogaland",
        "region": "Forsand",
        "latt": "59.05",
        "longt": "6.68333",
        "address": "76282 Lopez Ville Apt. 846nMarymouth, OH 07760"
    },