[
    {
        "state": "DK",
        "name": "Tu00e5strup",
        "city": "Stege",
        "prov": "Zealand",
        "region": "Vordingborg Kommune",
        "latt": "54.97616",
        "longt": "12.33815",
        "address": "46529 Singleton Overpass Suite 114nWolfstad, HI 88421"
    },
    {
        "state": "DK",
        "name": "Gu00e5restrup",
        "city": "Hju00f8rring",
        "prov": "North Denmark",
        "region": "Hju00f8rring Kommune",
        "latt": "57.483333",
        "longt": "9.95",
        "address": "68602 Jennifer IslandsnEmilyside, IA 14899"
    },
    {
        "state": "DK",
        "name": "Dyret",
        "city": "Onsbjerg",
        "prov": "Central Jutland",
        "region": "Samsu00f8 Kommune",
        "latt": "55.85",
        "longt": "10.56667",
        "address": "7477 Watts PinenLake Matthew, CA 30959"
    },
    {
        "state": "DK",
        "name": "Holstebro",
        "city": "Holstebro",
        "prov": "Central Jutland",
        "region": "Holstebro Kommune",
        "latt": "56.36009",
        "longt": "8.61607",
        "address": "160 Danielle RoadnAllenfort, GA 60730"
    },
    {
        "state": "DK",
        "name": "Finderup",
        "city": "Hobro",
        "prov": "North Denmark",
        "region": "Mariagerfjord Kommune",
        "latt": "56.70002",
        "longt": "9.78102",
        "address": "3257 Steven StravenuenEast Nataliefurt, CO 72415"
    },
    {
        "state": "DK",
        "name": "Holstebro",
        "city": "Holstebro",
        "prov": "Central Jutland",
        "region": "Holstebro Kommune",
        "latt": "56.36009",
        "longt": "8.61607",
        "address": "55265 Hamilton Lane Apt. 763nNew Mariafort, MA 64402"
    },
    {
        "state": "DK",
        "name": "Finderup",
        "city": "Hobro",
        "prov": "North Denmark",
        "region": "Mariagerfjord Kommune",
        "latt": "56.70002",
        "longt": "9.78102",
        "address": "684 Rowland Hill Suite 848nSalasside, VT 61669"
    },
    {
        "state": "DK",
        "name": "Snogdal",
        "city": "Spjald",
        "prov": "Central Jutland",
        "region": "Ringku00f8bing-Skjern Kommune",
        "latt": "56.14571",
        "longt": "8.52378",
        "address": "3607 Kyle Mountain Suite 946nSanchezstad, PA 09761"
    },
    {
        "state": "DK",
        "name": "Svestrup",
        "city": "Stenlose",
        "prov": "Capital Region",
        "region": "Egedal Kommune",
        "latt": "55.77341",
        "longt": "12.13096",
        "address": "96788 Joy FieldnJamestown, MD 23238"
    },
    {
        "state": "DK",
        "name": "Trendbjerg",
        "city": "Aabenraa",
        "prov": "South Denmark",
        "region": "Aabenraa Kommune",
        "latt": "55.07088",
        "longt": "9.4584",
        "address": "73115 Robert Port Suite 717nEast Rebecca, IA 10955"
    },
    {
        "state": "DK",
        "name": "Frijsendal",
        "city": "Hammel",
        "prov": "Central Jutland",
        "region": "Favrskov Kommune",
        "latt": "56.28195",
        "longt": "9.8775",
        "address": "040 Austin Ville Apt. 559nSouth Lindsay, UT 75549"
    },
    {
        "state": "DK",
        "name": "Neder Dru00e5by",
        "city": "Frederikssund",
        "prov": "Capital Region",
        "region": "Frederikssund Kommune",
        "latt": "55.85412",
        "longt": "11.99893",
        "address": "518 Floyd Greens Apt. 149nPort Benjaminside, WY 77635"
    },
    {
        "state": "DK",
        "name": "Nordost",
        "city": "Nordost",
        "prov": "North Denmark",
        "region": "Frederikshavn Kommune",
        "latt": "57.22027",
        "longt": "10.51372",
        "address": "8050 Bridges StreetnLatoyamouth, ME 65172"
    },
    {
        "state": "DK",
        "name": "Langtved",
        "city": "Ejby",
        "prov": "Zealand",
        "region": "Lejre Kommune",
        "latt": "55.66789",
        "longt": "11.82697",
        "address": "09337 Paige Pines Suite 293nEduardostad, ME 02630"
    },
    {
        "state": "DK",
        "name": "Lille Darum",
        "city": "Bramming",
        "prov": "South Denmark",
        "region": "Esbjerg Kommune",
        "latt": "55.44455",
        "longt": "8.64728",
        "address": "3512 Justin Hollow Apt. 945nJamesside, SD 57441"
    },
    {
        "state": "DK",
        "name": "Stjernegrund",
        "city": "Grasten",
        "prov": "South Denmark",
        "region": "Su00f8nderborg Kommune",
        "latt": "54.91667",
        "longt": "9.61667",
        "address": "Unit 5584 Box 1249nDPO AP 95217"
    },
    {
        "state": "DK",
        "name": "Balle",
        "city": "Balle",
        "prov": "Central Jutland",
        "region": "Syddjurs Kommune",
        "latt": "56.3173",
        "longt": "10.80979",
        "address": "65188 Adams Pine Apt. 953nPort Karen, MN 63176"
    },
    {
        "state": "DK",
        "name": "Su00f8borghoved Grund",
        "city": "Gilleleje",
        "prov": "Capital Region",
        "region": "Gribskov Kommune",
        "latt": "56.13333",
        "longt": "12.33333",
        "address": "04283 Martha Valley Suite 361nMistyview, CA 26604"
    },
    {
        "state": "DK",
        "name": "Gu00e5sevig",
        "city": "Horuphav",
        "prov": "South Denmark",
        "region": "Su00f8nderborg Kommune",
        "latt": "54.86932",
        "longt": "9.95657",
        "address": "7724 Wood Mountain Apt. 797nJohnsonville, WI 55319"
    },
    {
        "state": "DK",
        "name": "Lavu00f8",
        "city": "Helsinge",
        "prov": "Capital Region",
        "region": "Gribskov Kommune",
        "latt": "56.03978",
        "longt": "12.17838",
        "address": "7532 Deborah StravenuenGrayland, IA 07334"
    },
    {
        "state": "DK",
        "name": "Frijsendal",
        "city": "Hammel",
        "prov": "Central Jutland",
        "region": "Favrskov Kommune",
        "latt": "56.28195",
        "longt": "9.8775",
        "address": "3829 Scott Oval Suite 642nStephanieberg, RI 78580"
    },
    {
        "state": "DK",
        "name": "Su00f8nderup u00c5",
        "city": "Vegger",
        "prov": "North Denmark",
        "region": "Vesthimmerland Kommune",
        "latt": "56.90281",
        "longt": "9.57251",
        "address": "29408 Ronald CirclenEast Julie, ME 02146"
    },
    {
        "state": "DK",
        "name": "Gammel Havdrup",
        "city": "Solru00f8d Strand",
        "prov": "Zealand",
        "region": "Solru00f8d Kommune",
        "latt": "55.55171",
        "longt": "12.15911",
        "address": "6248 Lopez BypassnLaurieland, MI 73197"
    },
    {
        "state": "DK",
        "name": "Neder Dru00e5by",
        "city": "Frederikssund",
        "prov": "Capital Region",
        "region": "Frederikssund Kommune",
        "latt": "55.85412",
        "longt": "11.99893",
        "address": "USS McdonaldnFPO AA 10233"
    },
    {
        "state": "DK",
        "name": "Ku00f8rup",
        "city": "Korup",
        "prov": "Central Jutland",
        "region": "Horsens Kommune",
        "latt": "55.88096",
        "longt": "9.74723",
        "address": "829 Sanchez Vista Suite 850nZhangshire, NH 77184"
    },
    {
        "state": "DK",
        "name": "Nyrup",
        "city": "Kalundborg",
        "prov": "Zealand",
        "region": "Kalundborg Kommune",
        "latt": "55.70382",
        "longt": "11.04091",
        "address": "13513 Victoria Glens Suite 016nErikaview, MD 34655"
    },
    {
        "state": "DK",
        "name": "Sandstru00e6de",
        "city": "Naestved",
        "prov": "Zealand",
        "region": "Nu00e6stved Kommune",
        "latt": "55.23333",
        "longt": "11.76667",
        "address": "14495 Grant TracenPort Frederick, IA 28495"
    },
    {
        "state": "DK",
        "name": "Finderup",
        "city": "Hobro",
        "prov": "North Denmark",
        "region": "Mariagerfjord Kommune",
        "latt": "56.70002",
        "longt": "9.78102",
        "address": "4613 Amanda ParkwaysnEast Karen, VT 87905"
    },
    {
        "state": "DK",
        "name": "Tiselholt",
        "city": "Brohave",
        "prov": "South Denmark",
        "region": "Svendborg Kommune",
        "latt": "55.09868",
        "longt": "10.75433",
        "address": "708 Rebekah MissionnDennisburgh, ME 73512"
    },
    {
        "state": "DK",
        "name": "Roedby-havn",
        "city": "Ru00f8dbyhavn",
        "prov": "Zealand",
        "region": "Lolland Kommune",
        "latt": "54.654424",
        "longt": "11.352033",
        "address": "41386 Carol TrailnSuzanneshire, NM 94253"
    },
    {
        "state": "DK",
        "name": "Valhu00f8j",
        "city": "Rodovre",
        "prov": "Capital Region",
        "region": "Ru00f8dovre Kommune",
        "latt": "55.67472",
        "longt": "12.45806",
        "address": "99580 Williams EstatesnSouth Melanie, ME 26779"
    },
    {
        "state": "DK",
        "name": "Vorby Aa",
        "city": "Slagelse",
        "prov": "Zealand",
        "region": "Slagelse Kommune",
        "latt": "55.394724",
        "longt": "11.259425",
        "address": "078 Cherry HillnJohnsonbury, DC 50013"
    },
    {
        "state": "DK",
        "name": "Ku00f8rup",
        "city": "Korup",
        "prov": "Central Jutland",
        "region": "Horsens Kommune",
        "latt": "55.88096",
        "longt": "9.74723",
        "address": "41603 Sexton Cliff Suite 810nBennettmouth, OR 52208"
    },
    {
        "state": "DK",
        "name": "Gunderslevholm",
        "city": "Skelby",
        "prov": "Zealand",
        "region": "Nu00e6stved Kommune",
        "latt": "55.31518",
        "longt": "11.67126",
        "address": "98511 Pitts Lights Apt. 158nWest Sethton, WA 53541"
    },
    {
        "state": "DK",
        "name": "Poulsker 60 kV Substation",
        "city": "Nexo",
        "prov": "Capital Region",
        "region": "Bornholm Kommune",
        "latt": "55.02233",
        "longt": "15.056",
        "address": "761 Melton SummitnTommybury, OR 58496"
    },
    {
        "state": "DK",
        "name": "Roedby-havn",
        "city": "Ru00f8dbyhavn",
        "prov": "Zealand",
        "region": "Lolland Kommune",
        "latt": "54.654424",
        "longt": "11.352033",
        "address": "33322 Steven Mews Suite 678nSmithside, PA 84822"
    },
    {
        "state": "DK",
        "name": "Dalby",
        "city": "Dalby",
        "prov": "South Denmark",
        "region": "Kerteminde Kommune",
        "latt": "55.51698",
        "longt": "10.65922",
        "address": "33825 Thomas CornersnMargaretchester, MD 26962"
    },
    {
        "state": "DK",
        "name": "Faxe Kommune",
        "city": "Haslev",
        "prov": "Zealand",
        "region": "Faxe Kommune",
        "latt": "55.29444",
        "longt": "12.06111",
        "address": "22850 Owens LocksnPamelaville, MS 57865"
    },
    {
        "state": "DK",
        "name": "Kongensbro Kro",
        "city": "Truust",
        "prov": "Central Jutland",
        "region": "Silkeborg Kommune",
        "latt": "56.2978",
        "longt": "9.6677",
        "address": "136 Perez StreetsnStephaniehaven, NH 01539"
    },
    {
        "state": "DK",
        "name": "Ku00f8rup",
        "city": "Korup",
        "prov": "Central Jutland",
        "region": "Horsens Kommune",
        "latt": "55.88096",
        "longt": "9.74723",
        "address": "007 Jeremy Shores Apt. 066nPort Ethan, WI 09218"
    },
    {
        "state": "DK",
        "name": "Tu00e5strup",
        "city": "Stege",
        "prov": "Zealand",
        "region": "Vordingborg Kommune",
        "latt": "54.97616",
        "longt": "12.33815",
        "address": "156 Roberts ClubnLake Brianfort, SC 85223"
    },
    {
        "state": "DK",
        "name": "Holmgu00e5rde",
        "city": "Farso",
        "prov": "North Denmark",
        "region": "Vesthimmerland Kommune",
        "latt": "56.81833",
        "longt": "9.32427",
        "address": "19950 Cindy ShorenAshleymouth, CT 04229"
    },
    {
        "state": "DK",
        "name": "Volderslev",
        "city": "Hojby",
        "prov": "South Denmark",
        "region": "Odense Kommune",
        "latt": "55.33269",
        "longt": "10.39692",
        "address": "88853 Derek UnderpassnKimberlyside, OH 98919"
    },
    {
        "state": "DK",
        "name": "Bjerghuse",
        "city": "Fjand Garde",
        "prov": "Central Jutland",
        "region": "Holstebro Kommune",
        "latt": "56.32081",
        "longt": "8.12242",
        "address": "436 Robert PathnWest Tonya, WV 85369"
    },
    {
        "state": "DK",
        "name": "Frijsendal",
        "city": "Hammel",
        "prov": "Central Jutland",
        "region": "Favrskov Kommune",
        "latt": "56.28195",
        "longt": "9.8775",
        "address": "85488 Aguirre Stream Suite 893nRobinsonview, TX 14744"
    },
    {
        "state": "DK",
        "name": "Lille Rise",
        "city": "Marstal",
        "prov": "South Denmark",
        "region": "u00c6ru00f8 Kommune",
        "latt": "54.85831",
        "longt": "10.42713",
        "address": "5608 Donald DrivenPerezshire, ID 46900"
    },
    {
        "state": "DK",
        "name": "Finderup",
        "city": "Hobro",
        "prov": "North Denmark",
        "region": "Mariagerfjord Kommune",
        "latt": "56.70002",
        "longt": "9.78102",
        "address": "96784 Richard PrairienJacksonburgh, CO 96481"
    },
    {
        "state": "DK",
        "name": "Bjerghuse",
        "city": "Fjand Garde",
        "prov": "Central Jutland",
        "region": "Holstebro Kommune",
        "latt": "56.32081",
        "longt": "8.12242",
        "address": "PSC 4301, Box 4600nAPO AA 34147"
    },
    {
        "state": "DK",
        "name": "Pu00e5ku00e6r",
        "city": "Lemvig",
        "prov": "Central Jutland",
        "region": "Lemvig Kommune",
        "latt": "56.58333",
        "longt": "8.23333",
        "address": "Unit 7249 Box 2108nDPO AE 23644"
    },
    {
        "state": "DK",
        "name": "Su00f8nderup u00c5",
        "city": "Vegger",
        "prov": "North Denmark",
        "region": "Vesthimmerland Kommune",
        "latt": "56.90281",
        "longt": "9.57251",
        "address": "5614 English SquaresnGibsonhaven, WA 40751"
    },
    {
        "state": "DK",
        "name": "Du00f8lbyvad",
        "city": "Skive",
        "prov": "Central Jutland",
        "region": "Skive Kommune",
        "latt": "56.60942",
        "longt": "9.02531",
        "address": "50240 Hardy Unions Apt. 851nNicholsstad, WY 27848"
    },
    {
        "state": "DK",
        "name": "Hannesminde",
        "city": "Ronde",
        "prov": "Central Jutland",
        "region": "Syddjurs Kommune",
        "latt": "56.31667",
        "longt": "10.45",
        "address": "588 Evans StreetnEast Keithtown, OK 69010"
    },
    {
        "state": "DK",
        "name": "Merretskov",
        "city": "Maribo",
        "prov": "Zealand",
        "region": "Lolland Kommune",
        "latt": "54.82002",
        "longt": "11.46632",
        "address": "1632 Rich JunctionnEast Vanessa, PA 07165"
    },
    {
        "state": "DK",
        "name": "Skrydstrup",
        "city": "Vojens",
        "prov": "South Denmark",
        "region": "Haderslev Kommune",
        "latt": "55.24092",
        "longt": "9.25212",
        "address": "97004 Blevins ForgenJoseborough, NH 34986"
    },
    {
        "state": "DK",
        "name": "Tokkeku00f8b Hegn",
        "city": "Lillerod",
        "prov": "Capital Region",
        "region": "Alleru00f8d Kommune",
        "latt": "55.88302",
        "longt": "12.38367",
        "address": "23036 Stephanie Fields Suite 341nStacyside, MI 71454"
    },
    {
        "state": "DK",
        "name": "Ungstrup",
        "city": "Kjellerup",
        "prov": "Central Jutland",
        "region": "Silkeborg Kommune",
        "latt": "56.29358",
        "longt": "9.36109",
        "address": "8225 Kayla ForksnWest Patricia, NC 07975"
    },
    {
        "state": "DK",
        "name": "Valhu00f8j",
        "city": "Rodovre",
        "prov": "Capital Region",
        "region": "Ru00f8dovre Kommune",
        "latt": "55.67472",
        "longt": "12.45806",
        "address": "44145 James Corners Apt. 889nSouth Aaronstad, MO 77399"
    },
    {
        "state": "DK",
        "name": "Merretskov",
        "city": "Maribo",
        "prov": "Zealand",
        "region": "Lolland Kommune",
        "latt": "54.82002",
        "longt": "11.46632",
        "address": "409 Jacqueline GreensnMistyborough, HI 34832"
    },
    {
        "state": "DK",
        "name": "Haderslev",
        "city": "Haderslev",
        "prov": "South Denmark",
        "region": "Haderslev Kommune",
        "latt": "55.24943",
        "longt": "9.48771",
        "address": "40630 Linda GlennWhiteborough, NY 19805"
    },
    {
        "state": "DK",
        "name": "Dyret",
        "city": "Onsbjerg",
        "prov": "Central Jutland",
        "region": "Samsu00f8 Kommune",
        "latt": "55.85",
        "longt": "10.56667",
        "address": "492 Butler LandnNorth Nicole, DE 20155"
    },
    {
        "state": "DK",
        "name": "Lavu00f8",
        "city": "Helsinge",
        "prov": "Capital Region",
        "region": "Gribskov Kommune",
        "latt": "56.03978",
        "longt": "12.17838",
        "address": "88800 Stephanie ManorsnWest Sharon, TX 77521"
    },
    {
        "state": "DK",
        "name": "Stjernegrund",
        "city": "Grasten",
        "prov": "South Denmark",
        "region": "Su00f8nderborg Kommune",
        "latt": "54.91667",
        "longt": "9.61667",
        "address": "09437 Carrillo Lane Apt. 718nPort Tinaborough, SC 69617"
    },
    {
        "state": "DK",
        "name": "Trendbjerg",
        "city": "Aabenraa",
        "prov": "South Denmark",
        "region": "Aabenraa Kommune",
        "latt": "55.07088",
        "longt": "9.4584",
        "address": "0372 Anderson Stream Apt. 016nWeaverport, ND 61079"
    },
    {
        "state": "DK",
        "name": "Blenstrup",
        "city": "Blenstrup",
        "prov": "Central Jutland",
        "region": "Randers Kommune",
        "latt": "56.59819",
        "longt": "10.10727",
        "address": "065 Penny StreetnJohnchester, MS 93558"
    },
    {
        "state": "DK",
        "name": "Faxe Kommune",
        "city": "Haslev",
        "prov": "Zealand",
        "region": "Faxe Kommune",
        "latt": "55.29444",
        "longt": "12.06111",
        "address": "53800 Brittney RivernChristophermouth, UT 55983"
    },
    {
        "state": "DK",
        "name": "Bavn",
        "city": "Thisted",
        "prov": "North Denmark",
        "region": "Thisted Kommune",
        "latt": "56.97739",
        "longt": "8.6558",
        "address": "Unit 5502 Box 6373nDPO AP 21243"
    },
    {
        "state": "DK",
        "name": "Holstebro",
        "city": "Holstebro",
        "prov": "Central Jutland",
        "region": "Holstebro Kommune",
        "latt": "56.36009",
        "longt": "8.61607",
        "address": "4771 Robinson ManornLake Michelle, IL 16911"
    },
    {
        "state": "DK",
        "name": "Erholm",
        "city": "Arup",
        "prov": "South Denmark",
        "region": "Assens Kommune",
        "latt": "55.39409",
        "longt": "10.05377",
        "address": "1105 Thomas Walk Suite 557nLake Brianmouth, LA 84468"
    },
    {
        "state": "DK",
        "name": "Hannesminde",
        "city": "Ronde",
        "prov": "Central Jutland",
        "region": "Syddjurs Kommune",
        "latt": "56.31667",
        "longt": "10.45",
        "address": "47218 Rachel Mews Apt. 287nCathyview, DC 92057"
    },
    {
        "state": "DK",
        "name": "Du00f8lbyvad",
        "city": "Skive",
        "prov": "Central Jutland",
        "region": "Skive Kommune",
        "latt": "56.60942",
        "longt": "9.02531",
        "address": "Unit 7646 Box 9282nDPO AP 96226"
    },
    {
        "state": "DK",
        "name": "Lyng",
        "city": "Middelfart",
        "prov": "South Denmark",
        "region": "Fredericia Kommune",
        "latt": "55.51907",
        "longt": "9.73905",
        "address": "254 Jonathan Motorway Suite 934nBarbaraborough, OK 82690"
    },
    {
        "state": "DK",
        "name": "Langtved",
        "city": "Ejby",
        "prov": "Zealand",
        "region": "Lejre Kommune",
        "latt": "55.66789",
        "longt": "11.82697",
        "address": "388 Riley IslandsnHeatherberg, ID 35972"
    },
    {
        "state": "DK",
        "name": "Brassu00f8",
        "city": "Silkeborg",
        "prov": "Central Jutland",
        "region": "Silkeborg Kommune",
        "latt": "56.14196",
        "longt": "9.58452",
        "address": "8449 James ViewnMosleyshire, DE 55058"
    },
    {
        "state": "DK",
        "name": "Bavn",
        "city": "Thisted",
        "prov": "North Denmark",
        "region": "Thisted Kommune",
        "latt": "56.97739",
        "longt": "8.6558",
        "address": "63618 Bradley Cliff Apt. 903nHayesfurt, TX 30232"
    },
    {
        "state": "DK",
        "name": "Roedby-havn",
        "city": "Ru00f8dbyhavn",
        "prov": "Zealand",
        "region": "Lolland Kommune",
        "latt": "54.654424",
        "longt": "11.352033",
        "address": "918 Todd PlainnHayesborough, LA 74974"
    },
    {
        "state": "DK",
        "name": "Tiselholt",
        "city": "Brohave",
        "prov": "South Denmark",
        "region": "Svendborg Kommune",
        "latt": "55.09868",
        "longt": "10.75433",
        "address": "169 Barr LandingnRayfort, IN 93023"
    },
    {
        "state": "DK",
        "name": "Erholm",
        "city": "Arup",
        "prov": "South Denmark",
        "region": "Assens Kommune",
        "latt": "55.39409",
        "longt": "10.05377",
        "address": "8469 Young MountainnPort Maryview, WI 32783"
    },
    {
        "state": "DK",
        "name": "Hammerum",
        "city": "Herning",
        "prov": "Central Jutland",
        "region": "Herning Kommune",
        "latt": "56.13361",
        "longt": "9.06121",
        "address": "0618 Williamson VillagenCharlesville, AL 60726"
    },
    {
        "state": "DK",
        "name": "Brassu00f8",
        "city": "Silkeborg",
        "prov": "Central Jutland",
        "region": "Silkeborg Kommune",
        "latt": "56.14196",
        "longt": "9.58452",
        "address": "272 Pamela Parks Apt. 790nWebbberg, MT 21948"
    },
    {
        "state": "DK",
        "name": "Brassu00f8",
        "city": "Silkeborg",
        "prov": "Central Jutland",
        "region": "Silkeborg Kommune",
        "latt": "56.14196",
        "longt": "9.58452",
        "address": "53109 Vasquez ManornJacksonchester, MD 75166"
    },
    {
        "state": "DK",
        "name": "Langholtgu00e5rd",
        "city": "Kolding",
        "prov": "South Denmark",
        "region": "Kolding Kommune",
        "latt": "55.46652",
        "longt": "9.41043",
        "address": "99424 Amber Tunnel Suite 453nKellyside, ME 74017"
    },
    {
        "state": "DK",
        "name": "u00c5lsgu00e5rde",
        "city": "Helsingor",
        "prov": "Capital Region",
        "region": "Helsingu00f8r Kommune",
        "latt": "56.07559",
        "longt": "12.53995",
        "address": "28327 Guzman Isle Suite 460nNew Kaitlyn, FL 89353"
    },
    {
        "state": "DK",
        "name": "Ejegod",
        "city": "Nykobing Falster",
        "prov": "Zealand",
        "region": "Guldborgsund Kommune",
        "latt": "54.78333",
        "longt": "11.86667",
        "address": "471 Dawson Island Apt. 503nByrdfurt, WV 57064"
    },
    {
        "state": "DK",
        "name": "Nu00f8rre Brorstrup",
        "city": "Norre Brorstrup",
        "prov": "Central Jutland",
        "region": "Ringku00f8bing-Skjern Kommune",
        "latt": "56.09423",
        "longt": "8.41908",
        "address": "USNV LeenFPO AE 82546"
    },
    {
        "state": "DK",
        "name": "Oestergaards",
        "city": "Herning",
        "prov": "Central Jutland",
        "region": "Herning Kommune",
        "latt": "56.13439",
        "longt": "8.9959",
        "address": "859 Huffman RoadnLake Joseph, SD 11100"
    },
    {
        "state": "DK",
        "name": "Assedrup",
        "city": "Odder",
        "prov": "Central Jutland",
        "region": "Odder Kommune",
        "latt": "56.00387",
        "longt": "10.18338",
        "address": "0674 Timothy Island Apt. 909nJameston, AR 03715"
    },
    {
        "state": "DK",
        "name": "Haderslev",
        "city": "Haderslev",
        "prov": "South Denmark",
        "region": "Haderslev Kommune",
        "latt": "55.24943",
        "longt": "9.48771",
        "address": "780 Kenneth ForksnNew Maryport, CO 12332"
    },
    {
        "state": "DK",
        "name": "Brogaard",
        "city": "Duebjerggu00e5rd",
        "prov": "Capital Region",
        "region": "Bornholm Kommune",
        "latt": "55.177755",
        "longt": "14.736868",
        "address": "717 Lori PointsnWest Melodytown, CA 35889"
    },
    {
        "state": "DK",
        "name": "Dru00f8sselbjerg",
        "city": "Hong",
        "prov": "Zealand",
        "region": "Kalundborg Kommune",
        "latt": "55.4724",
        "longt": "11.20974",
        "address": "728 Johnson EstatesnSouth Kathleenfort, IN 20161"
    },
    {
        "state": "DK",
        "name": "Trendbjerg",
        "city": "Aabenraa",
        "prov": "South Denmark",
        "region": "Aabenraa Kommune",
        "latt": "55.07088",
        "longt": "9.4584",
        "address": "7204 David Knoll Apt. 956nCheyennechester, AL 02759"
    },
    {
        "state": "DK",
        "name": "Balle",
        "city": "Balle",
        "prov": "Central Jutland",
        "region": "Syddjurs Kommune",
        "latt": "56.3173",
        "longt": "10.80979",
        "address": "8241 Beth Plains Suite 921nSouth Jonathanburgh, NM 77318"
    },
    {
        "state": "DK",
        "name": "Lyng",
        "city": "Middelfart",
        "prov": "South Denmark",
        "region": "Fredericia Kommune",
        "latt": "55.51907",
        "longt": "9.73905",
        "address": "15868 Baker Forges Suite 203nWest Davidfurt, PA 75110"
    },
    {
        "state": "DK",
        "name": "Frijsendal",
        "city": "Hammel",
        "prov": "Central Jutland",
        "region": "Favrskov Kommune",
        "latt": "56.28195",
        "longt": "9.8775",
        "address": "34991 Cassandra RampnColeside, KS 26531"
    },
    {
        "state": "DK",
        "name": "Puglund",
        "city": "Starup",
        "prov": "South Denmark",
        "region": "Varde Kommune",
        "latt": "55.64421",
        "longt": "8.79134",
        "address": "13146 Wayne ValleysnWest Jameston, NM 31315"
    },
    {
        "state": "DK",
        "name": "Gunderslevholm",
        "city": "Skelby",
        "prov": "Zealand",
        "region": "Nu00e6stved Kommune",
        "latt": "55.31518",
        "longt": "11.67126",
        "address": "0694 Philip Run Suite 147nRosariochester, RI 70797"
    },
    {
        "state": "DK",
        "name": "Bavn",
        "city": "Thisted",
        "prov": "North Denmark",
        "region": "Thisted Kommune",
        "latt": "56.97739",
        "longt": "8.6558",
        "address": "83487 Samuel TracenPort Walter, IL 91603"
    },
    {
        "state": "DK",
        "name": "Lyng",
        "city": "Middelfart",
        "prov": "South Denmark",
        "region": "Fredericia Kommune",
        "latt": "55.51907",
        "longt": "9.73905",
        "address": "24300 Michelle Drives Apt. 529nNorth John, ID 58162"
    },
    {
        "state": "DK",
        "name": "Lille Rise",
        "city": "Marstal",
        "prov": "South Denmark",
        "region": "u00c6ru00f8 Kommune",
        "latt": "54.85831",
        "longt": "10.42713",
        "address": "57357 Richard RampnAmandahaven, MN 89188"
    },
    {
        "state": "DK",
        "name": "Hannesminde",
        "city": "Ronde",
        "prov": "Central Jutland",
        "region": "Syddjurs Kommune",
        "latt": "56.31667",
        "longt": "10.45",
        "address": "4171 Garcia Trail Apt. 338nDanielmouth, FL 93128"
    },
    {
        "state": "DK",
        "name": "Brassu00f8",
        "city": "Silkeborg",
        "prov": "Central Jutland",
        "region": "Silkeborg Kommune",
        "latt": "56.14196",
        "longt": "9.58452",
        "address": "28029 Samuel TrailnJamesbury, OR 90627"
    },
    {
        "state": "DK",
        "name": "Tokkeku00f8b Hegn",
        "city": "Lillerod",
        "prov": "Capital Region",
        "region": "Alleru00f8d Kommune",
        "latt": "55.88302",
        "longt": "12.38367",
        "address": "37823 Dana Ferry Suite 340nSouth Reginaldfurt, VT 03677"
    },
    {
        "state": "DK",
        "name": "Lyng",
        "city": "Middelfart",
        "prov": "South Denmark",
        "region": "Fredericia Kommune",
        "latt": "55.51907",
        "longt": "9.73905",
        "address": "72968 Alvarado Spurs Suite 701nThomaschester, RI 68012"
    },
    {
        "state": "DK",
        "name": "Lergrav",
        "city": "Avlum",
        "prov": "Central Jutland",
        "region": "Herning Kommune",
        "latt": "56.28285",
        "longt": "8.79956",
        "address": "8135 Lawson CliffnLake Joshua, DE 14674"
    },
    {
        "state": "DK",
        "name": "Lille Rise",
        "city": "Marstal",
        "prov": "South Denmark",
        "region": "u00c6ru00f8 Kommune",
        "latt": "54.85831",
        "longt": "10.42713",
        "address": "52947 Russell Run Apt. 223nNew Saraside, CO 45916"
    },
    {
        "state": "DK",
        "name": "Gammel Havdrup",
        "city": "Solru00f8d Strand",
        "prov": "Zealand",
        "region": "Solru00f8d Kommune",
        "latt": "55.55171",
        "longt": "12.15911",
        "address": "5338 Christopher MissionnWest Kristen, KY 60420"
    },
    {
        "state": "DK",
        "name": "Kalkgrund",
        "city": "Store Heddinge",
        "prov": "Zealand",
        "region": "Stevns Kommune",
        "latt": "55.34605",
        "longt": "12.45066",
        "address": "21240 Allison EstatenNorth Benjaminchester, CT 23689"
    },
    {
        "state": "DK",
        "name": "Melby",
        "city": "Sonderso",
        "prov": "South Denmark",
        "region": "Nordfyns Kommune",
        "latt": "55.53538",
        "longt": "10.2187",
        "address": "96399 Christopher HarbornWest Jessica, MD 38329"
    },
    {
        "state": "DK",
        "name": "Faxe Kommune",
        "city": "Haslev",
        "prov": "Zealand",
        "region": "Faxe Kommune",
        "latt": "55.29444",
        "longt": "12.06111",
        "address": "055 Theresa LocknMarkside, NY 10780"
    },
    {
        "state": "DK",
        "name": "Hammerum",
        "city": "Herning",
        "prov": "Central Jutland",
        "region": "Herning Kommune",
        "latt": "56.13361",
        "longt": "9.06121",
        "address": "730 Nelson CenternPort Wendyland, DC 72284"
    },
    {
        "state": "DK",
        "name": "Ejegod",
        "city": "Nykobing Falster",
        "prov": "Zealand",
        "region": "Guldborgsund Kommune",
        "latt": "54.78333",
        "longt": "11.86667",
        "address": "PSC 5251, Box 4761nAPO AP 82989"
    },
    {
        "state": "DK",
        "name": "Lyng",
        "city": "Middelfart",
        "prov": "South Denmark",
        "region": "Fredericia Kommune",
        "latt": "55.51907",
        "longt": "9.73905",
        "address": "586 Jonathan ParkwaynWest Nicholasview, OR 11870"
    },
    {
        "state": "DK",
        "name": "Lergrav",
        "city": "Avlum",
        "prov": "Central Jutland",
        "region": "Herning Kommune",
        "latt": "56.28285",
        "longt": "8.79956",
        "address": "1928 Pamela Mill Apt. 469nCarolynville, VA 11610"
    },
    {
        "state": "DK",
        "name": "Vorby Aa",
        "city": "Slagelse",
        "prov": "Zealand",
        "region": "Slagelse Kommune",
        "latt": "55.394724",
        "longt": "11.259425",
        "address": "7995 Cody Parks Suite 941nKeychester, AZ 26066"
    },
    {
        "state": "DK",
        "name": "Brogaard",
        "city": "Duebjerggu00e5rd",
        "prov": "Capital Region",
        "region": "Bornholm Kommune",
        "latt": "55.177755",
        "longt": "14.736868",
        "address": "USS TerrynFPO AP 37546"
    },
    {
        "state": "DK",
        "name": "Brassu00f8",
        "city": "Silkeborg",
        "prov": "Central Jutland",
        "region": "Silkeborg Kommune",
        "latt": "56.14196",
        "longt": "9.58452",
        "address": "60416 Kathleen CausewaynDebraburgh, MS 16181"
    },
    {
        "state": "DK",
        "name": "Tu00e5strup",
        "city": "Stege",
        "prov": "Zealand",
        "region": "Vordingborg Kommune",
        "latt": "54.97616",
        "longt": "12.33815",
        "address": "9249 Mark HillnRobertsonland, IA 63771"
    },
    {
        "state": "DK",
        "name": "Gu00e5restrup",
        "city": "Hju00f8rring",
        "prov": "North Denmark",
        "region": "Hju00f8rring Kommune",
        "latt": "57.483333",
        "longt": "9.95",
        "address": "20666 Courtney Village Suite 170nLoweview, RI 47516"
    },
    {
        "state": "DK",
        "name": "Bosagergu00e5rd",
        "city": "Sonderborg",
        "prov": "South Denmark",
        "region": "Su00f8nderborg Kommune",
        "latt": "54.91667",
        "longt": "9.78333",
        "address": "3314 Garcia TracenJonathanland, AL 49097"
    },
    {
        "state": "DK",
        "name": "Knudseje",
        "city": "Vester Gardsholt",
        "prov": "North Denmark",
        "region": "Frederikshavn Kommune",
        "latt": "57.27942",
        "longt": "10.29688",
        "address": "08698 Miller ClubnPort Laurenland, UT 30572"
    },
    {
        "state": "DK",
        "name": "Snogdal",
        "city": "Spjald",
        "prov": "Central Jutland",
        "region": "Ringku00f8bing-Skjern Kommune",
        "latt": "56.14571",
        "longt": "8.52378",
        "address": "38591 Megan Groves Apt. 087nMichaelview, NM 43395"
    },
    {
        "state": "DK",
        "name": "Neder Dru00e5by",
        "city": "Frederikssund",
        "prov": "Capital Region",
        "region": "Frederikssund Kommune",
        "latt": "55.85412",
        "longt": "11.99893",
        "address": "7125 Vasquez Ports Suite 114nLake Adrian, HI 44903"
    },
    {
        "state": "DK",
        "name": "Langtved",
        "city": "Ejby",
        "prov": "Zealand",
        "region": "Lejre Kommune",
        "latt": "55.66789",
        "longt": "11.82697",
        "address": "7520 Baldwin WellsnNorth Erik, AK 35747"
    },
    {
        "state": "DK",
        "name": "Gammel Havdrup",
        "city": "Solru00f8d Strand",
        "prov": "Zealand",
        "region": "Solru00f8d Kommune",
        "latt": "55.55171",
        "longt": "12.15911",
        "address": "390 Schneider ParksnCarlberg, KY 78850"
    },
    {
        "state": "DK",
        "name": "Ku00f8rup",
        "city": "Korup",
        "prov": "Central Jutland",
        "region": "Horsens Kommune",
        "latt": "55.88096",
        "longt": "9.74723",
        "address": "154 Jerry PlacenCooperville, DC 11690"
    },
    {
        "state": "DK",
        "name": "Melby",
        "city": "Sonderso",
        "prov": "South Denmark",
        "region": "Nordfyns Kommune",
        "latt": "55.53538",
        "longt": "10.2187",
        "address": "1588 Gordon RapidnNorth Shelbyview, OH 02597"
    },
    {
        "state": "DK",
        "name": "Hventgu00e5rd",
        "city": "Hventgard",
        "prov": "North Denmark",
        "region": "Lu00e6so Kommune",
        "latt": "57.26552",
        "longt": "10.95291",
        "address": "4516 Robinson Wall Suite 960nWeaverview, AZ 13919"
    },
    {
        "state": "DK",
        "name": "Ejegod",
        "city": "Nykobing Falster",
        "prov": "Zealand",
        "region": "Guldborgsund Kommune",
        "latt": "54.78333",
        "longt": "11.86667",
        "address": "30762 Ricky Roads Suite 896nAnthonymouth, AR 96524"
    },
    {
        "state": "DK",
        "name": "Skrydstrup",
        "city": "Vojens",
        "prov": "South Denmark",
        "region": "Haderslev Kommune",
        "latt": "55.24092",
        "longt": "9.25212",
        "address": "83619 Berger Manors Suite 227nBenjamintown, PA 63032"
    },
    {
        "state": "DK",
        "name": "Tornled",
        "city": "Veggerslev",
        "prov": "Central Jutland",
        "region": "Norddjurs Kommune",
        "latt": "56.48333",
        "longt": "10.83333",
        "address": "718 Robinson CliffsnCodyhaven, TX 26278"
    },
    {
        "state": "DK",
        "name": "u00d8rkenen",
        "city": "Anholt",
        "prov": "Central Jutland",
        "region": "Norddjurs Kommune",
        "latt": "56.71149",
        "longt": "11.58101",
        "address": "8208 Lori MeadowsnEast Angela, MO 08400"
    },
    {
        "state": "DK",
        "name": "Nu00f8rlev Strand",
        "city": "Nu00f8rlev",
        "prov": "North Denmark",
        "region": "Hju00f8rring Kommune",
        "latt": "57.5025",
        "longt": "9.84435",
        "address": "Unit 9375 Box 0449nDPO AA 11107"
    },
    {
        "state": "DK",
        "name": "Volderslev",
        "city": "Hojby",
        "prov": "South Denmark",
        "region": "Odense Kommune",
        "latt": "55.33269",
        "longt": "10.39692",
        "address": "152 Higgins Rapid Apt. 051nNorth Michaelshire, OR 81668"
    },
    {
        "state": "DK",
        "name": "Gu00e5sevig",
        "city": "Horuphav",
        "prov": "South Denmark",
        "region": "Su00f8nderborg Kommune",
        "latt": "54.86932",
        "longt": "9.95657",
        "address": "46981 Fitzpatrick Avenue Apt. 725nWongtown, CO 14310"
    },
    {
        "state": "DK",
        "name": "Merretskov",
        "city": "Maribo",
        "prov": "Zealand",
        "region": "Lolland Kommune",
        "latt": "54.82002",
        "longt": "11.46632",
        "address": "5006 Erin RidgesnTrantown, DE 86928"
    },
    {
        "state": "DK",
        "name": "Dronning Maries Puller",
        "city": "Slipshavn",
        "prov": "South Denmark",
        "region": "Nyborg Kommune",
        "latt": "55.2648",
        "longt": "10.918",
        "address": "6017 Ricky LakenNorth Sarah, FL 40878"
    },
    {
        "state": "DK",
        "name": "Bavn",
        "city": "Thisted",
        "prov": "North Denmark",
        "region": "Thisted Kommune",
        "latt": "56.97739",
        "longt": "8.6558",
        "address": "618 Scott StreamnPort Alyssa, CT 41429"
    },
    {
        "state": "DK",
        "name": "Volstrup",
        "city": "Svenstrup",
        "prov": "North Denmark",
        "region": "Rebild Kommune",
        "latt": "56.95553",
        "longt": "9.77632",
        "address": "000 Torres Court Apt. 411nPort Angela, NE 52643"
    },
    {
        "state": "DK",
        "name": "Vibu00e6k",
        "city": "Varde",
        "prov": "South Denmark",
        "region": "Varde Kommune",
        "latt": "55.59821",
        "longt": "8.39492",
        "address": "45254 Silva Squares Apt. 669nMillerville, OR 86116"
    },
    {
        "state": "DK",
        "name": "Tiselholt",
        "city": "Brohave",
        "prov": "South Denmark",
        "region": "Svendborg Kommune",
        "latt": "55.09868",
        "longt": "10.75433",
        "address": "88160 Maurice ForgesnParkerhaven, OH 23253"
    },
    {
        "state": "DK",
        "name": "Bju00f8rumgu00e5rd",
        "city": "Vestbjerg",
        "prov": "North Denmark",
        "region": "u00c5lborg Kommune",
        "latt": "57.12233",
        "longt": "9.92467",
        "address": "5927 Ian StravenuenNorth Mariomouth, CA 70370"
    },
    {
        "state": "DK",
        "name": "Bju00f8rumgu00e5rd",
        "city": "Vestbjerg",
        "prov": "North Denmark",
        "region": "u00c5lborg Kommune",
        "latt": "57.12233",
        "longt": "9.92467",
        "address": "32038 Jeremy FlatsnJamestown, TN 86989"
    },
    {
        "state": "DK",
        "name": "Lille-Hallegaard",
        "city": "u00c5kirkeby",
        "prov": "Capital Region",
        "region": "Bornholm Kommune",
        "latt": "55.052999",
        "longt": "14.857219",
        "address": "Unit 5721 Box 4792nDPO AP 35128"
    },
    {
        "state": "DK",
        "name": "Gunderslevholm",
        "city": "Skelby",
        "prov": "Zealand",
        "region": "Nu00e6stved Kommune",
        "latt": "55.31518",
        "longt": "11.67126",
        "address": "511 Rice LoopnPort Amanda, MN 67365"
    },
    {
        "state": "DK",
        "name": "Ejegod",
        "city": "Nykobing Falster",
        "prov": "Zealand",
        "region": "Guldborgsund Kommune",
        "latt": "54.78333",
        "longt": "11.86667",
        "address": "37888 Rachael Streets Suite 103nEast Renee, WI 39888"
    },
    {
        "state": "DK",
        "name": "Roedby-havn",
        "city": "Ru00f8dbyhavn",
        "prov": "Zealand",
        "region": "Lolland Kommune",
        "latt": "54.654424",
        "longt": "11.352033",
        "address": "USNV PricenFPO AE 51756"
    },
    {
        "state": "DK",
        "name": "Rolpested",
        "city": "Marstal",
        "prov": "South Denmark",
        "region": "u00c6ru00f8 Kommune",
        "latt": "54.85615",
        "longt": "10.48963",
        "address": "771 Curtis Street Apt. 006nPort Dennisside, WA 01055"
    },
    {
        "state": "DK",
        "name": "Hannesminde",
        "city": "Ronde",
        "prov": "Central Jutland",
        "region": "Syddjurs Kommune",
        "latt": "56.31667",
        "longt": "10.45",
        "address": "34051 Michael Village Apt. 889nSouth Michaelstad, VT 28512"
    },
    {
        "state": "DK",
        "name": "Sandstru00e6de",
        "city": "Naestved",
        "prov": "Zealand",
        "region": "Nu00e6stved Kommune",
        "latt": "55.23333",
        "longt": "11.76667",
        "address": "4594 Lauren ManorsnNorth Rachel, CA 74209"
    },
    {
        "state": "DK",
        "name": "Brassu00f8",
        "city": "Silkeborg",
        "prov": "Central Jutland",
        "region": "Silkeborg Kommune",
        "latt": "56.14196",
        "longt": "9.58452",
        "address": "3980 Sylvia ThroughwaynNorth Kathleenchester, ND 67761"
    },
    {
        "state": "DK",
        "name": "Haderslev",
        "city": "Haderslev",
        "prov": "South Denmark",
        "region": "Haderslev Kommune",
        "latt": "55.24943",
        "longt": "9.48771",
        "address": "024 Katie PrairienLake Sarahtown, FL 88225"
    },
    {
        "state": "DK",
        "name": "Konstantinsborg",
        "city": "Kolt",
        "prov": "Central Jutland",
        "region": "u00c5rhus Kommune",
        "latt": "56.139499",
        "longt": "10.076368",
        "address": "3445 Moore Rest Suite 617nRichardland, SD 79012"
    },
    {
        "state": "DK",
        "name": "Faxe Kommune",
        "city": "Haslev",
        "prov": "Zealand",
        "region": "Faxe Kommune",
        "latt": "55.29444",
        "longt": "12.06111",
        "address": "PSC 0291, Box 0344nAPO AP 78651"
    },
    {
        "state": "DK",
        "name": "Frijsendal",
        "city": "Hammel",
        "prov": "Central Jutland",
        "region": "Favrskov Kommune",
        "latt": "56.28195",
        "longt": "9.8775",
        "address": "418 Michael Meadow Suite 071nNorth Brittney, PA 37943"
    },
    {
        "state": "DK",
        "name": "Lyng",
        "city": "Middelfart",
        "prov": "South Denmark",
        "region": "Fredericia Kommune",
        "latt": "55.51907",
        "longt": "9.73905",
        "address": "9098 Williams Estates Apt. 079nLake Carlamouth, KY 22304"
    },
    {
        "state": "DK",
        "name": "u00d8rum",
        "city": "Hjallerup",
        "prov": "North Denmark",
        "region": "Bru00f8nderslev Kommune",
        "latt": "57.19205",
        "longt": "10.10528",
        "address": "16741 Williams EstatesnNew Johnnyburgh, MI 15955"
    },
    {
        "state": "DK",
        "name": "Holstebro",
        "city": "Holstebro",
        "prov": "Central Jutland",
        "region": "Holstebro Kommune",
        "latt": "56.36009",
        "longt": "8.61607",
        "address": "984 Coleman Mountain Apt. 545nJessicatown, NJ 90653"
    },
    {
        "state": "DK",
        "name": "Haderslev",
        "city": "Haderslev",
        "prov": "South Denmark",
        "region": "Haderslev Kommune",
        "latt": "55.24943",
        "longt": "9.48771",
        "address": "51881 Ashley Village Suite 315nPort Elizabeth, SD 18035"
    },
    {
        "state": "DK",
        "name": "Favrskov",
        "city": "Holsted",
        "prov": "South Denmark",
        "region": "Vejen Kommune",
        "latt": "55.53321",
        "longt": "8.93919",
        "address": "6470 Pamela ShorenKarenview, UT 09303"
    },
    {
        "state": "DK",
        "name": "Bavn",
        "city": "Thisted",
        "prov": "North Denmark",
        "region": "Thisted Kommune",
        "latt": "56.97739",
        "longt": "8.6558",
        "address": "181 Gray Islands Apt. 624nHernandezborough, ND 73426"
    },
    {
        "state": "DK",
        "name": "Kongensbro Kro",
        "city": "Truust",
        "prov": "Central Jutland",
        "region": "Silkeborg Kommune",
        "latt": "56.2978",
        "longt": "9.6677",
        "address": "77711 Hall Stravenue Suite 956nWest Susan, UT 27011"
    },
    {
        "state": "DK",
        "name": "Holmgu00e5rde",
        "city": "Farso",
        "prov": "North Denmark",
        "region": "Vesthimmerland Kommune",
        "latt": "56.81833",
        "longt": "9.32427",
        "address": "114 Peters Green Suite 475nEast Oscarborough, AL 37443"
    },
    {
        "state": "DK",
        "name": "Puglund",
        "city": "Starup",
        "prov": "South Denmark",
        "region": "Varde Kommune",
        "latt": "55.64421",
        "longt": "8.79134",
        "address": "8574 Timothy LoopnSouth Rebecca, VT 86949"
    },
    {
        "state": "DK",
        "name": "Finderup",
        "city": "Hobro",
        "prov": "North Denmark",
        "region": "Mariagerfjord Kommune",
        "latt": "56.70002",
        "longt": "9.78102",
        "address": "17262 Estrada JunctionnSouth Kiaraton, OK 88670"
    },
    {
        "state": "DK",
        "name": "Frederiksu00f8",
        "city": "Christianso",
        "prov": "Capital Region",
        "region": "Christiansu00f8",
        "latt": "55.32035",
        "longt": "15.18431",
        "address": "580 Andrea Circles Apt. 907nLake Christopherbury, HI 46269"
    },
    {
        "state": "DK",
        "name": "Tornled",
        "city": "Veggerslev",
        "prov": "Central Jutland",
        "region": "Norddjurs Kommune",
        "latt": "56.48333",
        "longt": "10.83333",
        "address": "2139 Rhodes ForestnLake Mariaberg, WV 47173"
    },
    {
        "state": "DK",
        "name": "Merretskov",
        "city": "Maribo",
        "prov": "Zealand",
        "region": "Lolland Kommune",
        "latt": "54.82002",
        "longt": "11.46632",
        "address": "6824 Phillips BridgenKevinstad, WI 64209"
    },
    {
        "state": "DK",
        "name": "Fiskophuse",
        "city": "Svendborg",
        "prov": "South Denmark",
        "region": "Svendborg Kommune",
        "latt": "55.03796",
        "longt": "10.5542",
        "address": "7142 Long Rest Suite 586nThompsonport, WY 59038"
    },
    {
        "state": "DK",
        "name": "Harku00e6r",
        "city": "Krusa",
        "prov": "South Denmark",
        "region": "Aabenraa Kommune",
        "latt": "54.84702",
        "longt": "9.41493",
        "address": "37697 Christine StreetsnLake Andrew, WI 54391"
    },
    {
        "state": "DK",
        "name": "Su00f8nderup u00c5",
        "city": "Vegger",
        "prov": "North Denmark",
        "region": "Vesthimmerland Kommune",
        "latt": "56.90281",
        "longt": "9.57251",
        "address": "070 Nicholas Ville Apt. 226nLake Susan, CO 99299"
    },
    {
        "state": "DK",
        "name": "Vester Andflod",
        "city": "Rudbu00f8l",
        "prov": "Schleswig-Holstein",
        "region": "Tu00f8nder Kommune",
        "latt": "54.907008",
        "longt": "8.764325",
        "address": "928 Courtney Rapid Suite 882nBautistastad, PA 54639"
    },
    {
        "state": "DK",
        "name": "Volstrup",
        "city": "Svenstrup",
        "prov": "North Denmark",
        "region": "Rebild Kommune",
        "latt": "56.95553",
        "longt": "9.77632",
        "address": "954 Sarah StreetsnKristenberg, MO 61777"
    },
    {
        "state": "DK",
        "name": "Fiskophuse",
        "city": "Svendborg",
        "prov": "South Denmark",
        "region": "Svendborg Kommune",
        "latt": "55.03796",
        "longt": "10.5542",
        "address": "096 Adams LakenSouth Stacyshire, IN 11040"
    },
    {
        "state": "DK",
        "name": "Valhu00f8j",
        "city": "Rodovre",
        "prov": "Capital Region",
        "region": "Ru00f8dovre Kommune",
        "latt": "55.67472",
        "longt": "12.45806",
        "address": "21402 Samantha ValleysnErinberg, KY 29548"
    },
    {
        "state": "DK",
        "name": "Ungstrup",
        "city": "Kjellerup",
        "prov": "Central Jutland",
        "region": "Silkeborg Kommune",
        "latt": "56.29358",
        "longt": "9.36109",
        "address": "73060 White Common Suite 905nWest Luke, NC 80402"
    },
    {
        "state": "DK",
        "name": "Tvolm",
        "city": "Hurup",
        "prov": "North Denmark",
        "region": "Thisted Kommune",
        "latt": "56.70929",
        "longt": "8.41392",
        "address": "505 Nicole Inlet Apt. 312nPort Jonathanview, IN 72814"
    },
    {
        "state": "DK",
        "name": "Lyng",
        "city": "Middelfart",
        "prov": "South Denmark",
        "region": "Fredericia Kommune",
        "latt": "55.51907",
        "longt": "9.73905",
        "address": "4700 Johnson LandingnSmithchester, TN 54766"
    },
    {
        "state": "DK",
        "name": "Kassebu00f8lle",
        "city": "Rudkobing",
        "prov": "South Denmark",
        "region": "Langeland Kommune",
        "latt": "54.95352",
        "longt": "10.75922",
        "address": "790 Carlson FlatsnWilsonland, OH 24692"
    },
    {
        "state": "DK",
        "name": "Gammel Havdrup",
        "city": "Solru00f8d Strand",
        "prov": "Zealand",
        "region": "Solru00f8d Kommune",
        "latt": "55.55171",
        "longt": "12.15911",
        "address": "8380 Meghan Circles Apt. 320nPort Rebeccaton, HI 64716"
    },
    {
        "state": "DK",
        "name": "Volderslev",
        "city": "Hojby",
        "prov": "South Denmark",
        "region": "Odense Kommune",
        "latt": "55.33269",
        "longt": "10.39692",
        "address": "539 Rita MountainsnEast Michelle, DC 89078"
    },
    {
        "state": "DK",
        "name": "Ungstrup",
        "city": "Kjellerup",
        "prov": "Central Jutland",
        "region": "Silkeborg Kommune",
        "latt": "56.29358",
        "longt": "9.36109",
        "address": "0836 Stephanie TunnelnSharonville, CO 34049"
    },
    {
        "state": "DK",
        "name": "Lyng",
        "city": "Middelfart",
        "prov": "South Denmark",
        "region": "Fredericia Kommune",
        "latt": "55.51907",
        "longt": "9.73905",
        "address": "04663 Linda LakenAllenburgh, SC 33802"
    },
    {
        "state": "DK",
        "name": "Valhu00f8j",
        "city": "Rodovre",
        "prov": "Capital Region",
        "region": "Ru00f8dovre Kommune",
        "latt": "55.67472",
        "longt": "12.45806",
        "address": "14044 Jasmine Views Suite 337nSouth Davidshire, AL 52119"
    },
    {
        "state": "DK",
        "name": "Dru00f8sselbjerg",
        "city": "Hong",
        "prov": "Zealand",
        "region": "Kalundborg Kommune",
        "latt": "55.4724",
        "longt": "11.20974",
        "address": "90138 Johnson LoafnNorth Scott, SD 34258"
    },
    {
        "state": "DK",
        "name": "Benslehu00f8j",
        "city": "Karup",
        "prov": "Central Jutland",
        "region": "Viborg Kommune",
        "latt": "56.35289",
        "longt": "9.22689",
        "address": "4792 Alexander Plaza Apt. 324nTylertown, MN 01512"
    },
    {
        "state": "DK",
        "name": "Frijsendal",
        "city": "Hammel",
        "prov": "Central Jutland",
        "region": "Favrskov Kommune",
        "latt": "56.28195",
        "longt": "9.8775",
        "address": "54876 Collins Shore Suite 692nSouth Jessicaville, AK 37843"
    },
    {
        "state": "DK",
        "name": "Hventgu00e5rd",
        "city": "Hventgard",
        "prov": "North Denmark",
        "region": "Lu00e6so Kommune",
        "latt": "57.26552",
        "longt": "10.95291",
        "address": "0260 Kevin Lake Suite 957nNew Kristenmouth, HI 75840"
    },
    {
        "state": "DK",
        "name": "Favrskov",
        "city": "Holsted",
        "prov": "South Denmark",
        "region": "Vejen Kommune",
        "latt": "55.53321",
        "longt": "8.93919",
        "address": "54132 Kevin Shoal Suite 503nKellyborough, IA 28844"
    },
    {
        "state": "DK",
        "name": "Merretskov",
        "city": "Maribo",
        "prov": "Zealand",
        "region": "Lolland Kommune",
        "latt": "54.82002",
        "longt": "11.46632",
        "address": "41046 Teresa Divide Suite 803nSouth Anthony, VT 24460"
    },
    {
        "state": "DK",
        "name": "Kassebu00f8lle",
        "city": "Rudkobing",
        "prov": "South Denmark",
        "region": "Langeland Kommune",
        "latt": "54.95352",
        "longt": "10.75922",
        "address": "455 Hensley Islands Apt. 764nNorth Miranda, NM 86111"
    },
    {
        "state": "DK",
        "name": "Trendbjerg",
        "city": "Aabenraa",
        "prov": "South Denmark",
        "region": "Aabenraa Kommune",
        "latt": "55.07088",
        "longt": "9.4584",
        "address": "2991 Faulkner RoadsnPort Amymouth, AK 12242"
    },
    {
        "state": "DK",
        "name": "Ungstrup",
        "city": "Kjellerup",
        "prov": "Central Jutland",
        "region": "Silkeborg Kommune",
        "latt": "56.29358",
        "longt": "9.36109",
        "address": "52876 Lowe OrchardnDennishaven, VT 70960"
    },
    {
        "state": "DK",
        "name": "Volderslev",
        "city": "Hojby",
        "prov": "South Denmark",
        "region": "Odense Kommune",
        "latt": "55.33269",
        "longt": "10.39692",
        "address": "4214 Stone BridgenBondchester, NY 20743"
    },
    {
        "state": "DK",
        "name": "Erholm",
        "city": "Arup",
        "prov": "South Denmark",
        "region": "Assens Kommune",
        "latt": "55.39409",
        "longt": "10.05377",
        "address": "USS HowellnFPO AP 39172"
    },
    {
        "state": "DK",
        "name": "u00d8rum",
        "city": "Hjallerup",
        "prov": "North Denmark",
        "region": "Bru00f8nderslev Kommune",
        "latt": "57.19205",
        "longt": "10.10528",
        "address": "377 Jack CovesnFieldschester, WV 49230"
    },
    {
        "state": "DK",
        "name": "Brassu00f8",
        "city": "Silkeborg",
        "prov": "Central Jutland",
        "region": "Silkeborg Kommune",
        "latt": "56.14196",
        "longt": "9.58452",
        "address": "263 Tina Ville Suite 997nJeffreychester, OH 81193"
    },
    {
        "state": "DK",
        "name": "Harku00e6r",
        "city": "Krusa",
        "prov": "South Denmark",
        "region": "Aabenraa Kommune",
        "latt": "54.84702",
        "longt": "9.41493",
        "address": "703 Stephen Squares Suite 994nCoxmouth, PA 92429"
    },
    {
        "state": "DK",
        "name": "Du00f8lbyvad",
        "city": "Skive",
        "prov": "Central Jutland",
        "region": "Skive Kommune",
        "latt": "56.60942",
        "longt": "9.02531",
        "address": "84565 Simpson Course Suite 994nJeffreyland, TN 04475"
    },
    {
        "state": "DK",
        "name": "Trendbjerg",
        "city": "Aabenraa",
        "prov": "South Denmark",
        "region": "Aabenraa Kommune",
        "latt": "55.07088",
        "longt": "9.4584",
        "address": "804 Duran CliffnPort Jenniferfort, ND 05344"
    },
    {
        "state": "DK",
        "name": "Erholm",
        "city": "Arup",
        "prov": "South Denmark",
        "region": "Assens Kommune",
        "latt": "55.39409",
        "longt": "10.05377",
        "address": "8994 Sophia Turnpike Suite 126nCooleymouth, NV 90887"
    },
    {
        "state": "DK",
        "name": "Oestergaards",
        "city": "Herning",
        "prov": "Central Jutland",
        "region": "Herning Kommune",
        "latt": "56.13439",
        "longt": "8.9959",
        "address": "727 Bell KnollnEast William, TX 04616"
    },
    {
        "state": "DK",
        "name": "Bju00f8rumgu00e5rd",
        "city": "Vestbjerg",
        "prov": "North Denmark",
        "region": "u00c5lborg Kommune",
        "latt": "57.12233",
        "longt": "9.92467",
        "address": "7775 Graves Skyway Suite 309nPatriciamouth, IL 46516"
    },
    {
        "state": "DK",
        "name": "Dalby",
        "city": "Dalby",
        "prov": "South Denmark",
        "region": "Kerteminde Kommune",
        "latt": "55.51698",
        "longt": "10.65922",
        "address": "7762 Lee StreetnNew Alexisshire, LA 73746"
    },
    {
        "state": "DK",
        "name": "Roedby-havn",
        "city": "Ru00f8dbyhavn",
        "prov": "Zealand",
        "region": "Lolland Kommune",
        "latt": "54.654424",
        "longt": "11.352033",
        "address": "5325 Hoffman Plaza Suite 883nSabrinaport, ME 04839"
    },
    {
        "state": "DK",
        "name": "Dru00f8sselbjerg",
        "city": "Hong",
        "prov": "Zealand",
        "region": "Kalundborg Kommune",
        "latt": "55.4724",
        "longt": "11.20974",
        "address": "4383 Harper Rapid Apt. 031nEast Catherineburgh, NH 04870"
    },
    {
        "state": "DK",
        "name": "Volderslev",
        "city": "Hojby",
        "prov": "South Denmark",
        "region": "Odense Kommune",
        "latt": "55.33269",
        "longt": "10.39692",
        "address": "454 Tyler TrailnNicoleside, WA 51278"
    },
    {
        "state": "DK",
        "name": "Volderslev",
        "city": "Hojby",
        "prov": "South Denmark",
        "region": "Odense Kommune",
        "latt": "55.33269",
        "longt": "10.39692",
        "address": "Unit 9711 Box 2156nDPO AA 20959"
    },
    {
        "state": "DK",
        "name": "Melby",
        "city": "Sonderso",
        "prov": "South Denmark",
        "region": "Nordfyns Kommune",
        "latt": "55.53538",
        "longt": "10.2187",
        "address": "725 Adams CrossingnNew Ashleychester, IL 18329"
    },
    {
        "state": "DK",
        "name": "Finderup",
        "city": "Hobro",
        "prov": "North Denmark",
        "region": "Mariagerfjord Kommune",
        "latt": "56.70002",
        "longt": "9.78102",
        "address": "Unit 7736 Box 8390nDPO AA 37919"
    },
    {
        "state": "DK",
        "name": "Faxe Kommune",
        "city": "Haslev",
        "prov": "Zealand",
        "region": "Faxe Kommune",
        "latt": "55.29444",
        "longt": "12.06111",
        "address": "3504 Newman CirclesnMillston, RI 89660"
    },
    {
        "state": "DK",
        "name": "Valhu00f8j",
        "city": "Rodovre",
        "prov": "Capital Region",
        "region": "Ru00f8dovre Kommune",
        "latt": "55.67472",
        "longt": "12.45806",
        "address": "PSC 0905, Box 3306nAPO AP 91685"
    },
    {
        "state": "DK",
        "name": "Stensby",
        "city": "Nyru00e5d",
        "prov": "Zealand",
        "region": "Vordingborg Kommune",
        "latt": "54.97984",
        "longt": "12.04053",
        "address": "35778 Morris IslandnWest Heatherberg, NM 72279"
    },
    {
        "state": "DK",
        "name": "Ku00f8rup",
        "city": "Korup",
        "prov": "Central Jutland",
        "region": "Horsens Kommune",
        "latt": "55.88096",
        "longt": "9.74723",
        "address": "89663 Sarah Lane Apt. 232nTroyside, IN 00597"
    },
    {
        "state": "DK",
        "name": "Assedrup",
        "city": "Odder",
        "prov": "Central Jutland",
        "region": "Odder Kommune",
        "latt": "56.00387",
        "longt": "10.18338",
        "address": "94529 Hamilton RanchnWest Benjamin, IA 35028"
    },
    {
        "state": "DK",
        "name": "Lille-Hallegaard",
        "city": "u00c5kirkeby",
        "prov": "Capital Region",
        "region": "Bornholm Kommune",
        "latt": "55.052999",
        "longt": "14.857219",
        "address": "18070 Taylor Row Apt. 049nKatrinaborough, NV 52583"
    },
    {
        "state": "DK",
        "name": "Volderslev",
        "city": "Hojby",
        "prov": "South Denmark",
        "region": "Odense Kommune",
        "latt": "55.33269",
        "longt": "10.39692",
        "address": "0284 Bobby MeadownWest Tiffany, WY 04635"
    },
    {
        "state": "DK",
        "name": "Tokkeku00f8b Hegn",
        "city": "Lillerod",
        "prov": "Capital Region",
        "region": "Alleru00f8d Kommune",
        "latt": "55.88302",
        "longt": "12.38367",
        "address": "7270 Jessica AvenuenNicholsonberg, OR 11030"
    },
    {
        "state": "DK",
        "name": "Blenstrup",
        "city": "Blenstrup",
        "prov": "Central Jutland",
        "region": "Randers Kommune",
        "latt": "56.59819",
        "longt": "10.10727",
        "address": "88706 Kevin Grove Apt. 609nTiffanyport, VA 66625"
    },
    {
        "state": "DK",
        "name": "Bju00f8rumgu00e5rd",
        "city": "Vestbjerg",
        "prov": "North Denmark",
        "region": "u00c5lborg Kommune",
        "latt": "57.12233",
        "longt": "9.92467",
        "address": "8562 Thomas MountainsnCooperfort, UT 82376"
    },
    {
        "state": "DK",
        "name": "Holmgu00e5rde",
        "city": "Farso",
        "prov": "North Denmark",
        "region": "Vesthimmerland Kommune",
        "latt": "56.81833",
        "longt": "9.32427",
        "address": "225 Terrance KeynLake Kristenfort, HI 17977"
    },
    {
        "state": "DK",
        "name": "Lergrav",
        "city": "Avlum",
        "prov": "Central Jutland",
        "region": "Herning Kommune",
        "latt": "56.28285",
        "longt": "8.79956",
        "address": "1621 Heather LakesnSouth Thomaston, KY 96621"
    },
    {
        "state": "DK",
        "name": "Holmgu00e5rde",
        "city": "Farso",
        "prov": "North Denmark",
        "region": "Vesthimmerland Kommune",
        "latt": "56.81833",
        "longt": "9.32427",
        "address": "USCGC FitzpatricknFPO AE 35509"
    },
    {
        "state": "DK",
        "name": "Dronning Maries Puller",
        "city": "Slipshavn",
        "prov": "South Denmark",
        "region": "Nyborg Kommune",
        "latt": "55.2648",
        "longt": "10.918",
        "address": "7409 Mathews Hill Suite 291nNorth Jennifertown, AZ 39463"
    },
    {
        "state": "DK",
        "name": "Svestrup",
        "city": "Stenlose",
        "prov": "Capital Region",
        "region": "Egedal Kommune",
        "latt": "55.77341",
        "longt": "12.13096",
        "address": "226 Jason FieldnLake Linda, ND 60412"
    },
    {
        "state": "DK",
        "name": "Lavu00f8",
        "city": "Helsinge",
        "prov": "Capital Region",
        "region": "Gribskov Kommune",
        "latt": "56.03978",
        "longt": "12.17838",
        "address": "864 Misty Crossing Suite 846nLake Michelle, IL 68290"
    },
    {
        "state": "DK",
        "name": "Giu00f6ttrup",
        "city": "Fjerritslev",
        "prov": "North Denmark",
        "region": "Jammerbugt Kommune",
        "latt": "57.058533",
        "longt": "9.211475",
        "address": "045 Shaffer Pine Apt. 141nLake Debraburgh, NE 72928"
    },
    {
        "state": "DK",
        "name": "Sandstru00e6de",
        "city": "Naestved",
        "prov": "Zealand",
        "region": "Nu00e6stved Kommune",
        "latt": "55.23333",
        "longt": "11.76667",
        "address": "10163 Hernandez GrovenJeremyhaven, NM 45922"
    },
    {
        "state": "DK",
        "name": "Holstebro",
        "city": "Holstebro",
        "prov": "Central Jutland",
        "region": "Holstebro Kommune",
        "latt": "56.36009",
        "longt": "8.61607",
        "address": "0449 Colton GreensnBenjaminville, OH 88307"
    },
    {
        "state": "DK",
        "name": "Vester Andflod",
        "city": "Rudbu00f8l",
        "prov": "Schleswig-Holstein",
        "region": "Tu00f8nder Kommune",
        "latt": "54.907008",
        "longt": "8.764325",
        "address": "45462 Kristine Divide Suite 047nBrendaborough, IL 38514"
    },
    {
        "state": "DK",
        "name": "Kalkgrund",
        "city": "Store Heddinge",
        "prov": "Zealand",
        "region": "Stevns Kommune",
        "latt": "55.34605",
        "longt": "12.45066",
        "address": "9022 Shannon Fork Suite 606nPort Kaylafurt, MA 65402"
    },
    {
        "state": "DK",
        "name": "Pu00e5ku00e6r",
        "city": "Lemvig",
        "prov": "Central Jutland",
        "region": "Lemvig Kommune",
        "latt": "56.58333",
        "longt": "8.23333",
        "address": "940 Brian Fall Apt. 578nEast Ashley, AK 23850"
    },
    {
        "state": "DK",
        "name": "Frijsendal",
        "city": "Hammel",
        "prov": "Central Jutland",
        "region": "Favrskov Kommune",
        "latt": "56.28195",
        "longt": "9.8775",
        "address": "77928 Becker Overpass Apt. 036nMarystad, OH 42302"
    },
    {
        "state": "DK",
        "name": "Lavu00f8",
        "city": "Helsinge",
        "prov": "Capital Region",
        "region": "Gribskov Kommune",
        "latt": "56.03978",
        "longt": "12.17838",
        "address": "USNS RobertsonnFPO AP 78981"
    },
    {
        "state": "DK",
        "name": "Bu00e5lhu00f8je",
        "city": "Tolne",
        "prov": "North Denmark",
        "region": "Hju00f8rring Kommune",
        "latt": "57.47601",
        "longt": "10.32758",
        "address": "502 Beasley Orchard Suite 804nSouth Michelleburgh, OH 43902"
    },
    {
        "state": "DK",
        "name": "Assedrup",
        "city": "Odder",
        "prov": "Central Jutland",
        "region": "Odder Kommune",
        "latt": "56.00387",
        "longt": "10.18338",
        "address": "PSC 5426, Box 3829nAPO AA 73446"
    },
    {
        "state": "DK",
        "name": "Vibu00e6k",
        "city": "Varde",
        "prov": "South Denmark",
        "region": "Varde Kommune",
        "latt": "55.59821",
        "longt": "8.39492",
        "address": "269 Wendy Estate Apt. 250nNorth Kimmouth, MD 73649"
    },
    {
        "state": "DK",
        "name": "Faxe Kommune",
        "city": "Haslev",
        "prov": "Zealand",
        "region": "Faxe Kommune",
        "latt": "55.29444",
        "longt": "12.06111",
        "address": "PSC 8765, Box 4144nAPO AE 40961"
    },
    {
        "state": "DK",
        "name": "Valhu00f8j",
        "city": "Rodovre",
        "prov": "Capital Region",
        "region": "Ru00f8dovre Kommune",
        "latt": "55.67472",
        "longt": "12.45806",
        "address": "51395 Michael Walks Apt. 402nSouth Susan, IN 51287"
    },
    {
        "state": "DK",
        "name": "Lyng",
        "city": "Middelfart",
        "prov": "South Denmark",
        "region": "Fredericia Kommune",
        "latt": "55.51907",
        "longt": "9.73905",
        "address": "919 Morris Plain Suite 817nAshleychester, NJ 56290"
    },
    {
        "state": "DK",
        "name": "Bobu00e6k",
        "city": "Hyrup",
        "prov": "Central Jutland",
        "region": "Hedensted Kommune",
        "latt": "55.69519",
        "longt": "9.8267",
        "address": "94466 Joshua Creek Suite 561nHamiltonfurt, WI 36366"
    },
    {
        "state": "DK",
        "name": "Kongensbro Kro",
        "city": "Truust",
        "prov": "Central Jutland",
        "region": "Silkeborg Kommune",
        "latt": "56.2978",
        "longt": "9.6677",
        "address": "Unit 9318 Box 7963nDPO AE 26282"
    },
    {
        "state": "DK",
        "name": "Fiskophuse",
        "city": "Svendborg",
        "prov": "South Denmark",
        "region": "Svendborg Kommune",
        "latt": "55.03796",
        "longt": "10.5542",
        "address": "069 Billy StreetnWest Erica, IL 16518"
    },
    {
        "state": "DK",
        "name": "Gammel Havdrup",
        "city": "Solru00f8d Strand",
        "prov": "Zealand",
        "region": "Solru00f8d Kommune",
        "latt": "55.55171",
        "longt": "12.15911",
        "address": "3563 Jennifer TracenSouth Denisefort, MA 03284"
    },
    {
        "state": "DK",
        "name": "Lu00f8gumgu00e5rde",
        "city": "Logumkloster",
        "prov": "South Denmark",
        "region": "Tu00f8nder Kommune",
        "latt": "55.07348",
        "longt": "8.93271",
        "address": "USNS HaydennFPO AP 16472"
    },
    {
        "state": "DK",
        "name": "Gunderslevholm",
        "city": "Skelby",
        "prov": "Zealand",
        "region": "Nu00e6stved Kommune",
        "latt": "55.31518",
        "longt": "11.67126",
        "address": "2265 Christian Lake Apt. 025nThomasbury, CO 33352"
    },
    {
        "state": "DK",
        "name": "Hannesminde",
        "city": "Ronde",
        "prov": "Central Jutland",
        "region": "Syddjurs Kommune",
        "latt": "56.31667",
        "longt": "10.45",
        "address": "8181 Ronald CrescentnNorth Troyfort, MT 30290"
    },
    {
        "state": "DK",
        "name": "Kassebu00f8lle",
        "city": "Rudkobing",
        "prov": "South Denmark",
        "region": "Langeland Kommune",
        "latt": "54.95352",
        "longt": "10.75922",
        "address": "570 Taylor CentersnNew Candacetown, FL 27474"
    },
    {
        "state": "DK",
        "name": "Bju00f8rumgu00e5rd",
        "city": "Vestbjerg",
        "prov": "North Denmark",
        "region": "u00c5lborg Kommune",
        "latt": "57.12233",
        "longt": "9.92467",
        "address": "08824 Perez KeysnJohnsonstad, MO 34177"
    },
    {
        "state": "DK",
        "name": "Faxe Kommune",
        "city": "Haslev",
        "prov": "Zealand",
        "region": "Faxe Kommune",
        "latt": "55.29444",
        "longt": "12.06111",
        "address": "6425 Gonzales Vista Apt. 504nBrooksfort, DC 70616"
    },
    {
        "state": "DK",
        "name": "Dru00f8sselbjerg",
        "city": "Hong",
        "prov": "Zealand",
        "region": "Kalundborg Kommune",
        "latt": "55.4724",
        "longt": "11.20974",
        "address": "USNV WilliamsnFPO AP 91617"
    },
    {
        "state": "DK",
        "name": "Dyret",
        "city": "Onsbjerg",
        "prov": "Central Jutland",
        "region": "Samsu00f8 Kommune",
        "latt": "55.85",
        "longt": "10.56667",
        "address": "PSC 4744, Box 8922nAPO AA 56416"
    },
    {
        "state": "DK",
        "name": "Valhu00f8j",
        "city": "Rodovre",
        "prov": "Capital Region",
        "region": "Ru00f8dovre Kommune",
        "latt": "55.67472",
        "longt": "12.45806",
        "address": "Unit 9590 Box 0782nDPO AP 04674"
    },
    {
        "state": "DK",
        "name": "Fiskophuse",
        "city": "Svendborg",
        "prov": "South Denmark",
        "region": "Svendborg Kommune",
        "latt": "55.03796",
        "longt": "10.5542",
        "address": "207 Daniel Isle Suite 043nRandallville, RI 71922"
    },
    {
        "state": "DK",
        "name": "Nu00f8rreu00f8ksesu00f8",
        "city": "Brovst",
        "prov": "North Denmark",
        "region": "Jammerbugt Kommune",
        "latt": "57.12852",
        "longt": "9.54831",
        "address": "760 Donna DrivenSouth Ronaldchester, IN 37648"
    },
    {
        "state": "DK",
        "name": "Merretskov",
        "city": "Maribo",
        "prov": "Zealand",
        "region": "Lolland Kommune",
        "latt": "54.82002",
        "longt": "11.46632",
        "address": "655 Robert SquaresnNorth Heatherbury, HI 33530"
    },
    {
        "state": "DK",
        "name": "Ejegod",
        "city": "Nykobing Falster",
        "prov": "Zealand",
        "region": "Guldborgsund Kommune",
        "latt": "54.78333",
        "longt": "11.86667",
        "address": "4506 Sharon LoafnSouth Christopherstad, RI 29229"
    },
    {
        "state": "DK",
        "name": "Svestrup",
        "city": "Stenlose",
        "prov": "Capital Region",
        "region": "Egedal Kommune",
        "latt": "55.77341",
        "longt": "12.13096",
        "address": "26132 Angela Camp Suite 404nEast Sean, NE 99759"
    },
    {
        "state": "DK",
        "name": "Blu00e5vands Huk",
        "city": "Blavand",
        "prov": "South Denmark",
        "region": "Varde Kommune",
        "latt": "55.55957",
        "longt": "8.07706",
        "address": "93564 Adams Underpass Apt. 530nWest Thomas, CO 77968"
    },
    {
        "state": "DK",
        "name": "Frijsendal",
        "city": "Hammel",
        "prov": "Central Jutland",
        "region": "Favrskov Kommune",
        "latt": "56.28195",
        "longt": "9.8775",
        "address": "778 Higgins CommonnPort Aaronburgh, TX 21047"
    },
    {
        "state": "DK",
        "name": "Svestrup",
        "city": "Stenlose",
        "prov": "Capital Region",
        "region": "Egedal Kommune",
        "latt": "55.77341",
        "longt": "12.13096",
        "address": "79965 Keith Forge Apt. 174nWest Hannah, NM 40175"
    },
    {
        "state": "DK",
        "name": "Gunderslevholm",
        "city": "Skelby",
        "prov": "Zealand",
        "region": "Nu00e6stved Kommune",
        "latt": "55.31518",
        "longt": "11.67126",
        "address": "3889 Costa OvalnEast Brookeberg, RI 47854"
    },
    {
        "state": "DK",
        "name": "Vester Andflod",
        "city": "Rudbu00f8l",
        "prov": "Schleswig-Holstein",
        "region": "Tu00f8nder Kommune",
        "latt": "54.907008",
        "longt": "8.764325",
        "address": "132 Shelton Cliffs Suite 234nErikmouth, WI 52962"
    },
    {
        "state": "DK",
        "name": "Konstantinsborg",
        "city": "Kolt",
        "prov": "Central Jutland",
        "region": "u00c5rhus Kommune",
        "latt": "56.139499",
        "longt": "10.076368",
        "address": "39808 Castillo Viaduct Suite 097nHarrisfurt, IL 55093"
    },
    {
        "state": "DK",
        "name": "Frijsendal",
        "city": "Hammel",
        "prov": "Central Jutland",
        "region": "Favrskov Kommune",
        "latt": "56.28195",
        "longt": "9.8775",
        "address": "USNS BaxternFPO AE 00639"
    },
    {
        "state": "DK",
        "name": "Svestrup",
        "city": "Stenlose",
        "prov": "Capital Region",
        "region": "Egedal Kommune",
        "latt": "55.77341",
        "longt": "12.13096",
        "address": "Unit 3005 Box 3681nDPO AP 62406"
    },
    {
        "state": "DK",
        "name": "Lyng",
        "city": "Middelfart",
        "prov": "South Denmark",
        "region": "Fredericia Kommune",
        "latt": "55.51907",
        "longt": "9.73905",
        "address": "670 Mclean DamnCristianborough, PA 82355"
    },
    {
        "state": "DK",
        "name": "Blenstrup",
        "city": "Blenstrup",
        "prov": "Central Jutland",
        "region": "Randers Kommune",
        "latt": "56.59819",
        "longt": "10.10727",
        "address": "6019 Fry Walks Suite 979nManningfort, VT 24142"
    },
    {
        "state": "DK",
        "name": "Snogdal",
        "city": "Spjald",
        "prov": "Central Jutland",
        "region": "Ringku00f8bing-Skjern Kommune",
        "latt": "56.14571",
        "longt": "8.52378",
        "address": "58089 Marcia Estate Apt. 535nStevenborough, IN 20571"
    },
    {
        "state": "DK",
        "name": "Frijsendal",
        "city": "Hammel",
        "prov": "Central Jutland",
        "region": "Favrskov Kommune",
        "latt": "56.28195",
        "longt": "9.8775",
        "address": "138 Cory LoopnPort Anthony, WY 55955"
    },
    {
        "state": "DK",
        "name": "Dru00f8sselbjerg",
        "city": "Hong",
        "prov": "Zealand",
        "region": "Kalundborg Kommune",
        "latt": "55.4724",
        "longt": "11.20974",
        "address": "20409 William Crescent Suite 594nEast Michelle, KS 00504"
    },
    {
        "state": "DK",
        "name": "Pu00e5ku00e6r",
        "city": "Lemvig",
        "prov": "Central Jutland",
        "region": "Lemvig Kommune",
        "latt": "56.58333",
        "longt": "8.23333",
        "address": "0080 Matthew Canyon Apt. 965nAustintown, CA 30345"
    },
    {
        "state": "DK",
        "name": "Lavu00f8",
        "city": "Helsinge",
        "prov": "Capital Region",
        "region": "Gribskov Kommune",
        "latt": "56.03978",
        "longt": "12.17838",
        "address": "7425 Carla Loaf Suite 413nWebbhaven, NM 83987"
    },
    {
        "state": "DK",
        "name": "Blenstrup",
        "city": "Blenstrup",
        "prov": "Central Jutland",
        "region": "Randers Kommune",
        "latt": "56.59819",
        "longt": "10.10727",
        "address": "83823 Anderson Rapids Apt. 723nWest Adamchester, OK 53114"
    },
    {
        "state": "DK",
        "name": "Lille Rise",
        "city": "Marstal",
        "prov": "South Denmark",
        "region": "u00c6ru00f8 Kommune",
        "latt": "54.85831",
        "longt": "10.42713",
        "address": "8848 Duke Lakes Suite 797nNorth Beverlyton, DE 46073"
    },
    {
        "state": "DK",
        "name": "Lyng",
        "city": "Middelfart",
        "prov": "South Denmark",
        "region": "Fredericia Kommune",
        "latt": "55.51907",
        "longt": "9.73905",
        "address": "762 Snyder Island Apt. 089nEricfort, LA 83750"
    },
    {
        "state": "DK",
        "name": "Dru00f8sselbjerg",
        "city": "Hong",
        "prov": "Zealand",
        "region": "Kalundborg Kommune",
        "latt": "55.4724",
        "longt": "11.20974",
        "address": "25500 Jacob Islands Suite 677nDennischester, CA 15363"
    },
    {
        "state": "DK",
        "name": "Keldskov",
        "city": "Handermelle",
        "prov": "Zealand",
        "region": "Guldborgsund Kommune",
        "latt": "54.66846",
        "longt": "11.55448",
        "address": "481 Jennifer RapidsnMorenoville, TX 19218"
    },
    {
        "state": "DK",
        "name": "Frijsendal",
        "city": "Hammel",
        "prov": "Central Jutland",
        "region": "Favrskov Kommune",
        "latt": "56.28195",
        "longt": "9.8775",
        "address": "706 Petty Summit Suite 249nWatsonberg, WV 33217"
    },
    {
        "state": "DK",
        "name": "Merretskov",
        "city": "Maribo",
        "prov": "Zealand",
        "region": "Lolland Kommune",
        "latt": "54.82002",
        "longt": "11.46632",
        "address": "44015 Proctor View Apt. 723nLynnview, FL 21030"
    },
    {
        "state": "DK",
        "name": "Langholtgu00e5rd",
        "city": "Kolding",
        "prov": "South Denmark",
        "region": "Kolding Kommune",
        "latt": "55.46652",
        "longt": "9.41043",
        "address": "0277 Christopher Drive Apt. 090nNorth Matthew, IL 62132"
    },
    {
        "state": "DK",
        "name": "Dru00f8sselbjerg",
        "city": "Hong",
        "prov": "Zealand",
        "region": "Kalundborg Kommune",
        "latt": "55.4724",
        "longt": "11.20974",
        "address": "24677 Kaylee Gardens Suite 634nPort Alexismouth, FL 46279"
    },
    {
        "state": "DK",
        "name": "Puglund",
        "city": "Starup",
        "prov": "South Denmark",
        "region": "Varde Kommune",
        "latt": "55.64421",
        "longt": "8.79134",
        "address": "481 Adam PinesnNorth Andreaburgh, DE 73139"
    },
    {
        "state": "DK",
        "name": "Frijsendal",
        "city": "Hammel",
        "prov": "Central Jutland",
        "region": "Favrskov Kommune",
        "latt": "56.28195",
        "longt": "9.8775",
        "address": "USS CookenFPO AP 41258"
    },
    {
        "state": "DK",
        "name": "Holmgu00e5rde",
        "city": "Farso",
        "prov": "North Denmark",
        "region": "Vesthimmerland Kommune",
        "latt": "56.81833",
        "longt": "9.32427",
        "address": "6694 Lester CornersnEast Davidtown, SD 85366"
    },
    {
        "state": "DK",
        "name": "Hannesminde",
        "city": "Ronde",
        "prov": "Central Jutland",
        "region": "Syddjurs Kommune",
        "latt": "56.31667",
        "longt": "10.45",
        "address": "29121 Osborn ViaductnJenniferburgh, MO 74409"
    },
    {
        "state": "DK",
        "name": "Erholm",
        "city": "Arup",
        "prov": "South Denmark",
        "region": "Assens Kommune",
        "latt": "55.39409",
        "longt": "10.05377",
        "address": "938 Greene InletnLake Laura, MT 90612"
    },
    {
        "state": "DK",
        "name": "Gammel Havdrup",
        "city": "Solru00f8d Strand",
        "prov": "Zealand",
        "region": "Solru00f8d Kommune",
        "latt": "55.55171",
        "longt": "12.15911",
        "address": "90428 Andrew Passage Apt. 683nAguirreland, HI 41222"
    },
    {
        "state": "DK",
        "name": "Dru00f8sselbjerg",
        "city": "Hong",
        "prov": "Zealand",
        "region": "Kalundborg Kommune",
        "latt": "55.4724",
        "longt": "11.20974",
        "address": "PSC 9144, Box 0422nAPO AA 22205"
    },
    {
        "state": "DK",
        "name": "Konstantinsborg",
        "city": "Kolt",
        "prov": "Central Jutland",
        "region": "u00c5rhus Kommune",
        "latt": "56.139499",
        "longt": "10.076368",
        "address": "61883 Johnson VillagesnHudsonburgh, WY 01472"
    },
    {
        "state": "DK",
        "name": "Merretskov",
        "city": "Maribo",
        "prov": "Zealand",
        "region": "Lolland Kommune",
        "latt": "54.82002",
        "longt": "11.46632",
        "address": "2242 Kennedy Bridge Apt. 390nDavidborough, NC 16599"
    },
    {
        "state": "DK",
        "name": "Du00f8lbyvad",
        "city": "Skive",
        "prov": "Central Jutland",
        "region": "Skive Kommune",
        "latt": "56.60942",
        "longt": "9.02531",
        "address": "7887 Rodriguez Fort Suite 547nSpencerchester, OR 03332"
    },
    {
        "state": "DK",
        "name": "Skrydstrup",
        "city": "Vojens",
        "prov": "South Denmark",
        "region": "Haderslev Kommune",
        "latt": "55.24092",
        "longt": "9.25212",
        "address": "60178 Alexander Way Suite 752nReneebury, SD 47928"
    },
    {
        "state": "DK",
        "name": "Oestergaards",
        "city": "Herning",
        "prov": "Central Jutland",
        "region": "Herning Kommune",
        "latt": "56.13439",
        "longt": "8.9959",
        "address": "0415 Haas Island Suite 905nSantiagoshire, MS 73562"
    },
    {
        "state": "DK",
        "name": "Bju00f8rumgu00e5rd",
        "city": "Vestbjerg",
        "prov": "North Denmark",
        "region": "u00c5lborg Kommune",
        "latt": "57.12233",
        "longt": "9.92467",
        "address": "09304 Cynthia Bypass Suite 931nRobinsonville, WY 77428"
    },
    {
        "state": "DK",
        "name": "Vorby Aa",
        "city": "Slagelse",
        "prov": "Zealand",
        "region": "Slagelse Kommune",
        "latt": "55.394724",
        "longt": "11.259425",
        "address": "33145 Harris SquarenMartinezview, ND 46090"
    },
    {
        "state": "DK",
        "name": "Bju00f8rumgu00e5rd",
        "city": "Vestbjerg",
        "prov": "North Denmark",
        "region": "u00c5lborg Kommune",
        "latt": "57.12233",
        "longt": "9.92467",
        "address": "1574 Phillips GreennPort Amymouth, MA 11907"
    },
    {
        "state": "DK",
        "name": "Knudseje",
        "city": "Vester Gardsholt",
        "prov": "North Denmark",
        "region": "Frederikshavn Kommune",
        "latt": "57.27942",
        "longt": "10.29688",
        "address": "992 Ramirez Forks Suite 855nNew Christopher, DC 98187"
    },
    {
        "state": "DK",
        "name": "Harku00e6r",
        "city": "Krusa",
        "prov": "South Denmark",
        "region": "Aabenraa Kommune",
        "latt": "54.84702",
        "longt": "9.41493",
        "address": "PSC 9554, Box 4272nAPO AP 96876"
    },
    {
        "state": "DK",
        "name": "u00d8rum",
        "city": "Hjallerup",
        "prov": "North Denmark",
        "region": "Bru00f8nderslev Kommune",
        "latt": "57.19205",
        "longt": "10.10528",
        "address": "71487 Ian Route Apt. 320nSouth Michael, TX 54531"
    },
    {
        "state": "DK",
        "name": "Bobu00e6k",
        "city": "Hyrup",
        "prov": "Central Jutland",
        "region": "Hedensted Kommune",
        "latt": "55.69519",
        "longt": "9.8267",
        "address": "703 Theresa Camp Suite 101nNorth Angela, CT 86368"
    },
    {
        "state": "DK",
        "name": "Valhu00f8j",
        "city": "Rodovre",
        "prov": "Capital Region",
        "region": "Ru00f8dovre Kommune",
        "latt": "55.67472",
        "longt": "12.45806",
        "address": "871 Herrera Oval Suite 885nSouth Stephanieview, CT 39561"
    },
    {
        "state": "DK",
        "name": "Poulsker 60 kV Substation",
        "city": "Nexo",
        "prov": "Capital Region",
        "region": "Bornholm Kommune",
        "latt": "55.02233",
        "longt": "15.056",
        "address": "Unit 7381 Box 5613nDPO AP 42426"
    },
    {
        "state": "DK",
        "name": "Kongensbro Kro",
        "city": "Truust",
        "prov": "Central Jutland",
        "region": "Silkeborg Kommune",
        "latt": "56.2978",
        "longt": "9.6677",
        "address": "57482 Gilbert Lock Apt. 898nSouth Johnton, LA 42075"
    },
    {
        "state": "DK",
        "name": "Lille Darum",
        "city": "Bramming",
        "prov": "South Denmark",
        "region": "Esbjerg Kommune",
        "latt": "55.44455",
        "longt": "8.64728",
        "address": "2245 Samantha SpringsnMeganmouth, DE 49730"
    },
    {
        "state": "DK",
        "name": "Konstantinsborg",
        "city": "Kolt",
        "prov": "Central Jutland",
        "region": "u00c5rhus Kommune",
        "latt": "56.139499",
        "longt": "10.076368",
        "address": "PSC 4555, Box 5473nAPO AE 74179"
    },
    {
        "state": "DK",
        "name": "Stensby",
        "city": "Nyru00e5d",
        "prov": "Zealand",
        "region": "Vordingborg Kommune",
        "latt": "54.97984",
        "longt": "12.04053",
        "address": "PSC 1327, Box 5732nAPO AA 27938"
    },
    {
        "state": "DK",
        "name": "Pu00e5ku00e6r",
        "city": "Lemvig",
        "prov": "Central Jutland",
        "region": "Lemvig Kommune",
        "latt": "56.58333",
        "longt": "8.23333",
        "address": "709 Massey VillagenStephanieton, SD 72047"
    },
    {
        "state": "DK",
        "name": "Konstantinsborg",
        "city": "Kolt",
        "prov": "Central Jutland",
        "region": "u00c5rhus Kommune",
        "latt": "56.139499",
        "longt": "10.076368",
        "address": "28402 Sarah Harbor Suite 799nNorth Jameston, OR 94069"
    },
    {
        "state": "DK",
        "name": "Langtved",
        "city": "Ejby",
        "prov": "Zealand",
        "region": "Lejre Kommune",
        "latt": "55.66789",
        "longt": "11.82697",
        "address": "96986 Fernando Plaza Apt. 997nLake Lydiamouth, CT 09006"
    },
    {
        "state": "DK",
        "name": "Lu00f8gumgu00e5rde",
        "city": "Logumkloster",
        "prov": "South Denmark",
        "region": "Tu00f8nder Kommune",
        "latt": "55.07348",
        "longt": "8.93271",
        "address": "258 Robert Land Apt. 232nNorth Rachel, DC 46672"
    },
    {
        "state": "DK",
        "name": "Gammel Havdrup",
        "city": "Solru00f8d Strand",
        "prov": "Zealand",
        "region": "Solru00f8d Kommune",
        "latt": "55.55171",
        "longt": "12.15911",
        "address": "52880 Maurice JunctionnJosephberg, KS 57582"
    },
    {
        "state": "DK",
        "name": "Volderslev",
        "city": "Hojby",
        "prov": "South Denmark",
        "region": "Odense Kommune",
        "latt": "55.33269",
        "longt": "10.39692",
        "address": "072 Melissa Ranch Suite 310nBeltranbury, IA 84577"
    },
    {
        "state": "DK",
        "name": "Holstebro",
        "city": "Holstebro",
        "prov": "Central Jutland",
        "region": "Holstebro Kommune",
        "latt": "56.36009",
        "longt": "8.61607",
        "address": "53941 Dunn ForgenWest Heatherburgh, NY 06140"
    },
    {
        "state": "DK",
        "name": "Hammerum",
        "city": "Herning",
        "prov": "Central Jutland",
        "region": "Herning Kommune",
        "latt": "56.13361",
        "longt": "9.06121",
        "address": "7971 Thomas HarbornManningbury, DC 24811"
    },
    {
        "state": "DK",
        "name": "Nyrup",
        "city": "Kalundborg",
        "prov": "Zealand",
        "region": "Kalundborg Kommune",
        "latt": "55.70382",
        "longt": "11.04091",
        "address": "6735 Ryan Fork Apt. 643nTaylorland, OH 22047"
    },
    {
        "state": "DK",
        "name": "Lille-Hallegaard",
        "city": "u00c5kirkeby",
        "prov": "Capital Region",
        "region": "Bornholm Kommune",
        "latt": "55.052999",
        "longt": "14.857219",
        "address": "USNS HansennFPO AP 68606"
    },
    {
        "state": "DK",
        "name": "Holstebro",
        "city": "Holstebro",
        "prov": "Central Jutland",
        "region": "Holstebro Kommune",
        "latt": "56.36009",
        "longt": "8.61607",
        "address": "58563 Paul Locks Suite 530nNorth Michael, AZ 68271"
    },
    {
        "state": "DK",
        "name": "Ku00f8rup",
        "city": "Korup",
        "prov": "Central Jutland",
        "region": "Horsens Kommune",
        "latt": "55.88096",
        "longt": "9.74723",
        "address": "727 Erin Lodge Apt. 637nNorth Ericport, NM 83342"
    },
    {
        "state": "DK",
        "name": "Lyng",
        "city": "Middelfart",
        "prov": "South Denmark",
        "region": "Fredericia Kommune",
        "latt": "55.51907",
        "longt": "9.73905",
        "address": "557 Denise RapidsnShaffershire, AL 77336"
    },
    {
        "state": "DK",
        "name": "Snogdal",
        "city": "Spjald",
        "prov": "Central Jutland",
        "region": "Ringku00f8bing-Skjern Kommune",
        "latt": "56.14571",
        "longt": "8.52378",
        "address": "050 Palmer Ramp Apt. 732nPort Chelseafort, CO 62093"
    },
    {
        "state": "DK",
        "name": "Lille Darum",
        "city": "Bramming",
        "prov": "South Denmark",
        "region": "Esbjerg Kommune",
        "latt": "55.44455",
        "longt": "8.64728",
        "address": "693 Rhodes CovenLake Louisport, ME 19187"
    },
    {
        "state": "DK",
        "name": "Lille-Hallegaard",
        "city": "u00c5kirkeby",
        "prov": "Capital Region",
        "region": "Bornholm Kommune",
        "latt": "55.052999",
        "longt": "14.857219",
        "address": "07076 Cameron VillagenWest Catherine, DC 98933"
    },
    {
        "state": "DK",
        "name": "Blu00e5vands Huk",
        "city": "Blavand",
        "prov": "South Denmark",
        "region": "Varde Kommune",
        "latt": "55.55957",
        "longt": "8.07706",
        "address": "5923 Paul Mount Suite 907nPort Whitneymouth, NC 68083"
    },
    {
        "state": "DK",
        "name": "Lyng",
        "city": "Middelfart",
        "prov": "South Denmark",
        "region": "Fredericia Kommune",
        "latt": "55.51907",
        "longt": "9.73905",
        "address": "PSC 0225, Box 6339nAPO AP 23690"
    },
    {
        "state": "DK",
        "name": "Blenstrup",
        "city": "Blenstrup",
        "prov": "Central Jutland",
        "region": "Randers Kommune",
        "latt": "56.59819",
        "longt": "10.10727",
        "address": "487 Martinez ViewsnNorth Annette, MN 49880"
    },
    {
        "state": "DK",
        "name": "Tokkeku00f8b Hegn",
        "city": "Lillerod",
        "prov": "Capital Region",
        "region": "Alleru00f8d Kommune",
        "latt": "55.88302",
        "longt": "12.38367",
        "address": "4165 Samuel Lodge Suite 807nNicholsonfort, SD 30120"
    },
    {
        "state": "DK",
        "name": "Konstantinsborg",
        "city": "Kolt",
        "prov": "Central Jutland",
        "region": "u00c5rhus Kommune",
        "latt": "56.139499",
        "longt": "10.076368",
        "address": "USNS NguyennFPO AA 48877"
    },
    {
        "state": "DK",
        "name": "Lille Darum",
        "city": "Bramming",
        "prov": "South Denmark",
        "region": "Esbjerg Kommune",
        "latt": "55.44455",
        "longt": "8.64728",
        "address": "0470 Shawn FerrynLake Christyside, AL 44105"
    },
    {
        "state": "DK",
        "name": "Dyret",
        "city": "Onsbjerg",
        "prov": "Central Jutland",
        "region": "Samsu00f8 Kommune",
        "latt": "55.85",
        "longt": "10.56667",
        "address": "8081 Richard Haven Suite 569nSouth Davidmouth, AR 56895"
    },
    {
        "state": "DK",
        "name": "Harku00e6r",
        "city": "Krusa",
        "prov": "South Denmark",
        "region": "Aabenraa Kommune",
        "latt": "54.84702",
        "longt": "9.41493",
        "address": "4470 Brandi ShoalnOchoaland, MO 48591"
    },
    {
        "state": "DK",
        "name": "Hannesminde",
        "city": "Ronde",
        "prov": "Central Jutland",
        "region": "Syddjurs Kommune",
        "latt": "56.31667",
        "longt": "10.45",
        "address": "5012 Rasmussen Forges Suite 390nLake Ronald, NC 23261"
    },
    {
        "state": "DK",
        "name": "Puglund",
        "city": "Starup",
        "prov": "South Denmark",
        "region": "Varde Kommune",
        "latt": "55.64421",
        "longt": "8.79134",
        "address": "PSC 7835, Box 2151nAPO AE 27070"
    },
    {
        "state": "DK",
        "name": "Lavu00f8",
        "city": "Helsinge",
        "prov": "Capital Region",
        "region": "Gribskov Kommune",
        "latt": "56.03978",
        "longt": "12.17838",
        "address": "1624 Cox Fields Apt. 876nNorth Katrinaton, NM 76070"
    },
    {
        "state": "DK",
        "name": "Trendbjerg",
        "city": "Aabenraa",
        "prov": "South Denmark",
        "region": "Aabenraa Kommune",
        "latt": "55.07088",
        "longt": "9.4584",
        "address": "243 Alexander Way Apt. 956nVictorstad, NY 87371"
    },
    {
        "state": "DK",
        "name": "Oestergaards",
        "city": "Herning",
        "prov": "Central Jutland",
        "region": "Herning Kommune",
        "latt": "56.13439",
        "longt": "8.9959",
        "address": "062 Orr IslenWoodsmouth, IL 28942"
    },
    {
        "state": "DK",
        "name": "Erholm",
        "city": "Arup",
        "prov": "South Denmark",
        "region": "Assens Kommune",
        "latt": "55.39409",
        "longt": "10.05377",
        "address": "38716 Johnson Light Apt. 601nNorth Mark, OR 28913"
    },