[
    {
        "state": "IE",
        "name": "Dysaghy Rocks",
        "city": "Dooagh",
        "prov": "Connaught",
        "region": "Mayo County",
        "latt": "53.94889",
        "longt": "-10.17417",
        "address": "726 Stephens Land Apt. 281nEast Denise, PA 19143"
    },
    {
        "state": "IE",
        "name": "Whitechurch",
        "city": "Dublin",
        "prov": "Leinster",
        "region": "South Dublin",
        "latt": "53.27615",
        "longt": "-6.28221",
        "address": "381 Debra Glens Apt. 845nPhambury, MO 30074"
    },
    {
        "state": "IE",
        "name": "Ballinderry",
        "city": "Rathdrum",
        "prov": "Leinster",
        "region": "Wicklow",
        "latt": "52.94639",
        "longt": "-6.27722",
        "address": "052 Greer Curve Suite 166nNorth Brian, ND 18346"
    },
    {
        "state": "IE",
        "name": "Ballinbug",
        "city": "Carrigaline",
        "prov": "Munster",
        "region": "County Cork",
        "latt": "51.75833",
        "longt": "-8.43694",
        "address": "5740 Juan VistanSouth Christopher, WY 54525"
    },
    {
        "state": "IE",
        "name": "Quarry Lodge",
        "city": "Gneevgullia",
        "prov": "Munster",
        "region": "Ciarrau00ed",
        "latt": "52.13056",
        "longt": "-9.29194",
        "address": "7442 Colton CrescentnEvanschester, MS 61372"
    },
    {
        "state": "IE",
        "name": "Derrycassan House",
        "city": "Granard",
        "prov": "Leinster",
        "region": "An Longfort",
        "latt": "53.81667",
        "longt": "-7.55",
        "address": "62001 Martinez ManornEast Ryanburgh, SD 37659"
    },
    {
        "state": "IE",
        "name": "Eagles Hill",
        "city": "Tooreenyduneen",
        "prov": "Munster",
        "region": "Ciarrau00ed",
        "latt": "51.81167",
        "longt": "-10.05722",
        "address": "334 Alan Fort Apt. 741nEast Morgan, IL 85911"
    },
    {
        "state": "IE",
        "name": "Cross of the Tree",
        "city": "Cross of the Tree",
        "prov": "Munster",
        "region": "Limerick City and County Council",
        "latt": "52.42417",
        "longt": "-8.38444",
        "address": "92457 Ward Lodge Apt. 664nWest Daniel, HI 66444"
    },
    {
        "state": "IE",
        "name": "Roxborough",
        "city": "The Fishpond Cross Roads",
        "prov": "Connaught",
        "region": "County Galway",
        "latt": "53.16694",
        "longt": "-8.69528",
        "address": "07085 Murphy MissionnWest Dillon, NY 54396"
    },
    {
        "state": "IE",
        "name": "Dooglasha River",
        "city": "Caherconlish",
        "prov": "Munster",
        "region": "Limerick City and County Council",
        "latt": "52.59194",
        "longt": "-8.39083",
        "address": "4668 Harris Corners Apt. 662nChristinahaven, NH 98094"
    },
    {
        "state": "IE",
        "name": "Glenhouse Wood",
        "city": "Portlaw",
        "prov": "Munster",
        "region": "Waterford City and County Council",
        "latt": "52.26389",
        "longt": "-7.31444",
        "address": "07776 Lauren DividenDennisbury, MD 25031"
    },
    {
        "state": "IE",
        "name": "Dooglasha River",
        "city": "Caherconlish",
        "prov": "Munster",
        "region": "Limerick City and County Council",
        "latt": "52.59194",
        "longt": "-8.39083",
        "address": "Unit 6930 Box 3112nDPO AA 03112"
    },
    {
        "state": "IE",
        "name": "Rossblaney",
        "city": "Rossblaney",
        "prov": "Ulster",
        "region": "County Donegal",
        "latt": "55.18222",
        "longt": "-7.69278",
        "address": "300 Reed Mission Suite 419nNorth Alexander, MI 25474"
    },
    {
        "state": "IE",
        "name": "Teereen Lough",
        "city": "Sixmilebridge",
        "prov": "Munster",
        "region": "An Clu00e1r",
        "latt": "52.79167",
        "longt": "-8.79944",
        "address": "770 Kayla PointsnEast Christopherbury, WY 96936"
    },
    {
        "state": "IE",
        "name": "Rusheens",
        "city": "Rusheens",
        "prov": "Connaught",
        "region": "Mayo County",
        "latt": "54.1925",
        "longt": "-9.17139",
        "address": "Unit 3157 Box 7854nDPO AP 45792"
    },
    {
        "state": "IE",
        "name": "Cross of the Tree",
        "city": "Cross of the Tree",
        "prov": "Munster",
        "region": "Limerick City and County Council",
        "latt": "52.42417",
        "longt": "-8.38444",
        "address": "3455 Parrish FallnEast Tanyaville, WY 79475"
    },
    {
        "state": "IE",
        "name": "Lough Waskel",
        "city": "Burtonport",
        "prov": "Ulster",
        "region": "County Donegal",
        "latt": "54.9925",
        "longt": "-8.410556",
        "address": "2916 Bradley Village Suite 109nHeatherfurt, MO 11518"
    },
    {
        "state": "IE",
        "name": "Tawnyanruddia",
        "city": "Owenduff",
        "prov": "Connaught",
        "region": "Mayo County",
        "latt": "54.05028",
        "longt": "-9.6775",
        "address": "1197 John Glens Suite 991nWest Chelsea, AK 55521"
    },
    {
        "state": "IE",
        "name": "Rossdongan House",
        "city": "Donegal",
        "prov": "Ulster",
        "region": "County Donegal",
        "latt": "54.64556",
        "longt": "-8.13667",
        "address": "461 Smith Rapids Suite 911nMarshfurt, OR 57695"
    },
    {
        "state": "IE",
        "name": "Belle Isle",
        "city": "Portumna",
        "prov": "Munster",
        "region": "County Tipperary",
        "latt": "53.08",
        "longt": "-8.18528",
        "address": "923 Hunt Avenue Suite 721nBensonhaven, CO 48521"
    },
    {
        "state": "IE",
        "name": "Lough Waskel",
        "city": "Burtonport",
        "prov": "Ulster",
        "region": "County Donegal",
        "latt": "54.9925",
        "longt": "-8.410556",
        "address": "2230 Grant SummitnSouth Kennethfurt, AK 31244"
    },
    {
        "state": "IE",
        "name": "Killowney",
        "city": "Cloghan",
        "prov": "Leinster",
        "region": "Uu00edbh Fhailu00ed",
        "latt": "53.23667",
        "longt": "-7.87361",
        "address": "03422 Bates Coves Suite 303nEast Johnberg, LA 94671"
    },
    {
        "state": "IE",
        "name": "Killoran",
        "city": "Killoran",
        "prov": "Connaught",
        "region": "Sligo",
        "latt": "54.14",
        "longt": "-8.64167",
        "address": "2683 Clark Port Apt. 879nNew Antoniofort, MT 04665"
    },
    {
        "state": "IE",
        "name": "Boytonrath House",
        "city": "Cashel",
        "prov": "Munster",
        "region": "County Tipperary",
        "latt": "52.46",
        "longt": "-7.91806",
        "address": "087 William HillsnNew Thomasmouth, NE 96870"
    },
    {
        "state": "IE",
        "name": "Whitechurch",
        "city": "Dublin",
        "prov": "Leinster",
        "region": "South Dublin",
        "latt": "53.27615",
        "longt": "-6.28221",
        "address": "0125 Paul MountainnKaylastad, IA 59903"
    },
    {
        "state": "IE",
        "name": "Rossdongan House",
        "city": "Donegal",
        "prov": "Ulster",
        "region": "County Donegal",
        "latt": "54.64556",
        "longt": "-8.13667",
        "address": "940 Green Cove Suite 453nTracyfort, CO 96485"
    },
    {
        "state": "IE",
        "name": "Roxborough",
        "city": "The Fishpond Cross Roads",
        "prov": "Connaught",
        "region": "County Galway",
        "latt": "53.16694",
        "longt": "-8.69528",
        "address": "91199 Jason Plaza Suite 391nSouth Anitachester, MI 72933"
    },
    {
        "state": "IE",
        "name": "Ballyvogue",
        "city": "Askeaton",
        "prov": "Munster",
        "region": "Limerick City and County Council",
        "latt": "52.60861",
        "longt": "-8.91194",
        "address": "25384 Elizabeth ShorenNorth Prestonmouth, MN 35759"
    },
    {
        "state": "IE",
        "name": "Charleville",
        "city": "Dunleer",
        "prov": "Leinster",
        "region": "Lu00fa",
        "latt": "53.86361",
        "longt": "-6.41528",
        "address": "421 Rodriguez Mountain Suite 436nWhiteside, FL 67620"
    },
    {
        "state": "IE",
        "name": "Glenhouse Wood",
        "city": "Portlaw",
        "prov": "Munster",
        "region": "Waterford City and County Council",
        "latt": "52.26389",
        "longt": "-7.31444",
        "address": "0871 Laura PortsnPort Elijah, CT 35131"
    },
    {
        "state": "IE",
        "name": "The Sweep",
        "city": "Carrick-on-Suir",
        "prov": "Leinster",
        "region": "Kilkenny",
        "latt": "52.37194",
        "longt": "-7.33444",
        "address": "71295 Joel IslandsnAlvaradomouth, NC 50805"
    },
    {
        "state": "IE",
        "name": "The Sweep",
        "city": "Carrick-on-Suir",
        "prov": "Leinster",
        "region": "Kilkenny",
        "latt": "52.37194",
        "longt": "-7.33444",
        "address": "287 Julia Neck Suite 551nPort Justinmouth, NC 96164"
    },
    {
        "state": "IE",
        "name": "Kilcummer Bridge",
        "city": "Kilcummer Bridge",
        "prov": "Munster",
        "region": "County Cork",
        "latt": "52.15556",
        "longt": "-8.45167",
        "address": "917 Booth Crescent Apt. 127nFitzpatrickbury, SC 59314"
    },
    {
        "state": "IE",
        "name": "Macmine Junction Station",
        "city": "Ballyhoge",
        "prov": "Leinster",
        "region": "Loch Garman",
        "latt": "52.41667",
        "longt": "-6.56667",
        "address": "8428 Adrian HeightsnSouth Aprilbury, NH 33160"
    },
    {
        "state": "IE",
        "name": "The Sweep",
        "city": "Carrick-on-Suir",
        "prov": "Leinster",
        "region": "Kilkenny",
        "latt": "52.37194",
        "longt": "-7.33444",
        "address": "04139 Ward Course Apt. 112nPort Steventown, NJ 81369"
    },
    {
        "state": "IE",
        "name": "Ballyhard",
        "city": "Ballyhard",
        "prov": "Connaught",
        "region": "County Galway",
        "latt": "53.6",
        "longt": "-8.48333",
        "address": "152 Joshua Terrace Suite 628nEast Nataliemouth, MD 89309"
    },
    {
        "state": "IE",
        "name": "Derrcennacno",
        "city": "Bantry",
        "prov": "Munster",
        "region": "County Cork",
        "latt": "51.64944",
        "longt": "-9.38583",
        "address": "PSC 7838, Box 4710nAPO AA 23878"
    },
    {
        "state": "IE",
        "name": "Aghakilconnell Lough",
        "city": "Annaghkeenly",
        "prov": "Connaught",
        "region": "County Leitrim",
        "latt": "53.99083",
        "longt": "-7.97333",
        "address": "4768 Kevin Meadows Apt. 655nPatriciaborough, CO 31073"
    },
    {
        "state": "IE",
        "name": "Drumsloe",
        "city": "Drumsloe",
        "prov": "Ulster",
        "region": "County Monaghan",
        "latt": "54.13917",
        "longt": "-7.31444",
        "address": "69213 Javier Mountain Apt. 039nLisaton, ID 35068"
    },
    {
        "state": "IE",
        "name": "Belle Isle",
        "city": "Portumna",
        "prov": "Munster",
        "region": "County Tipperary",
        "latt": "53.08",
        "longt": "-8.18528",
        "address": "67382 Roberson SkywaynSouth Linda, FL 98638"
    },
    {
        "state": "IE",
        "name": "Ballygillane Little",
        "city": "Ballygerry",
        "prov": "Leinster",
        "region": "Loch Garman",
        "latt": "52.24449",
        "longt": "-6.351",
        "address": "64062 Amy Rue Apt. 021nMacdonaldfort, NC 31580"
    },
    {
        "state": "IE",
        "name": "Dolanstown House",
        "city": "Maynooth",
        "prov": "Leinster",
        "region": "An Mhu00ed",
        "latt": "53.41194",
        "longt": "-6.64583",
        "address": "2762 Castillo WellsnPort Georgemouth, NJ 37747"
    },
    {
        "state": "IE",
        "name": "Dysaghy Rocks",
        "city": "Dooagh",
        "prov": "Connaught",
        "region": "Mayo County",
        "latt": "53.94889",
        "longt": "-10.17417",
        "address": "1815 Chad Shoals Suite 275nRebeccaville, NJ 49649"
    },
    {
        "state": "IE",
        "name": "Killoran",
        "city": "Killoran",
        "prov": "Connaught",
        "region": "Sligo",
        "latt": "54.14",
        "longt": "-8.64167",
        "address": "4391 Banks GardensnSouth Kevin, VT 90203"
    },
    {
        "state": "IE",
        "name": "Farran",
        "city": "Farran",
        "prov": "Munster",
        "region": "County Cork",
        "latt": "52.03333",
        "longt": "-8.66667",
        "address": "7568 Wilson Springs Suite 546nScottton, NM 98409"
    },
    {
        "state": "IE",
        "name": "Batterstown",
        "city": "Ballivor",
        "prov": "Leinster",
        "region": "An Mhu00ed",
        "latt": "53.4996",
        "longt": "-6.97327",
        "address": "7035 Johnson Street Suite 696nDominiquefurt, NH 91786"
    },
    {
        "state": "IE",
        "name": "Dysaghy Rocks",
        "city": "Dooagh",
        "prov": "Connaught",
        "region": "Mayo County",
        "latt": "53.94889",
        "longt": "-10.17417",
        "address": "869 Brown NecknPort Philipbury, TN 41761"
    },
    {
        "state": "IE",
        "name": "Akinkeen",
        "city": "Maugha",
        "prov": "Munster",
        "region": "County Cork",
        "latt": "51.81667",
        "longt": "-9.43333",
        "address": "9804 Austin Viaduct Apt. 638nSouth Luketown, SC 06906"
    },
    {
        "state": "IE",
        "name": "Belle Isle",
        "city": "Portumna",
        "prov": "Munster",
        "region": "County Tipperary",
        "latt": "53.08",
        "longt": "-8.18528",
        "address": "934 Olivia Mountain Suite 123nWest Daniel, WI 74948"
    },
    {
        "state": "IE",
        "name": "Creehennan",
        "city": "Creehennan",
        "prov": "Ulster",
        "region": "County Donegal",
        "latt": "55.14139",
        "longt": "-7.1875",
        "address": "566 Perez HarbornEast Joshuamouth, GA 60238"
    },
    {
        "state": "IE",
        "name": "Belle Isle",
        "city": "Portumna",
        "prov": "Munster",
        "region": "County Tipperary",
        "latt": "53.08",
        "longt": "-8.18528",
        "address": "Unit 2184 Box 6243nDPO AP 72771"
    },
    {
        "state": "IE",
        "name": "Moatfield Cross Roads",
        "city": "Athy",
        "prov": "Leinster",
        "region": "Kildare",
        "latt": "53.01917",
        "longt": "-6.90833",
        "address": "11985 Walker Route Apt. 436nMillerland, FL 13887"
    },
    {
        "state": "IE",
        "name": "Ballinbug",
        "city": "Carrigaline",
        "prov": "Munster",
        "region": "County Cork",
        "latt": "51.75833",
        "longt": "-8.43694",
        "address": "18358 Moses GatewaynPort Lauraborough, RI 30336"
    },
    {
        "state": "IE",
        "name": "Kilmovee",
        "city": "Kilmovee",
        "prov": "Connaught",
        "region": "Mayo County",
        "latt": "53.88333",
        "longt": "-8.68333",
        "address": "65612 Lynch Drive Apt. 066nNorth Larryborough, NE 52505"
    },
    {
        "state": "IE",
        "name": "Cross of the Tree",
        "city": "Cross of the Tree",
        "prov": "Munster",
        "region": "Limerick City and County Council",
        "latt": "52.42417",
        "longt": "-8.38444",
        "address": "07760 Robert Wells Suite 065nNorth Roberthaven, ME 67132"
    },
    {
        "state": "IE",
        "name": "Bobsville",
        "city": "Bobsville",
        "prov": "Leinster",
        "region": "An Mhu00ed",
        "latt": "53.71747",
        "longt": "-7.06988",
        "address": "810 Barbara Rapid Apt. 570nNorth Kimberly, CA 09961"
    },
    {
        "state": "IE",
        "name": "Batterstown",
        "city": "Ballivor",
        "prov": "Leinster",
        "region": "An Mhu00ed",
        "latt": "53.4996",
        "longt": "-6.97327",
        "address": "494 Mark Camp Apt. 789nWest Angela, MT 33734"
    },
    {
        "state": "IE",
        "name": "Rossdongan House",
        "city": "Donegal",
        "prov": "Ulster",
        "region": "County Donegal",
        "latt": "54.64556",
        "longt": "-8.13667",
        "address": "840 Tina FieldnLisamouth, TX 68740"
    },
    {
        "state": "IE",
        "name": "Shancroagh",
        "city": "Gaillimh",
        "prov": "Connaught",
        "region": "County Galway",
        "latt": "53.28389",
        "longt": "-9.04667",
        "address": "79071 Grant FortnTaylorborough, ME 06204"
    },
    {
        "state": "IE",
        "name": "Cross of the Tree",
        "city": "Cross of the Tree",
        "prov": "Munster",
        "region": "Limerick City and County Council",
        "latt": "52.42417",
        "longt": "-8.38444",
        "address": "09438 Steven BrooksnColemanfort, MT 60653"
    },
    {
        "state": "IE",
        "name": "Kilmovee",
        "city": "Kilmovee",
        "prov": "Connaught",
        "region": "Mayo County",
        "latt": "53.88333",
        "longt": "-8.68333",
        "address": "Unit 3063 Box 5378nDPO AE 17632"
    },
    {
        "state": "IE",
        "name": "Oatquarter",
        "city": "Fearann an Choirce",
        "prov": "Connaught",
        "region": "County Galway",
        "latt": "53.13833",
        "longt": "-9.7375",
        "address": "38653 Frank TurnpikenMartinshire, MD 00978"
    },
    {
        "state": "IE",
        "name": "Dysaghy Rocks",
        "city": "Dooagh",
        "prov": "Connaught",
        "region": "Mayo County",
        "latt": "53.94889",
        "longt": "-10.17417",
        "address": "188 Sarah Lakes Suite 187nRiversmouth, NJ 28516"
    },
    {
        "state": "IE",
        "name": "Cross of the Tree",
        "city": "Cross of the Tree",
        "prov": "Munster",
        "region": "Limerick City and County Council",
        "latt": "52.42417",
        "longt": "-8.38444",
        "address": "9082 Jennifer Creek Apt. 739nTaylorstad, VA 66343"
    },
    {
        "state": "IE",
        "name": "Termonbarry",
        "city": "Tarmonbarry",
        "prov": "Connaught",
        "region": "Roscommon",
        "latt": "53.74407",
        "longt": "-7.92305",
        "address": "2983 Fry Groves Apt. 905nRhondafurt, NJ 83625"
    },
    {
        "state": "IE",
        "name": "Raheen",
        "city": "Raheen",
        "prov": "Connaught",
        "region": "County Galway",
        "latt": "53.58333",
        "longt": "-8.6",
        "address": "34368 Gregory DividenWhiteborough, MN 33917"
    },
    {
        "state": "IE",
        "name": "Lisnagreeve",
        "city": "Castleblayney",
        "prov": "Ulster",
        "region": "County Monaghan",
        "latt": "54.16972",
        "longt": "-6.75028",
        "address": "351 Baxter EstatenCarriefurt, IL 84387"
    },
    {
        "state": "IE",
        "name": "Kilbrack House",
        "city": "Doneraile",
        "prov": "Munster",
        "region": "County Cork",
        "latt": "52.21667",
        "longt": "-8.56667",
        "address": "67334 Jeffery SkywaynBrianborough, LA 78547"
    },
    {
        "state": "IE",
        "name": "Eagles Hill",
        "city": "Tooreenyduneen",
        "prov": "Munster",
        "region": "Ciarrau00ed",
        "latt": "51.81167",
        "longt": "-10.05722",
        "address": "90140 Suarez DividenTurnerstad, WA 69746"
    },
    {
        "state": "IE",
        "name": "Dolanstown House",
        "city": "Maynooth",
        "prov": "Leinster",
        "region": "An Mhu00ed",
        "latt": "53.41194",
        "longt": "-6.64583",
        "address": "93976 Julie WellsnRobinsonborough, GA 34558"
    },
    {
        "state": "IE",
        "name": "Garryvoe",
        "city": "Garryvoe",
        "prov": "Munster",
        "region": "County Cork",
        "latt": "51.87556",
        "longt": "-8.00028",
        "address": "Unit 6251 Box 0493nDPO AA 66434"
    },
    {
        "state": "IE",
        "name": "Knockrower",
        "city": "Gowlane",
        "prov": "Munster",
        "region": "Ciarrau00ed",
        "latt": "51.94778",
        "longt": "-9.54639",
        "address": "731 David Parks Apt. 713nAmandastad, AR 88851"
    },
    {
        "state": "IE",
        "name": "Knockatemple",
        "city": "Knockatemple",
        "prov": "Connaught",
        "region": "Mayo County",
        "latt": "53.888361",
        "longt": "-9.100347",
        "address": "PSC 4723, Box 1751nAPO AA 48379"
    },
    {
        "state": "IE",
        "name": "Garrellstown House",
        "city": "Ballinspittle",
        "prov": "Munster",
        "region": "County Cork",
        "latt": "51.65611",
        "longt": "-8.60361",
        "address": "53941 Martin Ramp Apt. 793nNathanielfurt, NE 55474"
    },
    {
        "state": "IE",
        "name": "Coomnahincha",
        "city": "Coomnahincha",
        "prov": "Munster",
        "region": "Ciarrau00ed",
        "latt": "51.99139",
        "longt": "-10.20889",
        "address": "714 Gonzalez Wall Apt. 683nLake Jasontown, MT 79992"
    },
    {
        "state": "IE",
        "name": "Moatfield Cross Roads",
        "city": "Athy",
        "prov": "Leinster",
        "region": "Kildare",
        "latt": "53.01917",
        "longt": "-6.90833",
        "address": "25418 Anne HollownRobinsonton, LA 54412"
    },
    {
        "state": "IE",
        "name": "Drumsloe",
        "city": "Drumsloe",
        "prov": "Ulster",
        "region": "County Monaghan",
        "latt": "54.13917",
        "longt": "-7.31444",
        "address": "1270 Kelly Green Suite 757nParkerchester, KS 10504"
    },
    {
        "state": "IE",
        "name": "Knockatemple",
        "city": "Knockatemple",
        "prov": "Connaught",
        "region": "Mayo County",
        "latt": "53.888361",
        "longt": "-9.100347",
        "address": "532 Javier LodgenAprilton, CT 04027"
    },
    {
        "state": "IE",
        "name": "Lissanisky",
        "city": "Cobh",
        "prov": "Munster",
        "region": "County Cork",
        "latt": "51.87111",
        "longt": "-8.30528",
        "address": "34002 Donovan SpurnRioston, NC 03652"
    },
    {
        "state": "IE",
        "name": "Aghakilconnell Lough",
        "city": "Annaghkeenly",
        "prov": "Connaught",
        "region": "County Leitrim",
        "latt": "53.99083",
        "longt": "-7.97333",
        "address": "34130 Moss Divide Apt. 543nEast Richardchester, CO 60238"
    },
    {
        "state": "IE",
        "name": "Monalean Lough",
        "city": "Curraghmore Bridge",
        "prov": "Munster",
        "region": "County Tipperary",
        "latt": "52.33389",
        "longt": "-8.035",
        "address": "680 Bruce Spur Suite 639nDavidtown, VA 73128"
    },
    {
        "state": "IE",
        "name": "Aghakilconnell Lough",
        "city": "Annaghkeenly",
        "prov": "Connaught",
        "region": "County Leitrim",
        "latt": "53.99083",
        "longt": "-7.97333",
        "address": "75504 Johnson Lake Suite 264nEast Brandi, TX 51290"
    },
    {
        "state": "IE",
        "name": "Ballinderry",
        "city": "Rathdrum",
        "prov": "Leinster",
        "region": "Wicklow",
        "latt": "52.94639",
        "longt": "-6.27722",
        "address": "8956 Michael Roads Suite 842nNorth Ryan, NV 44183"
    },
    {
        "state": "IE",
        "name": "Garraun",
        "city": "Oranmore",
        "prov": "Connaught",
        "region": "County Galway",
        "latt": "53.23028",
        "longt": "-8.94583",
        "address": "645 Jennifer LightsnSouth Bobby, ME 67860"
    },
    {
        "state": "IE",
        "name": "Bohoona",
        "city": "Creduff",
        "prov": "Connaught",
        "region": "County Galway",
        "latt": "53.2525",
        "longt": "-9.32778",
        "address": "38336 Ashley Throughway Apt. 854nBarbarastad, IN 01265"
    },
    {
        "state": "IE",
        "name": "Knockrower",
        "city": "Gowlane",
        "prov": "Munster",
        "region": "Ciarrau00ed",
        "latt": "51.94778",
        "longt": "-9.54639",
        "address": "529 Nicole RivernNorth Maria, WI 17160"
    },
    {
        "state": "IE",
        "name": "Booly Bridge",
        "city": "Booly Bridge",
        "prov": "Leinster",
        "region": "Kilkenny",
        "latt": "52.43222",
        "longt": "-7.27833",
        "address": "8637 Davis VillagenEast Carlabury, MS 57666"
    },
    {
        "state": "IE",
        "name": "Ballinbug",
        "city": "Carrigaline",
        "prov": "Munster",
        "region": "County Cork",
        "latt": "51.75833",
        "longt": "-8.43694",
        "address": "74060 Carla LodgenNorth Derekmouth, IL 67646"
    },
    {
        "state": "IE",
        "name": "Carrigeel",
        "city": "Caherkeen",
        "prov": "Munster",
        "region": "County Cork",
        "latt": "51.68944",
        "longt": "-10.02944",
        "address": "806 Patricia CentersnNorth Darrellmouth, AR 05218"
    },
    {
        "state": "IE",
        "name": "Whitechurch",
        "city": "Dublin",
        "prov": "Leinster",
        "region": "South Dublin",
        "latt": "53.27615",
        "longt": "-6.28221",
        "address": "588 Joshua Stream Apt. 192nKarinastad, WY 67878"
    },
    {
        "state": "IE",
        "name": "Dooglasha River",
        "city": "Caherconlish",
        "prov": "Munster",
        "region": "Limerick City and County Council",
        "latt": "52.59194",
        "longt": "-8.39083",
        "address": "42390 Mason Square Suite 076nHebertbury, NV 52054"
    },
    {
        "state": "IE",
        "name": "The Sweep",
        "city": "Carrick-on-Suir",
        "prov": "Leinster",
        "region": "Kilkenny",
        "latt": "52.37194",
        "longt": "-7.33444",
        "address": "250 Monique PrairienAndreaside, TX 76530"
    },
    {
        "state": "IE",
        "name": "Belle Isle",
        "city": "Portumna",
        "prov": "Munster",
        "region": "County Tipperary",
        "latt": "53.08",
        "longt": "-8.18528",
        "address": "386 Marshall VillagenSouth Thomasmouth, KS 39482"
    },
    {
        "state": "IE",
        "name": "Ballyduff House",
        "city": "Stradbally",
        "prov": "Leinster",
        "region": "Laois",
        "latt": "53.00694",
        "longt": "-7.1075",
        "address": "29980 Cameron Plain Apt. 688nBeckerside, NY 65912"
    },
    {
        "state": "IE",
        "name": "Batterstown",
        "city": "Ballivor",
        "prov": "Leinster",
        "region": "An Mhu00ed",
        "latt": "53.4996",
        "longt": "-6.97327",
        "address": "167 Nichols HarborsnWest Barbaraview, MS 48865"
    },
    {
        "state": "IE",
        "name": "Moatfield Cross Roads",
        "city": "Athy",
        "prov": "Leinster",
        "region": "Kildare",
        "latt": "53.01917",
        "longt": "-6.90833",
        "address": "60113 Steve UnionsnThomasland, NH 02738"
    },
    {
        "state": "IE",
        "name": "Norwood",
        "city": "Nenagh Bridge",
        "prov": "Munster",
        "region": "County Tipperary",
        "latt": "52.8525",
        "longt": "-8.10389",
        "address": "31808 Jill VistanAndreaburgh, MS 65083"
    },
    {
        "state": "IE",
        "name": "Akinkeen",
        "city": "Maugha",
        "prov": "Munster",
        "region": "County Cork",
        "latt": "51.81667",
        "longt": "-9.43333",
        "address": "013 Emily Keys Suite 194nKendraside, MN 64022"
    },
    {
        "state": "IE",
        "name": "Rossdongan House",
        "city": "Donegal",
        "prov": "Ulster",
        "region": "County Donegal",
        "latt": "54.64556",
        "longt": "-8.13667",
        "address": "1864 Eddie Viaduct Apt. 557nOrrshire, HI 10865"
    },
    {
        "state": "IE",
        "name": "Lough Waskel",
        "city": "Burtonport",
        "prov": "Ulster",
        "region": "County Donegal",
        "latt": "54.9925",
        "longt": "-8.410556",
        "address": "5860 Vazquez VillagenCynthiashire, DC 50954"
    },
    {
        "state": "IE",
        "name": "Rathbaun",
        "city": "Castlebar",
        "prov": "Connaught",
        "region": "Mayo County",
        "latt": "53.86612",
        "longt": "-9.30622",
        "address": "6154 Patrick Grove Apt. 816nWest Tommyview, ID 17951"
    },
    {
        "state": "IE",
        "name": "Farran",
        "city": "Farran",
        "prov": "Munster",
        "region": "County Cork",
        "latt": "52.03333",
        "longt": "-8.66667",
        "address": "0976 Danny Parkway Apt. 884nLake Kellyland, ND 58478"
    },
    {
        "state": "IE",
        "name": "Moatfield Cross Roads",
        "city": "Athy",
        "prov": "Leinster",
        "region": "Kildare",
        "latt": "53.01917",
        "longt": "-6.90833",
        "address": "USNS JosephnFPO AA 26775"
    },
    {
        "state": "IE",
        "name": "Lough Waskel",
        "city": "Burtonport",
        "prov": "Ulster",
        "region": "County Donegal",
        "latt": "54.9925",
        "longt": "-8.410556",
        "address": "60143 James Unions Apt. 952nRamirezstad, ID 36271"
    },
    {
        "state": "IE",
        "name": "Kilmovee",
        "city": "Kilmovee",
        "prov": "Connaught",
        "region": "Mayo County",
        "latt": "53.88333",
        "longt": "-8.68333",
        "address": "PSC 9354, Box 1466nAPO AA 93240"
    },
    {
        "state": "IE",
        "name": "Lodgefield House",
        "city": "Rathdowney",
        "prov": "Leinster",
        "region": "Laois",
        "latt": "52.83333",
        "longt": "-7.50917",
        "address": "697 Vincent Station Apt. 357nSouth Kathyland, OH 11725"
    },
    {
        "state": "IE",
        "name": "Dromore West",
        "city": "Dromore West",
        "prov": "Connaught",
        "region": "Sligo",
        "latt": "54.24966",
        "longt": "-8.8785",
        "address": "1954 Barry Gardens Suite 108nVaughnfort, KY 52937"
    },
    {
        "state": "IE",
        "name": "Riverchapel",
        "city": "Courtown",
        "prov": "Leinster",
        "region": "Loch Garman",
        "latt": "52.63667",
        "longt": "-6.23194",
        "address": "8297 Browning WaynAlexandraland, DC 65109"
    },
    {
        "state": "IE",
        "name": "Raheen",
        "city": "Raheen",
        "prov": "Connaught",
        "region": "County Galway",
        "latt": "53.58333",
        "longt": "-8.6",
        "address": "43512 Cochran StreetnWest Carolyn, MA 21824"
    },
    {
        "state": "IE",
        "name": "Garrellstown House",
        "city": "Ballinspittle",
        "prov": "Munster",
        "region": "County Cork",
        "latt": "51.65611",
        "longt": "-8.60361",
        "address": "861 Reynolds CreeknChelseyport, ME 21255"
    },
    {
        "state": "IE",
        "name": "Bobsville",
        "city": "Bobsville",
        "prov": "Leinster",
        "region": "An Mhu00ed",
        "latt": "53.71747",
        "longt": "-7.06988",
        "address": "171 Stout Islands Apt. 220nMatthewside, AK 29202"
    },
    {
        "state": "IE",
        "name": "Cavan Point",
        "city": "Dunkineely",
        "prov": "Ulster",
        "region": "County Donegal",
        "latt": "54.61528",
        "longt": "-8.3525",
        "address": "76977 Hannah Centers Apt. 895nNew Tyler, WY 34277"
    },
    {
        "state": "IE",
        "name": "Farran",
        "city": "Farran",
        "prov": "Munster",
        "region": "County Cork",
        "latt": "52.03333",
        "longt": "-8.66667",
        "address": "14545 Michaela Village Suite 321nNorth Roberto, GA 92338"
    },
    {
        "state": "IE",
        "name": "Derrcennacno",
        "city": "Bantry",
        "prov": "Munster",
        "region": "County Cork",
        "latt": "51.64944",
        "longt": "-9.38583",
        "address": "8535 Susan ForestnTerrymouth, KY 35503"
    },
    {
        "state": "IE",
        "name": "Macmine Junction Station",
        "city": "Ballyhoge",
        "prov": "Leinster",
        "region": "Loch Garman",
        "latt": "52.41667",
        "longt": "-6.56667",
        "address": "49375 Robinson IslandnRobertfort, NM 69973"
    },
    {
        "state": "IE",
        "name": "Drumsloe",
        "city": "Drumsloe",
        "prov": "Ulster",
        "region": "County Monaghan",
        "latt": "54.13917",
        "longt": "-7.31444",
        "address": "2054 Thomas Rue Apt. 247nMarcusville, WV 69545"
    },
    {
        "state": "IE",
        "name": "Batterstown",
        "city": "Ballivor",
        "prov": "Leinster",
        "region": "An Mhu00ed",
        "latt": "53.4996",
        "longt": "-6.97327",
        "address": "118 Barnett MillsnLake Melissaville, NE 87707"
    },
    {
        "state": "IE",
        "name": "Drumsloe",
        "city": "Drumsloe",
        "prov": "Ulster",
        "region": "County Monaghan",
        "latt": "54.13917",
        "longt": "-7.31444",
        "address": "4484 Leslie PassagenNew Carrie, NV 47328"
    },
    {
        "state": "IE",
        "name": "Ballygillane Little",
        "city": "Ballygerry",
        "prov": "Leinster",
        "region": "Loch Garman",
        "latt": "52.24449",
        "longt": "-6.351",
        "address": "747 Rodgers PointnPort Tamara, FL 80177"
    },
    {
        "state": "IE",
        "name": "Clooncogaile",
        "city": "Clooncogaile",
        "prov": "Munster",
        "region": "Waterford City and County Council",
        "latt": "52.18333",
        "longt": "-7.71667",
        "address": "66337 Rhonda Point Apt. 235nSteveshire, ME 47134"
    },
    {
        "state": "IE",
        "name": "Ballinderry",
        "city": "Rathdrum",
        "prov": "Leinster",
        "region": "Wicklow",
        "latt": "52.94639",
        "longt": "-6.27722",
        "address": "66654 Lee PassnLarashire, MN 89926"
    },
    {
        "state": "IE",
        "name": "Whitechurch",
        "city": "Dublin",
        "prov": "Leinster",
        "region": "South Dublin",
        "latt": "53.27615",
        "longt": "-6.28221",
        "address": "506 Gomez WellnEast Jenniferton, SD 36124"
    },
    {
        "state": "IE",
        "name": "Palmerston",
        "city": "Blanchardstown",
        "prov": "Leinster",
        "region": "Fingal County",
        "latt": "53.36278",
        "longt": "-6.36556",
        "address": "USNV JimeneznFPO AE 86875"
    },
    {
        "state": "IE",
        "name": "Rossdongan House",
        "city": "Donegal",
        "prov": "Ulster",
        "region": "County Donegal",
        "latt": "54.64556",
        "longt": "-8.13667",
        "address": "1138 Bullock WaysnRebeccaville, WV 08016"
    },
    {
        "state": "IE",
        "name": "Rathbaun",
        "city": "Castlebar",
        "prov": "Connaught",
        "region": "Mayo County",
        "latt": "53.86612",
        "longt": "-9.30622",
        "address": "68586 Peters CenternNorth Laura, NY 10812"
    },
    {
        "state": "IE",
        "name": "The Pike",
        "city": "The Pike",
        "prov": "Munster",
        "region": "County Tipperary",
        "latt": "53.00306",
        "longt": "-8.00778",
        "address": "604 Ryan ParkwaynJeffreyfurt, IL 49130"
    },
    {
        "state": "IE",
        "name": "Palmerston",
        "city": "Blanchardstown",
        "prov": "Leinster",
        "region": "Fingal County",
        "latt": "53.36278",
        "longt": "-6.36556",
        "address": "9518 Aaron Stream Apt. 740nLake Laura, LA 97299"
    },
    {
        "state": "IE",
        "name": "Shancroagh",
        "city": "Gaillimh",
        "prov": "Connaught",
        "region": "County Galway",
        "latt": "53.28389",
        "longt": "-9.04667",
        "address": "3609 Tom Hills Apt. 510nWest Sarah, FL 83303"
    },
    {
        "state": "IE",
        "name": "Bunagarho",
        "city": "Listowel",
        "prov": "Munster",
        "region": "Ciarrau00ed",
        "latt": "52.44639",
        "longt": "-9.42139",
        "address": "274 Christina Greens Suite 997nSouth Larry, NV 33750"
    },
    {
        "state": "IE",
        "name": "Abbey Mount",
        "city": "Derry",
        "prov": "Munster",
        "region": "County Cork",
        "latt": "51.60083",
        "longt": "-9.13778",
        "address": "349 Pamela DividenWest Andrew, LA 30622"
    },
    {
        "state": "IE",
        "name": "Furness",
        "city": "Naas",
        "prov": "Leinster",
        "region": "Kildare",
        "latt": "53.22444",
        "longt": "-6.61056",
        "address": "619 Campbell LightsnCervantesfort, WI 79138"
    },
    {
        "state": "IE",
        "name": "Macmine Junction Station",
        "city": "Ballyhoge",
        "prov": "Leinster",
        "region": "Loch Garman",
        "latt": "52.41667",
        "longt": "-6.56667",
        "address": "0150 Richard AvenuenPeterborough, VA 71451"
    },
    {
        "state": "IE",
        "name": "Ballynastraw Cottage",
        "city": "Bunclody",
        "prov": "Leinster",
        "region": "Loch Garman",
        "latt": "52.67806",
        "longt": "-6.63972",
        "address": "67253 Penny ExtensionnBellhaven, ND 89404"
    },
    {
        "state": "IE",
        "name": "Whitechurch",
        "city": "Dublin",
        "prov": "Leinster",
        "region": "South Dublin",
        "latt": "53.27615",
        "longt": "-6.28221",
        "address": "3588 Carmen Wall Apt. 936nAshleefort, MD 59097"
    },
    {
        "state": "IE",
        "name": "Ollatrim River",
        "city": "Nenagh Bridge",
        "prov": "Munster",
        "region": "County Tipperary",
        "latt": "52.87417",
        "longt": "-8.18806",
        "address": "128 Friedman CliffsnDiazland, IL 16596"
    },
    {
        "state": "IE",
        "name": "Drumsloe",
        "city": "Drumsloe",
        "prov": "Ulster",
        "region": "County Monaghan",
        "latt": "54.13917",
        "longt": "-7.31444",
        "address": "8740 Lucero Highway Apt. 452nSalasborough, AK 91794"
    },
    {
        "state": "IE",
        "name": "Dysaghy Rocks",
        "city": "Dooagh",
        "prov": "Connaught",
        "region": "Mayo County",
        "latt": "53.94889",
        "longt": "-10.17417",
        "address": "0465 Natalie Ranch Suite 494nReynoldsport, MO 96613"
    },
    {
        "state": "IE",
        "name": "Belle Isle",
        "city": "Portumna",
        "prov": "Munster",
        "region": "County Tipperary",
        "latt": "53.08",
        "longt": "-8.18528",
        "address": "7422 Richard WalknWest Kristinville, ND 63112"
    },
    {
        "state": "IE",
        "name": "Lodgefield House",
        "city": "Rathdowney",
        "prov": "Leinster",
        "region": "Laois",
        "latt": "52.83333",
        "longt": "-7.50917",
        "address": "1661 Derek SpringsnSouth Penny, OH 93793"
    },
    {
        "state": "IE",
        "name": "Killowney",
        "city": "Cloghan",
        "prov": "Leinster",
        "region": "Uu00edbh Fhailu00ed",
        "latt": "53.23667",
        "longt": "-7.87361",
        "address": "USCGC AndersonnFPO AE 77773"
    },
    {
        "state": "IE",
        "name": "Ballynastraw Cottage",
        "city": "Bunclody",
        "prov": "Leinster",
        "region": "Loch Garman",
        "latt": "52.67806",
        "longt": "-6.63972",
        "address": "31816 Pamela LoafnBlairberg, ID 58655"
    },
    {
        "state": "IE",
        "name": "Kilcummer Bridge",
        "city": "Kilcummer Bridge",
        "prov": "Munster",
        "region": "County Cork",
        "latt": "52.15556",
        "longt": "-8.45167",
        "address": "24638 Drake JunctionnNew Regina, NV 47225"
    },
    {
        "state": "IE",
        "name": "Slieve Daeane",
        "city": "Sligo",
        "prov": "Connaught",
        "region": "Sligo",
        "latt": "54.218889",
        "longt": "-8.4425",
        "address": "810 Diana WalksnNew Joseph, MN 65563"
    },
    {
        "state": "IE",
        "name": "Knocka Lough",
        "city": "Knockalough",
        "prov": "Munster",
        "region": "An Clu00e1r",
        "latt": "52.7125",
        "longt": "-9.2725",
        "address": "961 Dean GreensnGlennstad, NY 70250"
    },
    {
        "state": "IE",
        "name": "Rossdongan House",
        "city": "Donegal",
        "prov": "Ulster",
        "region": "County Donegal",
        "latt": "54.64556",
        "longt": "-8.13667",
        "address": "PSC 0503, Box 9814nAPO AA 98191"
    },
    {
        "state": "IE",
        "name": "Knockatemple",
        "city": "Knockatemple",
        "prov": "Connaught",
        "region": "Mayo County",
        "latt": "53.888361",
        "longt": "-9.100347",
        "address": "887 Holden Corner Apt. 559nAlexanderfurt, ID 71014"
    },
    {
        "state": "IE",
        "name": "Ballyduff House",
        "city": "Stradbally",
        "prov": "Leinster",
        "region": "Laois",
        "latt": "53.00694",
        "longt": "-7.1075",
        "address": "0917 George Extensions Apt. 915nNorth Elizabethmouth, HI 89477"
    },
    {
        "state": "IE",
        "name": "Tawnyanruddia",
        "city": "Owenduff",
        "prov": "Connaught",
        "region": "Mayo County",
        "latt": "54.05028",
        "longt": "-9.6775",
        "address": "6790 Vincent PlazanYangfurt, MO 31255"
    },
    {
        "state": "IE",
        "name": "Batterstown",
        "city": "Ballivor",
        "prov": "Leinster",
        "region": "An Mhu00ed",
        "latt": "53.4996",
        "longt": "-6.97327",
        "address": "8935 Lisa TracknJonesport, SC 49792"
    },
    {
        "state": "IE",
        "name": "Knockrower",
        "city": "Gowlane",
        "prov": "Munster",
        "region": "Ciarrau00ed",
        "latt": "51.94778",
        "longt": "-9.54639",
        "address": "09923 Watts Summit Apt. 591nPowellbury, OK 45459"
    },
    {
        "state": "IE",
        "name": "Whitechurch",
        "city": "Dublin",
        "prov": "Leinster",
        "region": "South Dublin",
        "latt": "53.27615",
        "longt": "-6.28221",
        "address": "58464 Garcia Union Suite 670nElizabethshire, GA 76687"
    },
    {
        "state": "IE",
        "name": "Cavan Point",
        "city": "Dunkineely",
        "prov": "Ulster",
        "region": "County Donegal",
        "latt": "54.61528",
        "longt": "-8.3525",
        "address": "383 Alicia PrairienSouth Victoria, MS 24274"
    },
    {
        "state": "IE",
        "name": "Cullentragh Lough",
        "city": "Sradrine",
        "prov": "Connaught",
        "region": "County Leitrim",
        "latt": "54.30611",
        "longt": "-8.03528",
        "address": "00663 Warner Parkway Suite 793nWest Christopher, GA 81932"
    },
    {
        "state": "IE",
        "name": "Illaunananima",
        "city": "Cashleen",
        "prov": "Connaught",
        "region": "County Galway",
        "latt": "53.62333",
        "longt": "-10.0525",
        "address": "5027 Elizabeth Green Suite 574nWest Danielle, OH 92242"
    },
    {
        "state": "IE",
        "name": "Ballygillane Little",
        "city": "Ballygerry",
        "prov": "Leinster",
        "region": "Loch Garman",
        "latt": "52.24449",
        "longt": "-6.351",
        "address": "USCGC MosleynFPO AA 19554"
    },
    {
        "state": "IE",
        "name": "Classie Bawn Castle",
        "city": "Cliffony",
        "prov": "Connaught",
        "region": "Sligo",
        "latt": "54.4575",
        "longt": "-8.4675",
        "address": "019 Santana SquarenFowlerview, MD 74204"
    },
    {
        "state": "IE",
        "name": "Lisnagreeve",
        "city": "Castleblayney",
        "prov": "Ulster",
        "region": "County Monaghan",
        "latt": "54.16972",
        "longt": "-6.75028",
        "address": "593 Kristin ShorenDavisberg, IL 63728"
    },
    {
        "state": "IE",
        "name": "Cartron",
        "city": "An Muileann gCearr",
        "prov": "Leinster",
        "region": "An Iarmhu00ed",
        "latt": "53.49647",
        "longt": "-7.40912",
        "address": "9095 Matthews KeysnEast Robert, OH 91393"
    },
    {
        "state": "IE",
        "name": "Furness",
        "city": "Naas",
        "prov": "Leinster",
        "region": "Kildare",
        "latt": "53.22444",
        "longt": "-6.61056",
        "address": "11140 Thomas Land Suite 555nPort Joshua, NY 69473"
    },
    {
        "state": "IE",
        "name": "Bencullagh",
        "city": "Letterfrack",
        "prov": "Connaught",
        "region": "County Galway",
        "latt": "53.51889",
        "longt": "-9.87556",
        "address": "7899 David Cove Apt. 587nTurnerville, MS 32794"
    },
    {
        "state": "IE",
        "name": "Lisnagreeve",
        "city": "Castleblayney",
        "prov": "Ulster",
        "region": "County Monaghan",
        "latt": "54.16972",
        "longt": "-6.75028",
        "address": "46606 Robinson VillagesnThomasshire, OK 17606"
    },
    {
        "state": "IE",
        "name": "Rossdongan House",
        "city": "Donegal",
        "prov": "Ulster",
        "region": "County Donegal",
        "latt": "54.64556",
        "longt": "-8.13667",
        "address": "65435 Edwards Overpass Suite 409nWest Brandonbury, MS 45351"
    },
    {
        "state": "IE",
        "name": "Coolnaleen",
        "city": "Clogh",
        "prov": "Leinster",
        "region": "Kilkenny",
        "latt": "52.86556",
        "longt": "-7.18972",
        "address": "973 Smith SquarenAustinhaven, CO 46126"
    },
    {
        "state": "IE",
        "name": "Ballygillane Little",
        "city": "Ballygerry",
        "prov": "Leinster",
        "region": "Loch Garman",
        "latt": "52.24449",
        "longt": "-6.351",
        "address": "00342 Anderson Falls Suite 804nScottside, MD 83837"
    },
    {
        "state": "IE",
        "name": "Quarry Lodge",
        "city": "Gneevgullia",
        "prov": "Munster",
        "region": "Ciarrau00ed",
        "latt": "52.13056",
        "longt": "-9.29194",
        "address": "789 Hayes Loaf Suite 265nPort Allison, WA 37565"
    },
    {
        "state": "IE",
        "name": "Monalean Lough",
        "city": "Curraghmore Bridge",
        "prov": "Munster",
        "region": "County Tipperary",
        "latt": "52.33389",
        "longt": "-8.035",
        "address": "76290 Frederick HollownSouth Valerie, NJ 70336"
    },
    {
        "state": "IE",
        "name": "Cloncourse Bridge",
        "city": "Portlaoise",
        "prov": "Leinster",
        "region": "Laois",
        "latt": "53",
        "longt": "-7.38333",
        "address": "4515 Campbell Squares Apt. 091nDeborahberg, MA 35008"
    },
    {
        "state": "IE",
        "name": "Monalean Lough",
        "city": "Curraghmore Bridge",
        "prov": "Munster",
        "region": "County Tipperary",
        "latt": "52.33389",
        "longt": "-8.035",
        "address": "0452 Cantrell CliffnGutierrezmouth, OH 10438"
    },
    {
        "state": "IE",
        "name": "Riverchapel",
        "city": "Courtown",
        "prov": "Leinster",
        "region": "Loch Garman",
        "latt": "52.63667",
        "longt": "-6.23194",
        "address": "357 Keith Pass Suite 196nNorth Lisa, CT 38203"
    },
    {
        "state": "IE",
        "name": "Drumsloe",
        "city": "Drumsloe",
        "prov": "Ulster",
        "region": "County Monaghan",
        "latt": "54.13917",
        "longt": "-7.31444",
        "address": "55990 Huerta LodgenEast Heidi, NJ 48619"
    },
    {
        "state": "IE",
        "name": "Lougher",
        "city": "Lougher",
        "prov": "Munster",
        "region": "Ciarrau00ed",
        "latt": "52.1825",
        "longt": "-9.99139",
        "address": "704 Simon Viaduct Suite 506nSchmidtside, OH 24661"
    },
    {
        "state": "IE",
        "name": "Teereen Lough",
        "city": "Sixmilebridge",
        "prov": "Munster",
        "region": "An Clu00e1r",
        "latt": "52.79167",
        "longt": "-8.79944",
        "address": "385 Marc Harbor Suite 542nEdwardsview, HI 88164"
    },
    {
        "state": "IE",
        "name": "Rathbaun",
        "city": "Castlebar",
        "prov": "Connaught",
        "region": "Mayo County",
        "latt": "53.86612",
        "longt": "-9.30622",
        "address": "83118 Williams Lock Apt. 914nSpencechester, SD 12331"
    },
    {
        "state": "IE",
        "name": "Creehennan",
        "city": "Creehennan",
        "prov": "Ulster",
        "region": "County Donegal",
        "latt": "55.14139",
        "longt": "-7.1875",
        "address": "4411 Heather RidgenRebeccatown, WV 39361"
    },
    {
        "state": "IE",
        "name": "Coolnaleen",
        "city": "Clogh",
        "prov": "Leinster",
        "region": "Kilkenny",
        "latt": "52.86556",
        "longt": "-7.18972",
        "address": "8990 Cole OrchardnHillberg, OH 23088"
    },
    {
        "state": "IE",
        "name": "Dooglasha River",
        "city": "Caherconlish",
        "prov": "Munster",
        "region": "Limerick City and County Council",
        "latt": "52.59194",
        "longt": "-8.39083",
        "address": "40262 Miller Park Apt. 489nSouth Robert, NY 25234"
    },
    {
        "state": "IE",
        "name": "Rathbaun",
        "city": "Castlebar",
        "prov": "Connaught",
        "region": "Mayo County",
        "latt": "53.86612",
        "longt": "-9.30622",
        "address": "404 George LodgenLuisview, NE 06148"
    },
    {
        "state": "IE",
        "name": "Cross of the Tree",
        "city": "Cross of the Tree",
        "prov": "Munster",
        "region": "Limerick City and County Council",
        "latt": "52.42417",
        "longt": "-8.38444",
        "address": "96526 Juan ForgenNorth Julia, MS 80639"
    },
    {
        "state": "IE",
        "name": "Ballygillane Little",
        "city": "Ballygerry",
        "prov": "Leinster",
        "region": "Loch Garman",
        "latt": "52.24449",
        "longt": "-6.351",
        "address": "7101 Douglas Union Suite 913nPort Dianabury, IN 50475"
    },
    {
        "state": "IE",
        "name": "Oatquarter",
        "city": "Fearann an Choirce",
        "prov": "Connaught",
        "region": "County Galway",
        "latt": "53.13833",
        "longt": "-9.7375",
        "address": "Unit 8268 Box 9595nDPO AA 18795"
    },
    {
        "state": "IE",
        "name": "Shancroagh",
        "city": "Gaillimh",
        "prov": "Connaught",
        "region": "County Galway",
        "latt": "53.28389",
        "longt": "-9.04667",
        "address": "6650 Noah Drive Suite 487nWest Annafort, ID 26965"
    },
    {
        "state": "IE",
        "name": "Eagles Hill",
        "city": "Tooreenyduneen",
        "prov": "Munster",
        "region": "Ciarrau00ed",
        "latt": "51.81167",
        "longt": "-10.05722",
        "address": "32465 Timothy StreamnSamuelport, PA 69855"
    },
    {
        "state": "IE",
        "name": "Knocknaskea",
        "city": "Drumacappul",
        "prov": "Connaught",
        "region": "Mayo County",
        "latt": "54.11697",
        "longt": "-10.21614",
        "address": "44474 Clark Station Apt. 141nMichaelburgh, VA 41053"
    },
    {
        "state": "IE",
        "name": "Rossblaney",
        "city": "Rossblaney",
        "prov": "Ulster",
        "region": "County Donegal",
        "latt": "55.18222",
        "longt": "-7.69278",
        "address": "2923 John Falls Apt. 119nChangport, CA 36337"
    },
    {
        "state": "IE",
        "name": "Ballyduff House",
        "city": "Stradbally",
        "prov": "Leinster",
        "region": "Laois",
        "latt": "53.00694",
        "longt": "-7.1075",
        "address": "90928 Jacqueline MillnEast Rachaeltown, AL 36156"
    },
    {
        "state": "IE",
        "name": "Droinn",
        "city": "Drin",
        "prov": "Connaught",
        "region": "County Galway",
        "latt": "53.55",
        "longt": "-9.5",
        "address": "02072 Joshua Run Suite 927nNorth Nathaniel, NH 52604"
    },
    {
        "state": "IE",
        "name": "Akinkeen",
        "city": "Maugha",
        "prov": "Munster",
        "region": "County Cork",
        "latt": "51.81667",
        "longt": "-9.43333",
        "address": "6547 Sanchez BurgnMartinezton, OR 95792"
    },
    {
        "state": "IE",
        "name": "Gaeltachia",
        "city": "Ballynagall",
        "prov": "Munster",
        "region": "Ciarrau00ed",
        "latt": "52.19528",
        "longt": "-10.37694",
        "address": "46160 Katie Roads Apt. 158nSouth David, AK 88150"
    },
    {
        "state": "IE",
        "name": "Ballynastraw Cottage",
        "city": "Bunclody",
        "prov": "Leinster",
        "region": "Loch Garman",
        "latt": "52.67806",
        "longt": "-6.63972",
        "address": "PSC 4094, Box 9290nAPO AA 18625"
    },
    {
        "state": "IE",
        "name": "Rathbaun",
        "city": "Castlebar",
        "prov": "Connaught",
        "region": "Mayo County",
        "latt": "53.86612",
        "longt": "-9.30622",
        "address": "432 Bonnie MissionnNew Kirkburgh, VA 08726"
    },
    {
        "state": "IE",
        "name": "Moatfield Cross Roads",
        "city": "Athy",
        "prov": "Leinster",
        "region": "Kildare",
        "latt": "53.01917",
        "longt": "-6.90833",
        "address": "60612 John Harbors Suite 719nNew Summerland, AL 35103"
    },
    {
        "state": "IE",
        "name": "Moatfield Cross Roads",
        "city": "Athy",
        "prov": "Leinster",
        "region": "Kildare",
        "latt": "53.01917",
        "longt": "-6.90833",
        "address": "2378 Cassandra Lake Apt. 041nWest Ashley, WV 26405"
    },
    {
        "state": "IE",
        "name": "Shancroagh",
        "city": "Gaillimh",
        "prov": "Connaught",
        "region": "County Galway",
        "latt": "53.28389",
        "longt": "-9.04667",
        "address": "551 Melissa Harbors Apt. 854nNew Rebeccaton, CO 41684"
    },
    {
        "state": "IE",
        "name": "Boytonrath House",
        "city": "Cashel",
        "prov": "Munster",
        "region": "County Tipperary",
        "latt": "52.46",
        "longt": "-7.91806",
        "address": "8248 Daniel RivernLake Megan, NE 81245"
    },
    {
        "state": "IE",
        "name": "Rusheens",
        "city": "Rusheens",
        "prov": "Connaught",
        "region": "Mayo County",
        "latt": "54.1925",
        "longt": "-9.17139",
        "address": "40276 Kelly RapidsnNew Josephside, NM 55521"
    },
    {
        "state": "IE",
        "name": "Cross of the Tree",
        "city": "Cross of the Tree",
        "prov": "Munster",
        "region": "Limerick City and County Council",
        "latt": "52.42417",
        "longt": "-8.38444",
        "address": "77119 Shannon LoafnMarshallville, IA 15017"
    },
    {
        "state": "IE",
        "name": "Knocknaskea",
        "city": "Drumacappul",
        "prov": "Connaught",
        "region": "Mayo County",
        "latt": "54.11697",
        "longt": "-10.21614",
        "address": "39388 Barnes Springs Apt. 002nLake Davidside, LA 16227"
    },
    {
        "state": "IE",
        "name": "Ballinbug",
        "city": "Carrigaline",
        "prov": "Munster",
        "region": "County Cork",
        "latt": "51.75833",
        "longt": "-8.43694",
        "address": "81095 Clark Forge Apt. 970nEspinozaland, SC 89130"
    },
    {
        "state": "IE",
        "name": "Abbey Mount",
        "city": "Derry",
        "prov": "Munster",
        "region": "County Cork",
        "latt": "51.60083",
        "longt": "-9.13778",
        "address": "617 Moreno RoadsnLake Susan, FL 54392"
    },
    {
        "state": "IE",
        "name": "Moatfield Cross Roads",
        "city": "Athy",
        "prov": "Leinster",
        "region": "Kildare",
        "latt": "53.01917",
        "longt": "-6.90833",
        "address": "43143 Jerome SpringsnCooperfurt, FL 74239"
    },
    {
        "state": "IE",
        "name": "Dooglasha River",
        "city": "Caherconlish",
        "prov": "Munster",
        "region": "Limerick City and County Council",
        "latt": "52.59194",
        "longt": "-8.39083",
        "address": "PSC 8735, Box 6262nAPO AP 63832"
    },
    {
        "state": "IE",
        "name": "Cross of the Tree",
        "city": "Cross of the Tree",
        "prov": "Munster",
        "region": "Limerick City and County Council",
        "latt": "52.42417",
        "longt": "-8.38444",
        "address": "0769 Hughes Expressway Apt. 603nEast Alexander, VA 24096"
    },
    {
        "state": "IE",
        "name": "Knockatemple",
        "city": "Knockatemple",
        "prov": "Connaught",
        "region": "Mayo County",
        "latt": "53.888361",
        "longt": "-9.100347",
        "address": "2782 Lowe Turnpike Suite 927nPort Brittany, UT 45328"
    },
    {
        "state": "IE",
        "name": "Lodgefield House",
        "city": "Rathdowney",
        "prov": "Leinster",
        "region": "Laois",
        "latt": "52.83333",
        "longt": "-7.50917",
        "address": "278 Lee KnollnSouth Kenneth, VT 25294"
    },
    {
        "state": "IE",
        "name": "Dolanstown House",
        "city": "Maynooth",
        "prov": "Leinster",
        "region": "An Mhu00ed",
        "latt": "53.41194",
        "longt": "-6.64583",
        "address": "049 Monica Mount Apt. 984nDeborahstad, AK 48727"
    },
    {
        "state": "IE",
        "name": "Rathbaun",
        "city": "Castlebar",
        "prov": "Connaught",
        "region": "Mayo County",
        "latt": "53.86612",
        "longt": "-9.30622",
        "address": "254 Lopez EstatenRhondaside, LA 89209"
    },
    {
        "state": "IE",
        "name": "Kilbrack House",
        "city": "Doneraile",
        "prov": "Munster",
        "region": "County Cork",
        "latt": "52.21667",
        "longt": "-8.56667",
        "address": "8549 Quinn ShoalsnNew Nicole, TX 60353"
    },
    {
        "state": "IE",
        "name": "Lodgefield House",
        "city": "Rathdowney",
        "prov": "Leinster",
        "region": "Laois",
        "latt": "52.83333",
        "longt": "-7.50917",
        "address": "4960 Joseph CourtsnNorth Shelby, ID 23993"
    },
    {
        "state": "IE",
        "name": "Drumsloe",
        "city": "Drumsloe",
        "prov": "Ulster",
        "region": "County Monaghan",
        "latt": "54.13917",
        "longt": "-7.31444",
        "address": "0999 Solomon WaysnEast Stacy, MS 91624"
    },
    {
        "state": "IE",
        "name": "Cavan Point",
        "city": "Dunkineely",
        "prov": "Ulster",
        "region": "County Donegal",
        "latt": "54.61528",
        "longt": "-8.3525",
        "address": "027 Brooks Fields Suite 482nScottfort, MS 63455"
    },
    {
        "state": "IE",
        "name": "Ballyvogue",
        "city": "Askeaton",
        "prov": "Munster",
        "region": "Limerick City and County Council",
        "latt": "52.60861",
        "longt": "-8.91194",
        "address": "906 Garcia StreamnMurphyburgh, WY 53645"
    },
    {
        "state": "IE",
        "name": "Booly Bridge",
        "city": "Booly Bridge",
        "prov": "Leinster",
        "region": "Kilkenny",
        "latt": "52.43222",
        "longt": "-7.27833",
        "address": "273 Timothy LightnWest Jennifer, WI 50702"
    },
    {
        "state": "IE",
        "name": "Palmerston",
        "city": "Blanchardstown",
        "prov": "Leinster",
        "region": "Fingal County",
        "latt": "53.36278",
        "longt": "-6.36556",
        "address": "481 Rebecca Extension Suite 857nNorth Kathy, AL 05586"
    },
    {
        "state": "IE",
        "name": "Derrcennacno",
        "city": "Bantry",
        "prov": "Munster",
        "region": "County Cork",
        "latt": "51.64944",
        "longt": "-9.38583",
        "address": "49004 Matthew Lakes Suite 790nPort Lauramouth, AZ 88262"
    },
    {
        "state": "IE",
        "name": "Cloncourse Bridge",
        "city": "Portlaoise",
        "prov": "Leinster",
        "region": "Laois",
        "latt": "53",
        "longt": "-7.38333",
        "address": "7852 Lowe JunctionnMichaelberg, PA 12949"
    },
    {
        "state": "IE",
        "name": "Derrycassan House",
        "city": "Granard",
        "prov": "Leinster",
        "region": "An Longfort",
        "latt": "53.81667",
        "longt": "-7.55",
        "address": "79163 Fitzgerald Trace Suite 339nMichaelborough, AZ 72697"
    },
    {
        "state": "IE",
        "name": "The Sweep",
        "city": "Carrick-on-Suir",
        "prov": "Leinster",
        "region": "Kilkenny",
        "latt": "52.37194",
        "longt": "-7.33444",
        "address": "114 Lisa AvenuenLake Keith, WV 43805"
    },
    {
        "state": "IE",
        "name": "Knockatemple",
        "city": "Knockatemple",
        "prov": "Connaught",
        "region": "Mayo County",
        "latt": "53.888361",
        "longt": "-9.100347",
        "address": "36178 Kemp CapenNorth Amandastad, IN 54229"
    },
    {
        "state": "IE",
        "name": "Droinn",
        "city": "Drin",
        "prov": "Connaught",
        "region": "County Galway",
        "latt": "53.55",
        "longt": "-9.5",
        "address": "222 Stewart Turnpike Suite 631nNew Garrettstad, WI 78158"
    },
    {
        "state": "IE",
        "name": "Kilmovee",
        "city": "Kilmovee",
        "prov": "Connaught",
        "region": "Mayo County",
        "latt": "53.88333",
        "longt": "-8.68333",
        "address": "952 Jon TerracenLake Veronica, DC 57101"
    },
    {
        "state": "IE",
        "name": "Monalean Lough",
        "city": "Curraghmore Bridge",
        "prov": "Munster",
        "region": "County Tipperary",
        "latt": "52.33389",
        "longt": "-8.035",
        "address": "82218 Kyle RoutenWhiteberg, AR 85670"
    },
    {
        "state": "IE",
        "name": "Rock Hill",
        "city": "Rockchapel",
        "prov": "Munster",
        "region": "County Cork",
        "latt": "52.31667",
        "longt": "-9.11861",
        "address": "22384 James Ridge Suite 293nEast Shawnmouth, CA 82248"
    },
    {
        "state": "IE",
        "name": "Cavan Point",
        "city": "Dunkineely",
        "prov": "Ulster",
        "region": "County Donegal",
        "latt": "54.61528",
        "longt": "-8.3525",
        "address": "73962 Laurie Walk Suite 259nKrystalton, OK 12875"
    },
    {
        "state": "IE",
        "name": "Knocka Lough",
        "city": "Knockalough",
        "prov": "Munster",
        "region": "An Clu00e1r",
        "latt": "52.7125",
        "longt": "-9.2725",
        "address": "9755 Edwards FlatsnAllenberg, AL 75941"
    },
    {
        "state": "IE",
        "name": "Rathbaun",
        "city": "Castlebar",
        "prov": "Connaught",
        "region": "Mayo County",
        "latt": "53.86612",
        "longt": "-9.30622",
        "address": "21168 Nathan Vista Suite 249nNorth Kimberly, MD 04910"
    },
    {
        "state": "IE",
        "name": "Ballyduff House",
        "city": "Stradbally",
        "prov": "Leinster",
        "region": "Laois",
        "latt": "53.00694",
        "longt": "-7.1075",
        "address": "4213 Connie CreeknChristophershire, AR 84735"
    },
    {
        "state": "IE",
        "name": "Glenhouse Wood",
        "city": "Portlaw",
        "prov": "Munster",
        "region": "Waterford City and County Council",
        "latt": "52.26389",
        "longt": "-7.31444",
        "address": "92482 Paul Extension Apt. 143nWest Jenniferfort, NJ 62505"
    },
    {
        "state": "IE",
        "name": "Coolnaleen",
        "city": "Clogh",
        "prov": "Leinster",
        "region": "Kilkenny",
        "latt": "52.86556",
        "longt": "-7.18972",
        "address": "74242 Jones LakesnHallshire, GA 26357"
    },
    {
        "state": "IE",
        "name": "Knockatemple",
        "city": "Knockatemple",
        "prov": "Connaught",
        "region": "Mayo County",
        "latt": "53.888361",
        "longt": "-9.100347",
        "address": "595 Mckenzie Ports Apt. 780nPort Rhondaville, ME 98731"
    },
    {
        "state": "IE",
        "name": "Kilbrack House",
        "city": "Doneraile",
        "prov": "Munster",
        "region": "County Cork",
        "latt": "52.21667",
        "longt": "-8.56667",
        "address": "71734 Thompson PointsnMarkstad, PA 49756"
    },
    {
        "state": "IE",
        "name": "Quarry Lodge",
        "city": "Gneevgullia",
        "prov": "Munster",
        "region": "Ciarrau00ed",
        "latt": "52.13056",
        "longt": "-9.29194",
        "address": "85252 Lindsay FlatnKylemouth, IL 82924"
    },
    {
        "state": "IE",
        "name": "Aghakilconnell Lough",
        "city": "Annaghkeenly",
        "prov": "Connaught",
        "region": "County Leitrim",
        "latt": "53.99083",
        "longt": "-7.97333",
        "address": "Unit 3167 Box 2716nDPO AE 28305"
    },
    {
        "state": "IE",
        "name": "Killowney",
        "city": "Cloghan",
        "prov": "Leinster",
        "region": "Uu00edbh Fhailu00ed",
        "latt": "53.23667",
        "longt": "-7.87361",
        "address": "898 Russell LoafnEvansburgh, NE 96753"
    },
    {
        "state": "IE",
        "name": "Teereen Lough",
        "city": "Sixmilebridge",
        "prov": "Munster",
        "region": "An Clu00e1r",
        "latt": "52.79167",
        "longt": "-8.79944",
        "address": "59376 Becky PlazanMichaelberg, CT 45859"
    },
    {
        "state": "IE",
        "name": "Rathbaun",
        "city": "Castlebar",
        "prov": "Connaught",
        "region": "Mayo County",
        "latt": "53.86612",
        "longt": "-9.30622",
        "address": "2997 Mary PassagenEast Joshua, MD 74491"
    },
    {
        "state": "IE",
        "name": "Akinkeen",
        "city": "Maugha",
        "prov": "Munster",
        "region": "County Cork",
        "latt": "51.81667",
        "longt": "-9.43333",
        "address": "30802 Natasha Hill Suite 993nRobertshire, IL 82981"
    },
    {
        "state": "IE",
        "name": "Whitechurch",
        "city": "Dublin",
        "prov": "Leinster",
        "region": "South Dublin",
        "latt": "53.27615",
        "longt": "-6.28221",
        "address": "36358 Gross Mountains Apt. 360nNorth Madisonstad, DC 40948"
    },
    {
        "state": "IE",
        "name": "Drumsloe",
        "city": "Drumsloe",
        "prov": "Ulster",
        "region": "County Monaghan",
        "latt": "54.13917",
        "longt": "-7.31444",
        "address": "80786 Martin Flats Suite 300nNorth Danielview, NE 63427"
    },
    {
        "state": "IE",
        "name": "Abbey Mount",
        "city": "Derry",
        "prov": "Munster",
        "region": "County Cork",
        "latt": "51.60083",
        "longt": "-9.13778",
        "address": "43188 Micheal TurnpikenSouth Kimberlyport, VT 14521"
    },
    {
        "state": "IE",
        "name": "Moatfield Cross Roads",
        "city": "Athy",
        "prov": "Leinster",
        "region": "Kildare",
        "latt": "53.01917",
        "longt": "-6.90833",
        "address": "3267 Holmes Fields Apt. 814nWagnerport, AL 49720"
    },
    {
        "state": "IE",
        "name": "Ollatrim River",
        "city": "Nenagh Bridge",
        "prov": "Munster",
        "region": "County Tipperary",
        "latt": "52.87417",
        "longt": "-8.18806",
        "address": "0450 Ralph RoadnPort Brianhaven, TX 65777"
    },
    {
        "state": "IE",
        "name": "Monalean Lough",
        "city": "Curraghmore Bridge",
        "prov": "Munster",
        "region": "County Tipperary",
        "latt": "52.33389",
        "longt": "-8.035",
        "address": "360 Walter Groves Apt. 264nWest Amandahaven, CT 99548"
    },
    {
        "state": "IE",
        "name": "Somerville House",
        "city": "Kentstown",
        "prov": "Leinster",
        "region": "An Mhu00ed",
        "latt": "53.63139",
        "longt": "-6.51167",
        "address": "411 Stanton MissionnShieldsside, DC 18390"
    },
    {
        "state": "IE",
        "name": "Booly Bridge",
        "city": "Booly Bridge",
        "prov": "Leinster",
        "region": "Kilkenny",
        "latt": "52.43222",
        "longt": "-7.27833",
        "address": "034 Corey Park Apt. 816nAndrewmouth, HI 69217"
    },
    {
        "state": "IE",
        "name": "Garraun",
        "city": "Oranmore",
        "prov": "Connaught",
        "region": "County Galway",
        "latt": "53.23028",
        "longt": "-8.94583",
        "address": "PSC 1557, Box 5186nAPO AE 56780"
    },
    {
        "state": "IE",
        "name": "Rathbaun",
        "city": "Castlebar",
        "prov": "Connaught",
        "region": "Mayo County",
        "latt": "53.86612",
        "longt": "-9.30622",
        "address": "4853 Mitchell Stream Suite 942nLake Scotttown, DE 44915"
    },
    {
        "state": "IE",
        "name": "Palmerston",
        "city": "Blanchardstown",
        "prov": "Leinster",
        "region": "Fingal County",
        "latt": "53.36278",
        "longt": "-6.36556",
        "address": "872 Valerie ManornWaynetown, ME 78765"
    },
    {
        "state": "IE",
        "name": "Killoran",
        "city": "Killoran",
        "prov": "Connaught",
        "region": "Sligo",
        "latt": "54.14",
        "longt": "-8.64167",
        "address": "29966 Parker DamnMoonton, UT 86965"
    },
    {
        "state": "IE",
        "name": "The Sweep",
        "city": "Carrick-on-Suir",
        "prov": "Leinster",
        "region": "Kilkenny",
        "latt": "52.37194",
        "longt": "-7.33444",
        "address": "91352 Alice MountnWest Kennethtown, DE 46194"
    },
    {
        "state": "IE",
        "name": "Charleville",
        "city": "Dunleer",
        "prov": "Leinster",
        "region": "Lu00fa",
        "latt": "53.86361",
        "longt": "-6.41528",
        "address": "29019 Lopez CentersnPort Sydneychester, MA 92046"
    },
    {
        "state": "IE",
        "name": "Mongorry Hill",
        "city": "Raphoe",
        "prov": "Ulster",
        "region": "County Donegal",
        "latt": "54.89306",
        "longt": "-7.62167",
        "address": "60216 Justin CourtsnPort Stephen, KS 18497"
    },
    {
        "state": "IE",
        "name": "Coolnaleen",
        "city": "Clogh",
        "prov": "Leinster",
        "region": "Kilkenny",
        "latt": "52.86556",
        "longt": "-7.18972",
        "address": "3317 Brittany Turnpike Suite 708nSmithtown, IA 53896"
    },
    {
        "state": "IE",
        "name": "Lougher",
        "city": "Lougher",
        "prov": "Munster",
        "region": "Ciarrau00ed",
        "latt": "52.1825",
        "longt": "-9.99139",
        "address": "39544 George StationnLeberg, AR 06773"
    },
    {
        "state": "IE",
        "name": "Bobsville",
        "city": "Bobsville",
        "prov": "Leinster",
        "region": "An Mhu00ed",
        "latt": "53.71747",
        "longt": "-7.06988",
        "address": "861 West Glens Apt. 502nLake Edwardmouth, IN 93661"
    },
    {
        "state": "IE",
        "name": "Garraun",
        "city": "Oranmore",
        "prov": "Connaught",
        "region": "County Galway",
        "latt": "53.23028",
        "longt": "-8.94583",
        "address": "2520 Newman Summit Apt. 887nWilsonton, NV 39162"
    },
    {
        "state": "IE",
        "name": "Rossblaney",
        "city": "Rossblaney",
        "prov": "Ulster",
        "region": "County Donegal",
        "latt": "55.18222",
        "longt": "-7.69278",
        "address": "21280 Goodman MewsnLake Kristinview, OR 06119"
    },
    {
        "state": "IE",
        "name": "Cloncourse Bridge",
        "city": "Portlaoise",
        "prov": "Leinster",
        "region": "Laois",
        "latt": "53",
        "longt": "-7.38333",
        "address": "594 Jeffrey Passage Apt. 997nNorth Robert, ND 11588"
    },
    {
        "state": "IE",
        "name": "Furness",
        "city": "Naas",
        "prov": "Leinster",
        "region": "Kildare",
        "latt": "53.22444",
        "longt": "-6.61056",
        "address": "424 Hannah VillagenJacobfurt, NH 35001"
    },
    {
        "state": "IE",
        "name": "Rathbaun",
        "city": "Castlebar",
        "prov": "Connaught",
        "region": "Mayo County",
        "latt": "53.86612",
        "longt": "-9.30622",
        "address": "USCGC CarpenternFPO AE 61011"
    },
    {
        "state": "IE",
        "name": "Dolanstown House",
        "city": "Maynooth",
        "prov": "Leinster",
        "region": "An Mhu00ed",
        "latt": "53.41194",
        "longt": "-6.64583",
        "address": "735 Michael Knoll Suite 166nNorth Gina, WA 04699"
    },
    {
        "state": "IE",
        "name": "Rock Hill",
        "city": "Rockchapel",
        "prov": "Munster",
        "region": "County Cork",
        "latt": "52.31667",
        "longt": "-9.11861",
        "address": "737 Dana Crossroad Apt. 592nAmberville, DE 56493"
    },
    {
        "state": "IE",
        "name": "Ballyvogue",
        "city": "Askeaton",
        "prov": "Munster",
        "region": "Limerick City and County Council",
        "latt": "52.60861",
        "longt": "-8.91194",
        "address": "86599 Johnson JunctionnDiazfort, ND 84422"
    },
    {
        "state": "IE",
        "name": "Palmerston",
        "city": "Blanchardstown",
        "prov": "Leinster",
        "region": "Fingal County",
        "latt": "53.36278",
        "longt": "-6.36556",
        "address": "2243 Joshua Keys Apt. 297nNew Staceyshire, KS 60652"
    },
    {
        "state": "IE",
        "name": "Coolnaleen",
        "city": "Clogh",
        "prov": "Leinster",
        "region": "Kilkenny",
        "latt": "52.86556",
        "longt": "-7.18972",
        "address": "633 Alicia Rest Apt. 961nGreenshire, SC 87036"
    },
    {
        "state": "IE",
        "name": "Dooglasha River",
        "city": "Caherconlish",
        "prov": "Munster",
        "region": "Limerick City and County Council",
        "latt": "52.59194",
        "longt": "-8.39083",
        "address": "2223 Jennifer WallnNatalietown, TN 30458"
    },
    {
        "state": "IE",
        "name": "Teereen Lough",
        "city": "Sixmilebridge",
        "prov": "Munster",
        "region": "An Clu00e1r",
        "latt": "52.79167",
        "longt": "-8.79944",
        "address": "2358 Jennifer RoadsnEast Josephberg, DC 62524"
    },
    {
        "state": "IE",
        "name": "Quarry Lodge",
        "city": "Gneevgullia",
        "prov": "Munster",
        "region": "Ciarrau00ed",
        "latt": "52.13056",
        "longt": "-9.29194",
        "address": "474 Martinez Place Suite 389nEast Susan, GA 36165"
    },
    {
        "state": "IE",
        "name": "Knockrower",
        "city": "Gowlane",
        "prov": "Munster",
        "region": "Ciarrau00ed",
        "latt": "51.94778",
        "longt": "-9.54639",
        "address": "35055 Jeffery CrescentnWilsontown, NE 81092"
    },
    {
        "state": "IE",
        "name": "Cross of the Tree",
        "city": "Cross of the Tree",
        "prov": "Munster",
        "region": "Limerick City and County Council",
        "latt": "52.42417",
        "longt": "-8.38444",
        "address": "009 Young StravenuenPort Martha, KY 17539"
    },
    {
        "state": "IE",
        "name": "Crushea",
        "city": "Ardmore",
        "prov": "Munster",
        "region": "Waterford City and County Council",
        "latt": "51.97139",
        "longt": "-7.71389",
        "address": "8582 Chelsea Mills Apt. 795nNew Zacharybury, VA 39807"
    },
    {
        "state": "IE",
        "name": "The Pike",
        "city": "The Pike",
        "prov": "Munster",
        "region": "County Tipperary",
        "latt": "53.00306",
        "longt": "-8.00778",
        "address": "3388 Miller PlainnMontesburgh, RI 48334"
    },
    {
        "state": "IE",
        "name": "Derrcennacno",
        "city": "Bantry",
        "prov": "Munster",
        "region": "County Cork",
        "latt": "51.64944",
        "longt": "-9.38583",
        "address": "USNS HarrisnFPO AP 59171"
    },
    {
        "state": "IE",
        "name": "Killowney",
        "city": "Cloghan",
        "prov": "Leinster",
        "region": "Uu00edbh Fhailu00ed",
        "latt": "53.23667",
        "longt": "-7.87361",
        "address": "074 Mark Orchard Suite 772nSouth Jonathan, VT 34542"
    },
    {
        "state": "IE",
        "name": "Roxborough",
        "city": "The Fishpond Cross Roads",
        "prov": "Connaught",
        "region": "County Galway",
        "latt": "53.16694",
        "longt": "-8.69528",
        "address": "73163 Webster PrairienTeresafort, OR 38184"
    },
    {
        "state": "IE",
        "name": "Moatfield Cross Roads",
        "city": "Athy",
        "prov": "Leinster",
        "region": "Kildare",
        "latt": "53.01917",
        "longt": "-6.90833",
        "address": "PSC 1065, Box 8477nAPO AE 03979"
    },
    {
        "state": "IE",
        "name": "Lodgefield House",
        "city": "Rathdowney",
        "prov": "Leinster",
        "region": "Laois",
        "latt": "52.83333",
        "longt": "-7.50917",
        "address": "713 Campbell ParksnLake Kimberlystad, IA 92632"
    },
    {
        "state": "IE",
        "name": "Farran",
        "city": "Farran",
        "prov": "Munster",
        "region": "County Cork",
        "latt": "52.03333",
        "longt": "-8.66667",
        "address": "0841 Carrie Viaduct Apt. 020nSouth Amyfort, WY 85108"
    },
    {
        "state": "IE",
        "name": "Cloncourse Bridge",
        "city": "Portlaoise",
        "prov": "Leinster",
        "region": "Laois",
        "latt": "53",
        "longt": "-7.38333",
        "address": "33323 Leslie Neck Suite 925nNorth Chad, VA 43507"
    },
    {
        "state": "IE",
        "name": "Clooncogaile",
        "city": "Clooncogaile",
        "prov": "Munster",
        "region": "Waterford City and County Council",
        "latt": "52.18333",
        "longt": "-7.71667",
        "address": "48479 Susan ValleynPort Jason, TN 05611"
    },
    {
        "state": "IE",
        "name": "Dooglasha River",
        "city": "Caherconlish",
        "prov": "Munster",
        "region": "Limerick City and County Council",
        "latt": "52.59194",
        "longt": "-8.39083",
        "address": "90029 Lam TurnpikenSextonshire, PA 69235"
    },
    {
        "state": "IE",
        "name": "Charleville",
        "city": "Dunleer",
        "prov": "Leinster",
        "region": "Lu00fa",
        "latt": "53.86361",
        "longt": "-6.41528",
        "address": "27095 Cook Avenue Suite 191nEast Johnny, TN 11405"
    },
    {
        "state": "IE",
        "name": "Oatquarter",
        "city": "Fearann an Choirce",
        "prov": "Connaught",
        "region": "County Galway",
        "latt": "53.13833",
        "longt": "-9.7375",
        "address": "0492 Veronica LocksnPort Allison, GA 28097"
    },
    {
        "state": "IE",
        "name": "Dysaghy Rocks",
        "city": "Dooagh",
        "prov": "Connaught",
        "region": "Mayo County",
        "latt": "53.94889",
        "longt": "-10.17417",
        "address": "09675 James KeynNorth Lauren, NJ 88567"
    },
    {
        "state": "IE",
        "name": "Cloncourse Bridge",
        "city": "Portlaoise",
        "prov": "Leinster",
        "region": "Laois",
        "latt": "53",
        "longt": "-7.38333",
        "address": "3494 Burns LandingnLake Nathaniel, WY 83255"
    },
    {
        "state": "IE",
        "name": "Shancroagh",
        "city": "Gaillimh",
        "prov": "Connaught",
        "region": "County Galway",
        "latt": "53.28389",
        "longt": "-9.04667",
        "address": "6868 Mark Mills Apt. 480nLonghaven, NE 99178"
    },
    {
        "state": "IE",
        "name": "Ballygillane Little",
        "city": "Ballygerry",
        "prov": "Leinster",
        "region": "Loch Garman",
        "latt": "52.24449",
        "longt": "-6.351",
        "address": "207 Tammy PointsnSouth Josephburgh, ND 89662"
    },
    {
        "state": "IE",
        "name": "Riverchapel",
        "city": "Courtown",
        "prov": "Leinster",
        "region": "Loch Garman",
        "latt": "52.63667",
        "longt": "-6.23194",
        "address": "815 Arthur DrivesnNew Jorgeside, SD 46218"
    },
    {
        "state": "IE",
        "name": "Ross Lodge",
        "city": "Headford",
        "prov": "Connaught",
        "region": "County Galway",
        "latt": "53.46667",
        "longt": "-9.05",
        "address": "54915 Hannah Causeway Suite 435nKylefort, IL 65752"
    },
    {
        "state": "IE",
        "name": "Carrachor House",
        "city": "Scotstown",
        "prov": "Ulster",
        "region": "County Monaghan",
        "latt": "54.28167",
        "longt": "-7.07944",
        "address": "490 Nicholas PortnMartinfort, MD 46075"
    },
    {
        "state": "IE",
        "name": "Palmerston",
        "city": "Blanchardstown",
        "prov": "Leinster",
        "region": "Fingal County",
        "latt": "53.36278",
        "longt": "-6.36556",
        "address": "3681 Christopher InletnPadillamouth, AR 84762"
    },
    {
        "state": "IE",
        "name": "Drumsloe",
        "city": "Drumsloe",
        "prov": "Ulster",
        "region": "County Monaghan",
        "latt": "54.13917",
        "longt": "-7.31444",
        "address": "USNS BrownnFPO AA 09597"
    },
    {
        "state": "IE",
        "name": "Kilcummer Bridge",
        "city": "Kilcummer Bridge",
        "prov": "Munster",
        "region": "County Cork",
        "latt": "52.15556",
        "longt": "-8.45167",
        "address": "4178 Rhonda AlleynPort Julia, CT 37931"
    },
    {
        "state": "IE",
        "name": "Rock Hill",
        "city": "Rockchapel",
        "prov": "Munster",
        "region": "County Cork",
        "latt": "52.31667",
        "longt": "-9.11861",
        "address": "06008 Winters Street Apt. 268nNorth Jennifer, IN 73073"
    },
    {
        "state": "IE",
        "name": "Ballinderry",
        "city": "Rathdrum",
        "prov": "Leinster",
        "region": "Wicklow",
        "latt": "52.94639",
        "longt": "-6.27722",
        "address": "9016 Sharon Run Apt. 294nNew Christinechester, MN 97985"
    },
    {
        "state": "IE",
        "name": "Carrachor House",
        "city": "Scotstown",
        "prov": "Ulster",
        "region": "County Monaghan",
        "latt": "54.28167",
        "longt": "-7.07944",
        "address": "3743 Kim PinenKatherinechester, WV 05584"
    },
    {
        "state": "IE",
        "name": "Cloncourse Bridge",
        "city": "Portlaoise",
        "prov": "Leinster",
        "region": "Laois",
        "latt": "53",
        "longt": "-7.38333",
        "address": "62050 Christopher Keys Apt. 795nCrystalshire, AR 42052"
    },
    {
        "state": "IE",
        "name": "Moatfield Cross Roads",
        "city": "Athy",
        "prov": "Leinster",
        "region": "Kildare",
        "latt": "53.01917",
        "longt": "-6.90833",
        "address": "3101 Alan Bypass Apt. 591nEast Sheliamouth, WI 66617"
    },
    {
        "state": "IE",
        "name": "Killowney",
        "city": "Cloghan",
        "prov": "Leinster",
        "region": "Uu00edbh Fhailu00ed",
        "latt": "53.23667",
        "longt": "-7.87361",
        "address": "USNS WhitenFPO AP 72747"
    },
    {
        "state": "IE",
        "name": "Gaeltachia",
        "city": "Ballynagall",
        "prov": "Munster",
        "region": "Ciarrau00ed",
        "latt": "52.19528",
        "longt": "-10.37694",
        "address": "89183 Stephens IslenLake Anna, OR 03756"
    },
    {
        "state": "IE",
        "name": "Tawnyanruddia",
        "city": "Owenduff",
        "prov": "Connaught",
        "region": "Mayo County",
        "latt": "54.05028",
        "longt": "-9.6775",
        "address": "864 Charlotte Mill Apt. 363nWest Tracy, VA 92565"
    },
    {
        "state": "IE",
        "name": "Belle Isle",
        "city": "Portumna",
        "prov": "Munster",
        "region": "County Tipperary",
        "latt": "53.08",
        "longt": "-8.18528",
        "address": "06815 Salinas Glens Suite 769nNew Stevenbury, NJ 55116"
    },
    {
        "state": "IE",
        "name": "Whitechurch",
        "city": "Dublin",
        "prov": "Leinster",
        "region": "South Dublin",
        "latt": "53.27615",
        "longt": "-6.28221",
        "address": "183 Cook Junctions Apt. 350nNicholsburgh, MA 78087"
    },
    {
        "state": "IE",
        "name": "Killowney",
        "city": "Cloghan",
        "prov": "Leinster",
        "region": "Uu00edbh Fhailu00ed",
        "latt": "53.23667",
        "longt": "-7.87361",
        "address": "390 Burns RampnWilliamhaven, LA 16521"
    },
    {
        "state": "IE",
        "name": "Rossblaney",
        "city": "Rossblaney",
        "prov": "Ulster",
        "region": "County Donegal",
        "latt": "55.18222",
        "longt": "-7.69278",
        "address": "7074 Amber Manors Suite 978nLake Bianca, NJ 86920"
    },
    {
        "state": "IE",
        "name": "Furness",
        "city": "Naas",
        "prov": "Leinster",
        "region": "Kildare",
        "latt": "53.22444",
        "longt": "-6.61056",
        "address": "970 Mcintosh PortsnCartertown, NE 85200"
    },
    {
        "state": "IE",
        "name": "Bunagarho",
        "city": "Listowel",
        "prov": "Munster",
        "region": "Ciarrau00ed",
        "latt": "52.44639",
        "longt": "-9.42139",
        "address": "94302 Brian Harbors Suite 116nLake George, MA 79944"
    },
    {
        "state": "IE",
        "name": "Ballyvogue",
        "city": "Askeaton",
        "prov": "Munster",
        "region": "Limerick City and County Council",
        "latt": "52.60861",
        "longt": "-8.91194",
        "address": "155 Christopher Gardens Suite 641nBrownfort, WY 23695"
    },
    {
        "state": "IE",
        "name": "Ballyvogue",
        "city": "Askeaton",
        "prov": "Munster",
        "region": "Limerick City and County Council",
        "latt": "52.60861",
        "longt": "-8.91194",
        "address": "7932 Micheal PikenSouth Pamelaville, RI 97355"
    },
    {
        "state": "IE",
        "name": "Batterstown",
        "city": "Ballivor",
        "prov": "Leinster",
        "region": "An Mhu00ed",
        "latt": "53.4996",
        "longt": "-6.97327",
        "address": "77445 Dominique Landing Suite 962nWest Kevin, NC 02838"
    },
    {
        "state": "IE",
        "name": "Palmerston",
        "city": "Blanchardstown",
        "prov": "Leinster",
        "region": "Fingal County",
        "latt": "53.36278",
        "longt": "-6.36556",
        "address": "7988 Cook Cove Suite 901nPort Laurenberg, CO 23676"
    },
    {
        "state": "IE",
        "name": "Lodgefield House",
        "city": "Rathdowney",
        "prov": "Leinster",
        "region": "Laois",
        "latt": "52.83333",
        "longt": "-7.50917",
        "address": "7279 Paul Ford Suite 896nNorth Christy, LA 11183"
    },
    {
        "state": "IE",
        "name": "Oatquarter",
        "city": "Fearann an Choirce",
        "prov": "Connaught",
        "region": "County Galway",
        "latt": "53.13833",
        "longt": "-9.7375",
        "address": "5664 Warner Springs Suite 449nNorth Brittneyfurt, AL 93298"
    },
    {
        "state": "IE",
        "name": "Cartron",
        "city": "An Muileann gCearr",
        "prov": "Leinster",
        "region": "An Iarmhu00ed",
        "latt": "53.49647",
        "longt": "-7.40912",
        "address": "2648 Hinton BranchnSouth Michelle, VT 74761"
    },
    {
        "state": "IE",
        "name": "Knocknaskea",
        "city": "Drumacappul",
        "prov": "Connaught",
        "region": "Mayo County",
        "latt": "54.11697",
        "longt": "-10.21614",
        "address": "5802 Lisa Isle Apt. 158nBryanburgh, OH 94780"
    },
    {
        "state": "IE",
        "name": "Droinn",
        "city": "Drin",
        "prov": "Connaught",
        "region": "County Galway",
        "latt": "53.55",
        "longt": "-9.5",
        "address": "5041 Cynthia CanyonnSouth Theresaview, CA 39957"
    },
    {
        "state": "IE",
        "name": "Quarry Lodge",
        "city": "Gneevgullia",
        "prov": "Munster",
        "region": "Ciarrau00ed",
        "latt": "52.13056",
        "longt": "-9.29194",
        "address": "831 Malone GreensnEast Corey, TN 11330"
    },
    {
        "state": "IE",
        "name": "Ballinderry",
        "city": "Rathdrum",
        "prov": "Leinster",
        "region": "Wicklow",
        "latt": "52.94639",
        "longt": "-6.27722",
        "address": "445 Christina Branch Suite 435nWest Ann, HI 42131"
    },
    {
        "state": "IE",
        "name": "Garraun",
        "city": "Oranmore",
        "prov": "Connaught",
        "region": "County Galway",
        "latt": "53.23028",
        "longt": "-8.94583",
        "address": "93042 Evelyn LocksnNew David, CA 11605"
    },
    {
        "state": "IE",
        "name": "Bobsville",
        "city": "Bobsville",
        "prov": "Leinster",
        "region": "An Mhu00ed",
        "latt": "53.71747",
        "longt": "-7.06988",
        "address": "48767 Vaughn FallnBuckside, IL 41589"
    },
    {
        "state": "IE",
        "name": "Tawny",
        "city": "Tawny",
        "prov": "Ulster",
        "region": "County Donegal",
        "latt": "54.62444",
        "longt": "-8.60083",
        "address": "2364 Freeman Center Apt. 484nNorth Timothy, AK 80616"
    },
    {
        "state": "IE",
        "name": "Palmerston",
        "city": "Blanchardstown",
        "prov": "Leinster",
        "region": "Fingal County",
        "latt": "53.36278",
        "longt": "-6.36556",
        "address": "610 Geoffrey Mission Apt. 638nNew Lindamouth, NH 63211"
    },
    {
        "state": "IE",
        "name": "Killowney",
        "city": "Cloghan",
        "prov": "Leinster",
        "region": "Uu00edbh Fhailu00ed",
        "latt": "53.23667",
        "longt": "-7.87361",
        "address": "331 Morales Ferry Apt. 095nNew Brian, VT 13362"
    },
    {
        "state": "IE",
        "name": "Derrycassan House",
        "city": "Granard",
        "prov": "Leinster",
        "region": "An Longfort",
        "latt": "53.81667",
        "longt": "-7.55",
        "address": "USCGC ObriennFPO AA 05397"
    },
    {
        "state": "IE",
        "name": "Dysaghy Rocks",
        "city": "Dooagh",
        "prov": "Connaught",
        "region": "Mayo County",
        "latt": "53.94889",
        "longt": "-10.17417",
        "address": "38738 Collin Fall Apt. 593nLuistown, UT 04355"
    },
    {
        "state": "IE",
        "name": "Bohoona",
        "city": "Creduff",
        "prov": "Connaught",
        "region": "County Galway",
        "latt": "53.2525",
        "longt": "-9.32778",
        "address": "5201 Tyrone MillnNorth Sean, AR 30905"
    },
    {
        "state": "IE",
        "name": "Glennan",
        "city": "Glennan",
        "prov": "Ulster",
        "region": "County Monaghan",
        "latt": "54.32667",
        "longt": "-6.91583",
        "address": "29635 Marvin ForgenEast Rachaelshire, SC 32004"
    },
    {
        "state": "IE",
        "name": "Glencastle",
        "city": "Glencastle",
        "prov": "Connaught",
        "region": "Mayo County",
        "latt": "54.181802",
        "longt": "-9.876676",
        "address": "918 Price Oval Suite 642nEast Brianberg, CA 97343"
    },
    {
        "state": "IE",
        "name": "Cloncourse Bridge",
        "city": "Portlaoise",
        "prov": "Leinster",
        "region": "Laois",
        "latt": "53",
        "longt": "-7.38333",
        "address": "1176 Calvin ValleysnMeganside, LA 53341"
    },
    {
        "state": "IE",
        "name": "Clooncogaile",
        "city": "Clooncogaile",
        "prov": "Munster",
        "region": "Waterford City and County Council",
        "latt": "52.18333",
        "longt": "-7.71667",
        "address": "93322 Douglas Avenue Apt. 881nJaclynshire, IN 29154"
    },
    {
        "state": "IE",
        "name": "Abbey Mount",
        "city": "Derry",
        "prov": "Munster",
        "region": "County Cork",
        "latt": "51.60083",
        "longt": "-9.13778",
        "address": "0043 Munoz Drives Suite 074nWest Juanland, AK 11112"
    },
    {
        "state": "IE",
        "name": "Derrycassan House",
        "city": "Granard",
        "prov": "Leinster",
        "region": "An Longfort",
        "latt": "53.81667",
        "longt": "-7.55",
        "address": "50861 Thomas Stravenue Apt. 589nEast Wendyhaven, MS 54929"
    },
    {
        "state": "IE",
        "name": "Killoran",
        "city": "Killoran",
        "prov": "Connaught",
        "region": "Sligo",
        "latt": "54.14",
        "longt": "-8.64167",
        "address": "174 Pamela FordsnDavistown, IN 91249"
    },
    {
        "state": "IE",
        "name": "Garraun",
        "city": "Oranmore",
        "prov": "Connaught",
        "region": "County Galway",
        "latt": "53.23028",
        "longt": "-8.94583",
        "address": "5531 Graham Radial Apt. 059nWest Alice, TX 33132"
    },
    {
        "state": "IE",
        "name": "Lissanisky",
        "city": "Cobh",
        "prov": "Munster",
        "region": "County Cork",
        "latt": "51.87111",
        "longt": "-8.30528",
        "address": "00368 Jacqueline MountainsnPort Teresa, TX 15845"
    },
    {
        "state": "IE",
        "name": "Somerville House",
        "city": "Kentstown",
        "prov": "Leinster",
        "region": "An Mhu00ed",
        "latt": "53.63139",
        "longt": "-6.51167",
        "address": "Unit 5964 Box 5477nDPO AA 01580"
    },
    {
        "state": "IE",
        "name": "Ollatrim River",
        "city": "Nenagh Bridge",
        "prov": "Munster",
        "region": "County Tipperary",
        "latt": "52.87417",
        "longt": "-8.18806",
        "address": "56564 Gary RanchnFitzgeraldton, CO 01641"
    },
    {
        "state": "IE",
        "name": "Ballynastraw Cottage",
        "city": "Bunclody",
        "prov": "Leinster",
        "region": "Loch Garman",
        "latt": "52.67806",
        "longt": "-6.63972",
        "address": "83998 Ray Station Apt. 115nDanielmouth, TN 34689"
    },
    {
        "state": "IE",
        "name": "Whitechurch",
        "city": "Dublin",
        "prov": "Leinster",
        "region": "South Dublin",
        "latt": "53.27615",
        "longt": "-6.28221",
        "address": "PSC 7631, Box 9060nAPO AP 59292"
    },
    {
        "state": "IE",
        "name": "Oatquarter",
        "city": "Fearann an Choirce",
        "prov": "Connaught",
        "region": "County Galway",
        "latt": "53.13833",
        "longt": "-9.7375",
        "address": "1582 Chan SpursnWattsville, AR 70704"
    },
    {
        "state": "IE",
        "name": "Cavan Point",
        "city": "Dunkineely",
        "prov": "Ulster",
        "region": "County Donegal",
        "latt": "54.61528",
        "longt": "-8.3525",
        "address": "968 Thomas Parkways Suite 745nTannerville, NV 45565"
    },
    {
        "state": "IE",
        "name": "Booly Bridge",
        "city": "Booly Bridge",
        "prov": "Leinster",
        "region": "Kilkenny",
        "latt": "52.43222",
        "longt": "-7.27833",
        "address": "246 Carolyn Square Apt. 415nSouth Richardside, VA 27029"
    },
    {
        "state": "IE",
        "name": "Belle Isle",
        "city": "Portumna",
        "prov": "Munster",
        "region": "County Tipperary",
        "latt": "53.08",
        "longt": "-8.18528",
        "address": "0307 Oscar VistanKarenton, HI 05134"
    },
    {
        "state": "IE",
        "name": "Rathbaun",
        "city": "Castlebar",
        "prov": "Connaught",
        "region": "Mayo County",
        "latt": "53.86612",
        "longt": "-9.30622",
        "address": "PSC 2468, Box 2750nAPO AP 98884"
    },
    {
        "state": "IE",
        "name": "Ballyvogue",
        "city": "Askeaton",
        "prov": "Munster",
        "region": "Limerick City and County Council",
        "latt": "52.60861",
        "longt": "-8.91194",
        "address": "963 Sanchez Fords Apt. 505nNorth Amandaside, KS 36295"
    },
    {
        "state": "IE",
        "name": "Clooncogaile",
        "city": "Clooncogaile",
        "prov": "Munster",
        "region": "Waterford City and County Council",
        "latt": "52.18333",
        "longt": "-7.71667",
        "address": "73847 Tony ForestnKristinton, IA 02786"
    },
    {
        "state": "IE",
        "name": "Quarry Lodge",
        "city": "Gneevgullia",
        "prov": "Munster",
        "region": "Ciarrau00ed",
        "latt": "52.13056",
        "longt": "-9.29194",
        "address": "889 Richard Stream Suite 556nLesliestad, NV 67418"
    },
    {
        "state": "IE",
        "name": "Teereen Lough",
        "city": "Sixmilebridge",
        "prov": "Munster",
        "region": "An Clu00e1r",
        "latt": "52.79167",
        "longt": "-8.79944",
        "address": "87962 White Creek Apt. 611nChristopherchester, PA 30285"
    },
    {
        "state": "IE",
        "name": "Rathbaun",
        "city": "Castlebar",
        "prov": "Connaught",
        "region": "Mayo County",
        "latt": "53.86612",
        "longt": "-9.30622",
        "address": "065 Amy FordnLaurashire, FL 73004"
    },
    {
        "state": "IE",
        "name": "Charleville",
        "city": "Dunleer",
        "prov": "Leinster",
        "region": "Lu00fa",
        "latt": "53.86361",
        "longt": "-6.41528",
        "address": "960 Anthony Mission Suite 598nNorth Ericville, NE 22293"
    },
    {
        "state": "IE",
        "name": "Knockrower",
        "city": "Gowlane",
        "prov": "Munster",
        "region": "Ciarrau00ed",
        "latt": "51.94778",
        "longt": "-9.54639",
        "address": "100 Cooley Ports Suite 956nSouth Lisa, MD 61454"
    },
    {
        "state": "IE",
        "name": "Glanearagh",
        "city": "Ballynahow",
        "prov": "Munster",
        "region": "Ciarrau00ed",
        "latt": "51.84944",
        "longt": "-10.38917",
        "address": "79693 Carpenter Mission Apt. 931nSouth Danafurt, FL 57227"
    },
    {
        "state": "IE",
        "name": "Furness",
        "city": "Naas",
        "prov": "Leinster",
        "region": "Kildare",
        "latt": "53.22444",
        "longt": "-6.61056",
        "address": "2252 Wendy Field Suite 623nNew Karenville, NY 73585"
    },
    {
        "state": "IE",
        "name": "Garrellstown House",
        "city": "Ballinspittle",
        "prov": "Munster",
        "region": "County Cork",
        "latt": "51.65611",
        "longt": "-8.60361",
        "address": "01797 Griffin Villages Suite 350nNew Rachelstad, WA 03687"
    },