[
    {
        "state": "AL",
        "name": "Qyteti i Roskovecit",
        "city": "Roskovec",
        "prov": "Fier",
        "region": "Fier",
        "latt": "40.75",
        "longt": "19.7",
        "address": "0441 Yolanda MissionnWest Richardtown, KS 93187"
    },
    {
        "state": "AL",
        "name": "Zalli Bulqizu00ebs",
        "city": "Podgorcu00eb",
        "prov": "Dibu00ebr",
        "region": null,
        "latt": "41.559167",
        "longt": "20.447222",
        "address": "055 Tyler CenternCarterhaven, UT 54963"
    },
    {
        "state": "AL",
        "name": "Trebinju00eb",
        "city": "Trebinje",
        "prov": "Koru00e7u00eb",
        "region": "Rrethi i Pogradecit",
        "latt": "40.91333",
        "longt": "20.55306",
        "address": "408 Smith Radial Apt. 654nGeorgeberg, MT 15829"
    },
    {
        "state": "AL",
        "name": "Kodra e Thanasajt",
        "city": "Rrogozhinu00eb",
        "prov": "Tirana",
        "region": "Rrethi i Kavaju00ebs",
        "latt": "41.05",
        "longt": "19.666667",
        "address": "83614 Ross Village Suite 426nLake Amanda, VA 40626"
    },
    {
        "state": "AL",
        "name": "Qyteti i Roskovecit",
        "city": "Roskovec",
        "prov": "Fier",
        "region": "Fier",
        "latt": "40.75",
        "longt": "19.7",
        "address": "8932 Thomas UnionnSmithside, MS 71842"
    },
    {
        "state": "AL",
        "name": "Goxhaj",
        "city": "Goxhaj",
        "prov": "Kuku00ebs",
        "region": "Rrethi i Hasit",
        "latt": "42.22472",
        "longt": "20.29222",
        "address": "8888 Simmons VistanNew Mariafurt, MI 65237"
    },
    {
        "state": "AL",
        "name": "Rru00ebnojet e Malishovu00ebs",
        "city": "Polican",
        "prov": "Berat",
        "region": "Rrethi i Beratit",
        "latt": "40.64583",
        "longt": "20.07056",
        "address": "585 Raven Pike Suite 520nMauriceburgh, ND 20164"
    },
    {
        "state": "AL",
        "name": "Zalli Bulqizu00ebs",
        "city": "Podgorcu00eb",
        "prov": "Dibu00ebr",
        "region": null,
        "latt": "41.559167",
        "longt": "20.447222",
        "address": "6196 Mccarthy Stravenue Apt. 504nEast Charlesburgh, CO 58742"
    },
    {
        "state": "AL",
        "name": "Shkodra",
        "city": "Shkodu00ebr",
        "prov": "Shkodu00ebr",
        "region": "Rrethi i Shkodru00ebs",
        "latt": "42.0675",
        "longt": "19.513056",
        "address": "3455 Troy LocksnKarenside, CA 79149"
    },
    {
        "state": "AL",
        "name": "Goxhaj",
        "city": "Goxhaj",
        "prov": "Kuku00ebs",
        "region": "Rrethi i Hasit",
        "latt": "42.22472",
        "longt": "20.29222",
        "address": "PSC 0601, Box 9646nAPO AA 59916"
    },
    {
        "state": "AL",
        "name": "Tabake",
        "city": "Peqin",
        "prov": "Elbasan",
        "region": "Bashkia Peqin",
        "latt": "41.026111",
        "longt": "19.820556",
        "address": "88170 Parker WallnPort David, KS 26563"
    },
    {
        "state": "AL",
        "name": "Goxhaj",
        "city": "Goxhaj",
        "prov": "Kuku00ebs",
        "region": "Rrethi i Hasit",
        "latt": "42.22472",
        "longt": "20.29222",
        "address": "205 Brittany RampnStewartbury, ID 37666"
    },
    {
        "state": "AL",
        "name": "Qyteti i Roskovecit",
        "city": "Roskovec",
        "prov": "Fier",
        "region": "Fier",
        "latt": "40.75",
        "longt": "19.7",
        "address": "1885 Kristin ParkwaynSantosland, IA 36504"
    },
    {
        "state": "AL",
        "name": "Zalli Bulqizu00ebs",
        "city": "Podgorcu00eb",
        "prov": "Dibu00ebr",
        "region": null,
        "latt": "41.559167",
        "longt": "20.447222",
        "address": "8273 Logan SpringnMorrisonview, WI 78275"
    },
    {
        "state": "AL",
        "name": "Metoq",
        "city": "Sarande",
        "prov": "Vloru00eb",
        "region": "Rrethi i Sarandu00ebs",
        "latt": "39.88333",
        "longt": "20.04556",
        "address": "2501 Dixon VistanPatrickchester, WA 60039"
    },
    {
        "state": "AL",
        "name": "Vadardhu00eb",
        "city": "Shijak",
        "prov": "Durru00ebs",
        "region": "Bashkia Durru00ebs",
        "latt": "41.39694",
        "longt": "19.54389",
        "address": "Unit 5863 Box 7189nDPO AP 50198"
    },
    {
        "state": "AL",
        "name": "Kodra e Tufinu00ebs",
        "city": "Tirana",
        "prov": "Tirana",
        "region": "Rrethi i Tiranu00ebs",
        "latt": "41.366389",
        "longt": "19.889167",
        "address": "USS AcostanFPO AE 81893"
    },
    {
        "state": "AL",
        "name": "Buckaj",
        "city": "Buckaj",
        "prov": "Gjirokastu00ebr",
        "region": null,
        "latt": "40.45116",
        "longt": "19.84034",
        "address": "6761 Payne Forges Apt. 495nNew Sheri, WY 49084"
    },
    {
        "state": "AL",
        "name": "Zvezdu00eb",
        "city": "Zvezde",
        "prov": "Koru00e7u00eb",
        "region": null,
        "latt": "40.73111",
        "longt": "20.85806",
        "address": "31494 Villa WaynDaniellefort, NJ 69507"
    },
    {
        "state": "AL",
        "name": "Ara tu00eb Lumit",
        "city": "Ara te Lumit",
        "prov": "Kuku00ebs",
        "region": null,
        "latt": "42.285",
        "longt": "20.03028",
        "address": "1097 Rogers Roads Apt. 523nBenjaminside, VT 13651"
    },
    {
        "state": "AL",
        "name": "Prronu2019 i Bambullit",
        "city": "Koru00e7u00eb",
        "prov": "Koru00e7u00eb",
        "region": "Rrethi i Koru00e7u00ebs",
        "latt": "40.6",
        "longt": "20.71667",
        "address": "6721 Davies StravenuenBradshire, IN 30843"
    },
    {
        "state": "AL",
        "name": "Kodra e Tufinu00ebs",
        "city": "Tirana",
        "prov": "Tirana",
        "region": "Rrethi i Tiranu00ebs",
        "latt": "41.366389",
        "longt": "19.889167",
        "address": "634 Emily IslandnLake Sarahfurt, KS 17604"
    },
    {
        "state": "AL",
        "name": "Fan",
        "city": "Milot",
        "prov": "Lezhu00eb",
        "region": "Rrethi i Kurbinit",
        "latt": "41.70556",
        "longt": "19.76972",
        "address": "USNV CarternFPO AE 45588"
    },
    {
        "state": "AL",
        "name": "Qyteti i Roskovecit",
        "city": "Roskovec",
        "prov": "Fier",
        "region": "Fier",
        "latt": "40.75",
        "longt": "19.7",
        "address": "PSC 7700, Box 6166nAPO AA 28240"
    },
    {
        "state": "AL",
        "name": "Veli Popa",
        "city": "Vermosh",
        "prov": "Shkodu00ebr",
        "region": null,
        "latt": "42.600833",
        "longt": "19.6625",
        "address": "917 Johnson Coves Suite 176nSheilaport, DC 58956"
    },
    {
        "state": "AL",
        "name": "Rru00ebnojet e Malishovu00ebs",
        "city": "Polican",
        "prov": "Berat",
        "region": "Rrethi i Beratit",
        "latt": "40.64583",
        "longt": "20.07056",
        "address": "3167 Jason MountainsnPort Laurenburgh, SD 93054"
    },
    {
        "state": "AL",
        "name": "Fan",
        "city": "Milot",
        "prov": "Lezhu00eb",
        "region": "Rrethi i Kurbinit",
        "latt": "41.70556",
        "longt": "19.76972",
        "address": "5713 Sellers Light Apt. 529nNorth Samantha, MN 29360"
    },
    {
        "state": "AL",
        "name": "Rru00ebnojet e Malishovu00ebs",
        "city": "Polican",
        "prov": "Berat",
        "region": "Rrethi i Beratit",
        "latt": "40.64583",
        "longt": "20.07056",
        "address": "811 Simmons PlazanNew April, SD 36275"
    },
    {
        "state": "AL",
        "name": "Vadardhu00eb",
        "city": "Shijak",
        "prov": "Durru00ebs",
        "region": "Bashkia Durru00ebs",
        "latt": "41.39694",
        "longt": "19.54389",
        "address": "8040 Angela Prairie Apt. 787nMillerview, DE 87188"
    },
    {
        "state": "AL",
        "name": "Nezhaj",
        "city": "Nezhaj",
        "prov": "Dibu00ebr",
        "region": null,
        "latt": "41.79",
        "longt": "20.32861",
        "address": "42231 Gardner Well Apt. 024nNorth Andreashire, SD 70326"
    },
    {
        "state": "AL",
        "name": "Kortou00e7aj",
        "city": "Qeli",
        "prov": "Kuku00ebs",
        "region": "Rrethi i Tropoju00ebs",
        "latt": "42.42374",
        "longt": "20.14448",
        "address": "85522 Bailey Glens Apt. 918nLeshire, IL 42680"
    },
    {
        "state": "AL",
        "name": "Nezhaj",
        "city": "Nezhaj",
        "prov": "Dibu00ebr",
        "region": null,
        "latt": "41.79",
        "longt": "20.32861",
        "address": "8168 Barry Estates Apt. 777nLake Markview, NJ 41214"
    },
    {
        "state": "AL",
        "name": "Tabake",
        "city": "Peqin",
        "prov": "Elbasan",
        "region": "Bashkia Peqin",
        "latt": "41.026111",
        "longt": "19.820556",
        "address": "284 Drake Flat Suite 637nNew Jeffport, MT 88339"
    },
    {
        "state": "AL",
        "name": "Qelu00ebz",
        "city": "Puku00eb",
        "prov": "Shkodu00ebr",
        "region": "Rrethi i Puku00ebs",
        "latt": "42.1",
        "longt": "19.883333",
        "address": "230 Heather River Apt. 006nDominguezview, KS 38459"
    },
    {
        "state": "AL",
        "name": "Buckaj",
        "city": "Buckaj",
        "prov": "Gjirokastu00ebr",
        "region": null,
        "latt": "40.45116",
        "longt": "19.84034",
        "address": "5981 Richard MeadowsnPort Jamieport, NM 76852"
    },
    {
        "state": "AL",
        "name": "Zalli Bulqizu00ebs",
        "city": "Podgorcu00eb",
        "prov": "Dibu00ebr",
        "region": null,
        "latt": "41.559167",
        "longt": "20.447222",
        "address": "PSC 8497, Box 1943nAPO AA 48562"
    },
    {
        "state": "AL",
        "name": "Nezhaj",
        "city": "Nezhaj",
        "prov": "Dibu00ebr",
        "region": null,
        "latt": "41.79",
        "longt": "20.32861",
        "address": "179 Kelly MountnJoshuachester, NY 26859"
    },
    {
        "state": "AL",
        "name": "Zvezdu00eb",
        "city": "Zvezde",
        "prov": "Koru00e7u00eb",
        "region": null,
        "latt": "40.73111",
        "longt": "20.85806",
        "address": "304 Stephenson ForgesnAdamschester, IN 18032"
    },
    {
        "state": "AL",
        "name": "Buckaj",
        "city": "Buckaj",
        "prov": "Gjirokastu00ebr",
        "region": null,
        "latt": "40.45116",
        "longt": "19.84034",
        "address": "06154 Colleen FieldsnEast Deborahshire, MO 36803"
    },
    {
        "state": "AL",
        "name": "Ara tu00eb Lumit",
        "city": "Ara te Lumit",
        "prov": "Kuku00ebs",
        "region": null,
        "latt": "42.285",
        "longt": "20.03028",
        "address": "75015 Whitaker Extensions Apt. 141nTinatown, LA 09375"
    },
    {
        "state": "AL",
        "name": "Kodra e Tufinu00ebs",
        "city": "Tirana",
        "prov": "Tirana",
        "region": "Rrethi i Tiranu00ebs",
        "latt": "41.366389",
        "longt": "19.889167",
        "address": "438 Gallagher Valleys Apt. 812nBonniemouth, HI 06732"
    },
    {
        "state": "AL",
        "name": "Shesh",
        "city": "Shesh",
        "prov": "Elbasan",
        "region": "Rrethi i Gramshit",
        "latt": "40.940833",
        "longt": "20.234722",
        "address": "3137 Moore Cape Apt. 820nLake Elizabethton, MA 26217"
    },
    {
        "state": "AL",
        "name": "Tabake",
        "city": "Peqin",
        "prov": "Elbasan",
        "region": "Bashkia Peqin",
        "latt": "41.026111",
        "longt": "19.820556",
        "address": "319 Briana Mount Suite 091nWest Brent, AZ 82365"
    },
    {
        "state": "AL",
        "name": "Prronu2019 i Bambullit",
        "city": "Koru00e7u00eb",
        "prov": "Koru00e7u00eb",
        "region": "Rrethi i Koru00e7u00ebs",
        "latt": "40.6",
        "longt": "20.71667",
        "address": "5686 Marquez KnollnAlbertfurt, TN 50674"
    },
    {
        "state": "AL",
        "name": "Zalli Bulqizu00ebs",
        "city": "Podgorcu00eb",
        "prov": "Dibu00ebr",
        "region": null,
        "latt": "41.559167",
        "longt": "20.447222",
        "address": "USS WestnFPO AP 14286"
    },
    {
        "state": "AL",
        "name": "Shesh",
        "city": "Shesh",
        "prov": "Elbasan",
        "region": "Rrethi i Gramshit",
        "latt": "40.940833",
        "longt": "20.234722",
        "address": "5912 Timothy IslandsnPort Bryan, PA 10184"
    },
    {
        "state": "AL",
        "name": "Buckaj",
        "city": "Buckaj",
        "prov": "Gjirokastu00ebr",
        "region": null,
        "latt": "40.45116",
        "longt": "19.84034",
        "address": "8783 Steven Street Suite 876nLake Davidchester, NY 20825"
    },
    {
        "state": "AL",
        "name": "Kodra e Tufinu00ebs",
        "city": "Tirana",
        "prov": "Tirana",
        "region": "Rrethi i Tiranu00ebs",
        "latt": "41.366389",
        "longt": "19.889167",
        "address": "14226 Richard Mission Apt. 647nPort Tina, RI 53822"
    },
    {
        "state": "AL",
        "name": "Tabake",
        "city": "Peqin",
        "prov": "Elbasan",
        "region": "Bashkia Peqin",
        "latt": "41.026111",
        "longt": "19.820556",
        "address": "0091 Drake StationnSouth Williambury, TN 41175"
    },
    {
        "state": "AL",
        "name": "Qyteti i Roskovecit",
        "city": "Roskovec",
        "prov": "Fier",
        "region": "Fier",
        "latt": "40.75",
        "longt": "19.7",
        "address": "5373 Robert Corner Apt. 922nLeeside, HI 02061"
    },
    {
        "state": "AL",
        "name": "Ara tu00eb Lumit",
        "city": "Ara te Lumit",
        "prov": "Kuku00ebs",
        "region": null,
        "latt": "42.285",
        "longt": "20.03028",
        "address": "PSC 6149, Box 4169nAPO AE 50571"
    },
    {
        "state": "AL",
        "name": "Tabake",
        "city": "Peqin",
        "prov": "Elbasan",
        "region": "Bashkia Peqin",
        "latt": "41.026111",
        "longt": "19.820556",
        "address": "0275 Eric InletnPollardburgh, CO 30055"
    },
    {
        "state": "AL",
        "name": "Kodra e Tufinu00ebs",
        "city": "Tirana",
        "prov": "Tirana",
        "region": "Rrethi i Tiranu00ebs",
        "latt": "41.366389",
        "longt": "19.889167",
        "address": "2883 Angelica FordsnNorth Denise, NM 24922"
    },
    {
        "state": "AL",
        "name": "Goxhaj",
        "city": "Goxhaj",
        "prov": "Kuku00ebs",
        "region": "Rrethi i Hasit",
        "latt": "42.22472",
        "longt": "20.29222",
        "address": "0277 Armstrong Road Apt. 067nHernandezmouth, DC 37325"
    },
    {
        "state": "AL",
        "name": "Veli Popa",
        "city": "Vermosh",
        "prov": "Shkodu00ebr",
        "region": null,
        "latt": "42.600833",
        "longt": "19.6625",
        "address": "7673 Hill Meadows Suite 103nWilliamsview, TN 66571"
    },
    {
        "state": "AL",
        "name": "2 Kitarrat",
        "city": "Durres",
        "prov": "Durru00ebs",
        "region": "Durru00ebs District",
        "latt": "41.31195",
        "longt": "19.43559",
        "address": "1271 Williams Trail Suite 674nJuliashire, ND 99110"
    },
    {
        "state": "AL",
        "name": "Tabake",
        "city": "Peqin",
        "prov": "Elbasan",
        "region": "Bashkia Peqin",
        "latt": "41.026111",
        "longt": "19.820556",
        "address": "29313 Jones Throughway Apt. 718nEast Raymondfurt, AL 47100"
    },
    {
        "state": "AL",
        "name": "Kodra e Tufinu00ebs",
        "city": "Tirana",
        "prov": "Tirana",
        "region": "Rrethi i Tiranu00ebs",
        "latt": "41.366389",
        "longt": "19.889167",
        "address": "Unit 2887 Box 9859nDPO AA 05571"
    },
    {
        "state": "AL",
        "name": "Ara tu00eb Lumit",
        "city": "Ara te Lumit",
        "prov": "Kuku00ebs",
        "region": null,
        "latt": "42.285",
        "longt": "20.03028",
        "address": "99816 Carol FreewaynSarahfort, TN 54383"
    },
    {
        "state": "AL",
        "name": "Kodra e Thanasajt",
        "city": "Rrogozhinu00eb",
        "prov": "Tirana",
        "region": "Rrethi i Kavaju00ebs",
        "latt": "41.05",
        "longt": "19.666667",
        "address": "47432 Jodi Loaf Suite 911nWangport, TN 49480"
    },
    {
        "state": "AL",
        "name": "Zvezdu00eb",
        "city": "Zvezde",
        "prov": "Koru00e7u00eb",
        "region": null,
        "latt": "40.73111",
        "longt": "20.85806",
        "address": "5028 Lauren TerracenNew Wendy, OR 68415"
    },
    {
        "state": "AL",
        "name": "Shesh",
        "city": "Shesh",
        "prov": "Elbasan",
        "region": "Rrethi i Gramshit",
        "latt": "40.940833",
        "longt": "20.234722",
        "address": "5700 Ruben Ridges Apt. 053nSouth Mauriceville, MN 60394"
    },
    {
        "state": "AL",
        "name": "Qyteti i Roskovecit",
        "city": "Roskovec",
        "prov": "Fier",
        "region": "Fier",
        "latt": "40.75",
        "longt": "19.7",
        "address": "756 Holly MeadownMichellemouth, CO 83611"
    },
    {
        "state": "AL",
        "name": "Povelu00e7e",
        "city": "Povelce",
        "prov": "Fier",
        "region": "Bashkia Fier",
        "latt": "40.72889",
        "longt": "19.42083",
        "address": "8478 Nancy Flat Apt. 956nLindaland, RI 02903"
    },
    {
        "state": "AL",
        "name": "Nezhaj",
        "city": "Nezhaj",
        "prov": "Dibu00ebr",
        "region": null,
        "latt": "41.79",
        "longt": "20.32861",
        "address": "7866 Timothy MeadowsnMartinezfort, KS 42512"
    },
    {
        "state": "AL",
        "name": "Ara tu00eb Lumit",
        "city": "Ara te Lumit",
        "prov": "Kuku00ebs",
        "region": null,
        "latt": "42.285",
        "longt": "20.03028",
        "address": "910 Hampton PrairienNew Patricia, AK 92267"
    },
    {
        "state": "AL",
        "name": "Kalaja e Petralbu00ebs",
        "city": "Klos",
        "prov": "Dibu00ebr",
        "region": "Rrethi i Matit",
        "latt": "41.471944",
        "longt": "20.080833",
        "address": "62092 Jennifer FordsnWest Oscar, VT 78219"
    },
    {
        "state": "AL",
        "name": "Shesh",
        "city": "Shesh",
        "prov": "Elbasan",
        "region": "Rrethi i Gramshit",
        "latt": "40.940833",
        "longt": "20.234722",
        "address": "53250 Smith IslandnLake Brian, DE 84395"
    },
    {
        "state": "AL",
        "name": "Kalaja e Petralbu00ebs",
        "city": "Klos",
        "prov": "Dibu00ebr",
        "region": "Rrethi i Matit",
        "latt": "41.471944",
        "longt": "20.080833",
        "address": "38607 Simmons InletnMercerton, AZ 93892"
    },
    {
        "state": "AL",
        "name": "Kalaja e Petralbu00ebs",
        "city": "Klos",
        "prov": "Dibu00ebr",
        "region": "Rrethi i Matit",
        "latt": "41.471944",
        "longt": "20.080833",
        "address": "355 Adams Valleys Suite 681nPhilipport, CA 18926"
    },
    {
        "state": "AL",
        "name": "Qyteti i Roskovecit",
        "city": "Roskovec",
        "prov": "Fier",
        "region": "Fier",
        "latt": "40.75",
        "longt": "19.7",
        "address": "366 Steven Mountain Apt. 946nDarleneborough, SD 75266"
    },
    {
        "state": "AL",
        "name": "Qyteti i Roskovecit",
        "city": "Roskovec",
        "prov": "Fier",
        "region": "Fier",
        "latt": "40.75",
        "longt": "19.7",
        "address": "5694 Prince Isle Suite 479nRodriguezberg, KY 22701"
    },
    {
        "state": "AL",
        "name": "Buckaj",
        "city": "Buckaj",
        "prov": "Gjirokastu00ebr",
        "region": null,
        "latt": "40.45116",
        "longt": "19.84034",
        "address": "238 Brian CenternFloresside, NJ 35586"
    },
    {
        "state": "AL",
        "name": "Tabake",
        "city": "Peqin",
        "prov": "Elbasan",
        "region": "Bashkia Peqin",
        "latt": "41.026111",
        "longt": "19.820556",
        "address": "0090 Wise Mill Suite 476nEast Nicole, MD 54879"
    },
    {
        "state": "AL",
        "name": "Kalaja e Petralbu00ebs",
        "city": "Klos",
        "prov": "Dibu00ebr",
        "region": "Rrethi i Matit",
        "latt": "41.471944",
        "longt": "20.080833",
        "address": "PSC 5739, Box 0487nAPO AP 29553"
    },
    {
        "state": "AL",
        "name": "Krinu00eb",
        "city": "Gjirokaster",
        "prov": "Gjirokastu00ebr",
        "region": "Bashkia Libohovu00eb",
        "latt": "40.09972",
        "longt": "20.20139",
        "address": "8422 Brittany KeysnBakershire, VA 29087"
    },
    {
        "state": "AL",
        "name": "Tabake",
        "city": "Peqin",
        "prov": "Elbasan",
        "region": "Bashkia Peqin",
        "latt": "41.026111",
        "longt": "19.820556",
        "address": "8690 Ashley Plains Suite 330nWest Rachel, AR 06022"
    },
    {
        "state": "AL",
        "name": "Veleshnjaret",
        "city": "Veleshnjaret",
        "prov": "Gjirokastu00ebr",
        "region": "Bashkia Kelcyru00eb",
        "latt": "40.43944",
        "longt": "20.13444",
        "address": "583 Richard Park Apt. 890nJenniferside, NV 25651"
    },
    {
        "state": "AL",
        "name": "Prronu2019 i Bambullit",
        "city": "Koru00e7u00eb",
        "prov": "Koru00e7u00eb",
        "region": "Rrethi i Koru00e7u00ebs",
        "latt": "40.6",
        "longt": "20.71667",
        "address": "531 Thomas Dale Suite 939nLake Kristin, PA 27823"
    },
    {
        "state": "AL",
        "name": "Nezhaj",
        "city": "Nezhaj",
        "prov": "Dibu00ebr",
        "region": null,
        "latt": "41.79",
        "longt": "20.32861",
        "address": "38089 Boyer Motorway Apt. 474nNorth Patrickmouth, VA 08747"
    },
    {
        "state": "AL",
        "name": "Veli Popa",
        "city": "Vermosh",
        "prov": "Shkodu00ebr",
        "region": null,
        "latt": "42.600833",
        "longt": "19.6625",
        "address": "2800 Kimberly IslandsnHallfurt, HI 46472"
    },
    {
        "state": "AL",
        "name": "Trebinju00eb",
        "city": "Trebinje",
        "prov": "Koru00e7u00eb",
        "region": "Rrethi i Pogradecit",
        "latt": "40.91333",
        "longt": "20.55306",
        "address": "878 Rachel RapidnKingtown, NV 00610"
    },
    {
        "state": "AL",
        "name": "Kalaja e Petralbu00ebs",
        "city": "Klos",
        "prov": "Dibu00ebr",
        "region": "Rrethi i Matit",
        "latt": "41.471944",
        "longt": "20.080833",
        "address": "155 Christine StreamnSouth Benjaminmouth, RI 72457"
    },
    {
        "state": "AL",
        "name": "Metoq",
        "city": "Sarande",
        "prov": "Vloru00eb",
        "region": "Rrethi i Sarandu00ebs",
        "latt": "39.88333",
        "longt": "20.04556",
        "address": "1438 Holly MewsnBenjaminview, WY 42547"
    },
    {
        "state": "AL",
        "name": "Shesh",
        "city": "Shesh",
        "prov": "Elbasan",
        "region": "Rrethi i Gramshit",
        "latt": "40.940833",
        "longt": "20.234722",
        "address": "9498 Cody Shoal Suite 285nLake Melissa, NE 84525"
    },
    {
        "state": "AL",
        "name": "Kodu00ebr Mulliri",
        "city": "Lezhe",
        "prov": "Lezhu00eb",
        "region": null,
        "latt": "41.73333",
        "longt": "19.61639",
        "address": "908 Todd Divide Apt. 864nLoveville, HI 46763"
    },
    {
        "state": "AL",
        "name": "Ara tu00eb Lumit",
        "city": "Ara te Lumit",
        "prov": "Kuku00ebs",
        "region": null,
        "latt": "42.285",
        "longt": "20.03028",
        "address": "62369 Aaron Mall Apt. 426nMaryfurt, IA 67526"
    },
    {
        "state": "AL",
        "name": "Tabake",
        "city": "Peqin",
        "prov": "Elbasan",
        "region": "Bashkia Peqin",
        "latt": "41.026111",
        "longt": "19.820556",
        "address": "2870 Allen Roads Apt. 422nReynoldsstad, NJ 32151"
    },
    {
        "state": "AL",
        "name": "Kalaja e Petralbu00ebs",
        "city": "Klos",
        "prov": "Dibu00ebr",
        "region": "Rrethi i Matit",
        "latt": "41.471944",
        "longt": "20.080833",
        "address": "72339 Diane Mall Apt. 400nBellbury, IL 36891"
    },
    {
        "state": "AL",
        "name": "Kodra e Tufinu00ebs",
        "city": "Tirana",
        "prov": "Tirana",
        "region": "Rrethi i Tiranu00ebs",
        "latt": "41.366389",
        "longt": "19.889167",
        "address": "08230 Ryan Grove Suite 735nEsparzaberg, MI 80549"
    },
    {
        "state": "AL",
        "name": "Veleshnjaret",
        "city": "Veleshnjaret",
        "prov": "Gjirokastu00ebr",
        "region": "Bashkia Kelcyru00eb",
        "latt": "40.43944",
        "longt": "20.13444",
        "address": "90116 Austin Heights Apt. 366nLake Carol, IL 64841"
    },
    {
        "state": "AL",
        "name": "Buckaj",
        "city": "Buckaj",
        "prov": "Gjirokastu00ebr",
        "region": null,
        "latt": "40.45116",
        "longt": "19.84034",
        "address": "3808 Brown Court Suite 707nPort Kimside, OR 37564"
    },
    {
        "state": "AL",
        "name": "Rru00ebnojet e Malishovu00ebs",
        "city": "Polican",
        "prov": "Berat",
        "region": "Rrethi i Beratit",
        "latt": "40.64583",
        "longt": "20.07056",
        "address": "39356 Bruce Rue Suite 956nNorth Mitchellport, NH 90543"
    },
    {
        "state": "AL",
        "name": "Fan",
        "city": "Milot",
        "prov": "Lezhu00eb",
        "region": "Rrethi i Kurbinit",
        "latt": "41.70556",
        "longt": "19.76972",
        "address": "45813 Alejandro Prairie Apt. 018nNorth Davidmouth, OK 42485"
    },
    {
        "state": "AL",
        "name": "Rru00ebnojet e Malishovu00ebs",
        "city": "Polican",
        "prov": "Berat",
        "region": "Rrethi i Beratit",
        "latt": "40.64583",
        "longt": "20.07056",
        "address": "789 Baker Lodge Apt. 047nHeatherview, CO 13009"
    },
    {
        "state": "AL",
        "name": "Shesh",
        "city": "Shesh",
        "prov": "Elbasan",
        "region": "Rrethi i Gramshit",
        "latt": "40.940833",
        "longt": "20.234722",
        "address": "4273 Matthew RadialnNovakborough, NM 04582"
    },
    {
        "state": "AL",
        "name": "Zalli Bulqizu00ebs",
        "city": "Podgorcu00eb",
        "prov": "Dibu00ebr",
        "region": null,
        "latt": "41.559167",
        "longt": "20.447222",
        "address": "40147 Frederick CampnNorth Virginia, AZ 96643"
    },
    {
        "state": "AL",
        "name": "Maja e Gajashu00ebs",
        "city": "Nau00e7aj",
        "prov": "Shkodu00ebr",
        "region": null,
        "latt": "42.330556",
        "longt": "19.459167",
        "address": "PSC 1722, Box 9683nAPO AP 14252"
    },
    {
        "state": "AL",
        "name": "Ara tu00eb Lumit",
        "city": "Ara te Lumit",
        "prov": "Kuku00ebs",
        "region": null,
        "latt": "42.285",
        "longt": "20.03028",
        "address": "PSC 6539, Box 2589nAPO AE 17395"
    },
    {
        "state": "AL",
        "name": "Buckaj",
        "city": "Buckaj",
        "prov": "Gjirokastu00ebr",
        "region": null,
        "latt": "40.45116",
        "longt": "19.84034",
        "address": "708 Victoria StravenuenWest Wendyville, VT 63217"
    },
    {
        "state": "AL",
        "name": "Qyteti i Roskovecit",
        "city": "Roskovec",
        "prov": "Fier",
        "region": "Fier",
        "latt": "40.75",
        "longt": "19.7",
        "address": "381 Gomez Hill Apt. 847nPort Lynnville, IA 98202"
    },
    {
        "state": "AL",
        "name": "Fan",
        "city": "Milot",
        "prov": "Lezhu00eb",
        "region": "Rrethi i Kurbinit",
        "latt": "41.70556",
        "longt": "19.76972",
        "address": "09315 Lara GreensnNorth Tina, PA 64222"
    },
    {
        "state": "AL",
        "name": "Vadardhu00eb",
        "city": "Shijak",
        "prov": "Durru00ebs",
        "region": "Bashkia Durru00ebs",
        "latt": "41.39694",
        "longt": "19.54389",
        "address": "USNV KnoxnFPO AA 23327"
    },
    {
        "state": "AL",
        "name": "Zalli Bulqizu00ebs",
        "city": "Podgorcu00eb",
        "prov": "Dibu00ebr",
        "region": null,
        "latt": "41.559167",
        "longt": "20.447222",
        "address": "76540 Peterson MillsnEast Sarah, ME 02767"
    },
    {
        "state": "AL",
        "name": "Buckaj",
        "city": "Buckaj",
        "prov": "Gjirokastu00ebr",
        "region": null,
        "latt": "40.45116",
        "longt": "19.84034",
        "address": "4666 Evans MountainsnElizabethside, VA 24363"
    },
    {
        "state": "AL",
        "name": "Shesh",
        "city": "Shesh",
        "prov": "Elbasan",
        "region": "Rrethi i Gramshit",
        "latt": "40.940833",
        "longt": "20.234722",
        "address": "78579 Jackson Plains Apt. 820nLake Robert, SD 97560"
    },
    {
        "state": "AL",
        "name": "Shesh",
        "city": "Shesh",
        "prov": "Elbasan",
        "region": "Rrethi i Gramshit",
        "latt": "40.940833",
        "longt": "20.234722",
        "address": "PSC 3009, Box 2715nAPO AA 50220"
    },
    {
        "state": "AL",
        "name": "Fan",
        "city": "Milot",
        "prov": "Lezhu00eb",
        "region": "Rrethi i Kurbinit",
        "latt": "41.70556",
        "longt": "19.76972",
        "address": "4645 Daniel Track Apt. 784nWest Peterland, OK 50273"
    },
    {
        "state": "AL",
        "name": "Vadardhu00eb",
        "city": "Shijak",
        "prov": "Durru00ebs",
        "region": "Bashkia Durru00ebs",
        "latt": "41.39694",
        "longt": "19.54389",
        "address": "4711 Gabriel UnderpassnNew Toddmouth, OH 78579"
    },
    {
        "state": "AL",
        "name": "Kodra e Thanasajt",
        "city": "Rrogozhinu00eb",
        "prov": "Tirana",
        "region": "Rrethi i Kavaju00ebs",
        "latt": "41.05",
        "longt": "19.666667",
        "address": "85815 Wendy GrovenSouth Kimberlyshire, GA 45789"
    },
    {
        "state": "AL",
        "name": "Rru00ebnojet e Malishovu00ebs",
        "city": "Polican",
        "prov": "Berat",
        "region": "Rrethi i Beratit",
        "latt": "40.64583",
        "longt": "20.07056",
        "address": "120 Lucas Summit Apt. 160nMichaelport, KS 37296"
    },
    {
        "state": "AL",
        "name": "Rru00ebnojet e Malishovu00ebs",
        "city": "Polican",
        "prov": "Berat",
        "region": "Rrethi i Beratit",
        "latt": "40.64583",
        "longt": "20.07056",
        "address": "05790 Olson Plaza Suite 042nWest Katelynfurt, SD 30309"
    },
    {
        "state": "AL",
        "name": "Fan",
        "city": "Milot",
        "prov": "Lezhu00eb",
        "region": "Rrethi i Kurbinit",
        "latt": "41.70556",
        "longt": "19.76972",
        "address": "44122 Young TerracenNorth Lauraside, SD 02886"
    },
    {
        "state": "AL",
        "name": "Tabake",
        "city": "Peqin",
        "prov": "Elbasan",
        "region": "Bashkia Peqin",
        "latt": "41.026111",
        "longt": "19.820556",
        "address": "6071 Edwards Forge Apt. 807nFlynnland, NM 02621"
    },
    {
        "state": "AL",
        "name": "Tabake",
        "city": "Peqin",
        "prov": "Elbasan",
        "region": "Bashkia Peqin",
        "latt": "41.026111",
        "longt": "19.820556",
        "address": "0962 Brian CapenNorth Josephland, TX 43423"
    },
    {
        "state": "AL",
        "name": "Buckaj",
        "city": "Buckaj",
        "prov": "Gjirokastu00ebr",
        "region": null,
        "latt": "40.45116",
        "longt": "19.84034",
        "address": "914 Bennett PortsnThompsonland, TX 03208"
    },
    {
        "state": "AL",
        "name": "Shesh",
        "city": "Shesh",
        "prov": "Elbasan",
        "region": "Rrethi i Gramshit",
        "latt": "40.940833",
        "longt": "20.234722",
        "address": "67190 Gardner RoadsnNew Michelefort, MN 65012"
    },
    {
        "state": "AL",
        "name": "Buckaj",
        "city": "Buckaj",
        "prov": "Gjirokastu00ebr",
        "region": null,
        "latt": "40.45116",
        "longt": "19.84034",
        "address": "442 Gonzalez CovesnWest Mialand, MD 98800"
    },
    {
        "state": "AL",
        "name": "Shesh",
        "city": "Shesh",
        "prov": "Elbasan",
        "region": "Rrethi i Gramshit",
        "latt": "40.940833",
        "longt": "20.234722",
        "address": "8672 Phyllis MewsnWest Paulstad, MN 40066"
    },
    {
        "state": "AL",
        "name": "Tabake",
        "city": "Peqin",
        "prov": "Elbasan",
        "region": "Bashkia Peqin",
        "latt": "41.026111",
        "longt": "19.820556",
        "address": "70093 Jimenez PassagenRyanmouth, CT 14555"
    },
    {
        "state": "AL",
        "name": "Tabake",
        "city": "Peqin",
        "prov": "Elbasan",
        "region": "Bashkia Peqin",
        "latt": "41.026111",
        "longt": "19.820556",
        "address": "9448 Wallace TrailnBridgesland, CT 22177"
    },
    {
        "state": "AL",
        "name": "Krinu00eb",
        "city": "Gjirokaster",
        "prov": "Gjirokastu00ebr",
        "region": "Bashkia Libohovu00eb",
        "latt": "40.09972",
        "longt": "20.20139",
        "address": "714 Romero Centers Apt. 740nEast Audrey, KS 54392"
    },
    {
        "state": "AL",
        "name": "Kalaja e Petralbu00ebs",
        "city": "Klos",
        "prov": "Dibu00ebr",
        "region": "Rrethi i Matit",
        "latt": "41.471944",
        "longt": "20.080833",
        "address": "Unit 7410 Box 2452nDPO AP 90045"
    },
    {
        "state": "AL",
        "name": "2 Kitarrat",
        "city": "Durres",
        "prov": "Durru00ebs",
        "region": "Durru00ebs District",
        "latt": "41.31195",
        "longt": "19.43559",
        "address": "Unit 0529 Box 6381nDPO AP 69900"
    },
    {
        "state": "AL",
        "name": "Metoq",
        "city": "Sarande",
        "prov": "Vloru00eb",
        "region": "Rrethi i Sarandu00ebs",
        "latt": "39.88333",
        "longt": "20.04556",
        "address": "06386 Davis Crest Apt. 460nNelsonport, DE 01598"
    },
    {
        "state": "AL",
        "name": "Veleshnjaret",
        "city": "Veleshnjaret",
        "prov": "Gjirokastu00ebr",
        "region": "Bashkia Kelcyru00eb",
        "latt": "40.43944",
        "longt": "20.13444",
        "address": "4950 Donald Forest Suite 771nRachelhaven, AR 52046"
    },
    {
        "state": "AL",
        "name": "Zalli Bulqizu00ebs",
        "city": "Podgorcu00eb",
        "prov": "Dibu00ebr",
        "region": null,
        "latt": "41.559167",
        "longt": "20.447222",
        "address": "PSC 8506, Box 6861nAPO AA 08984"
    },
    {
        "state": "AL",
        "name": "Tabake",
        "city": "Peqin",
        "prov": "Elbasan",
        "region": "Bashkia Peqin",
        "latt": "41.026111",
        "longt": "19.820556",
        "address": "PSC 7431, Box 8130nAPO AA 67418"
    },
    {
        "state": "AL",
        "name": "Shesh",
        "city": "Shesh",
        "prov": "Elbasan",
        "region": "Rrethi i Gramshit",
        "latt": "40.940833",
        "longt": "20.234722",
        "address": "40253 Rivera Unions Apt. 874nWest Charles, ME 97312"
    },
    {
        "state": "AL",
        "name": "Shesh",
        "city": "Shesh",
        "prov": "Elbasan",
        "region": "Rrethi i Gramshit",
        "latt": "40.940833",
        "longt": "20.234722",
        "address": "33531 Troy OrchardnShanefurt, GA 93395"
    },
    {
        "state": "AL",
        "name": "Kodra e Thanasajt",
        "city": "Rrogozhinu00eb",
        "prov": "Tirana",
        "region": "Rrethi i Kavaju00ebs",
        "latt": "41.05",
        "longt": "19.666667",
        "address": "9035 Latasha CanyonnWallaceview, MS 02248"
    },
    {
        "state": "AL",
        "name": "Kalaja e Petralbu00ebs",
        "city": "Klos",
        "prov": "Dibu00ebr",
        "region": "Rrethi i Matit",
        "latt": "41.471944",
        "longt": "20.080833",
        "address": "7896 Rebecca WaynKrystaltown, CA 38542"
    },
    {
        "state": "AL",
        "name": "Rru00ebnojet e Malishovu00ebs",
        "city": "Polican",
        "prov": "Berat",
        "region": "Rrethi i Beratit",
        "latt": "40.64583",
        "longt": "20.07056",
        "address": "34780 Rachel Prairie Apt. 122nSouth Amandashire, NM 11655"
    },
    {
        "state": "AL",
        "name": "Krinu00eb",
        "city": "Gjirokaster",
        "prov": "Gjirokastu00ebr",
        "region": "Bashkia Libohovu00eb",
        "latt": "40.09972",
        "longt": "20.20139",
        "address": "6303 Huffman ViaductnNew Brandi, ME 86342"
    },
    {
        "state": "AL",
        "name": "Qyteti i Roskovecit",
        "city": "Roskovec",
        "prov": "Fier",
        "region": "Fier",
        "latt": "40.75",
        "longt": "19.7",
        "address": "200 Campbell Inlet Apt. 546nPort Kimberlyville, IL 66351"
    },
    {
        "state": "AL",
        "name": "Qyteti i Roskovecit",
        "city": "Roskovec",
        "prov": "Fier",
        "region": "Fier",
        "latt": "40.75",
        "longt": "19.7",
        "address": "3101 Spencer River Suite 763nLake Jasminbury, NV 77781"
    },
    {
        "state": "AL",
        "name": "Kodra e Tufinu00ebs",
        "city": "Tirana",
        "prov": "Tirana",
        "region": "Rrethi i Tiranu00ebs",
        "latt": "41.366389",
        "longt": "19.889167",
        "address": "5107 Logan Creek Apt. 601nWest Erinfurt, KY 15986"
    },
    {
        "state": "AL",
        "name": "Veleshnjaret",
        "city": "Veleshnjaret",
        "prov": "Gjirokastu00ebr",
        "region": "Bashkia Kelcyru00eb",
        "latt": "40.43944",
        "longt": "20.13444",
        "address": "59514 Smith MillsnWillischester, ND 33730"
    },
    {
        "state": "AL",
        "name": "Kortou00e7aj",
        "city": "Qeli",
        "prov": "Kuku00ebs",
        "region": "Rrethi i Tropoju00ebs",
        "latt": "42.42374",
        "longt": "20.14448",
        "address": "83687 Schmidt Springs Apt. 235nNorth Danielshire, ND 26712"
    },
    {
        "state": "AL",
        "name": "Tabake",
        "city": "Peqin",
        "prov": "Elbasan",
        "region": "Bashkia Peqin",
        "latt": "41.026111",
        "longt": "19.820556",
        "address": "524 Johnson Burgs Apt. 918nTiffanyland, KY 05624"
    },
    {
        "state": "AL",
        "name": "Buckaj",
        "city": "Buckaj",
        "prov": "Gjirokastu00ebr",
        "region": null,
        "latt": "40.45116",
        "longt": "19.84034",
        "address": "80060 David CornernJenniferchester, WV 31588"
    },
    {
        "state": "AL",
        "name": "Kortou00e7aj",
        "city": "Qeli",
        "prov": "Kuku00ebs",
        "region": "Rrethi i Tropoju00ebs",
        "latt": "42.42374",
        "longt": "20.14448",
        "address": "060 Amber PortsnHoldenburgh, ME 85653"
    },
    {
        "state": "AL",
        "name": "Maja e Gajashu00ebs",
        "city": "Nau00e7aj",
        "prov": "Shkodu00ebr",
        "region": null,
        "latt": "42.330556",
        "longt": "19.459167",
        "address": "770 Rogers GardennEast Derrick, MN 62923"
    },
    {
        "state": "AL",
        "name": "Vadardhu00eb",
        "city": "Shijak",
        "prov": "Durru00ebs",
        "region": "Bashkia Durru00ebs",
        "latt": "41.39694",
        "longt": "19.54389",
        "address": "36480 Bell Crossroad Suite 222nMcdonaldville, PA 90220"
    },
    {
        "state": "AL",
        "name": "Rru00ebnojet e Malishovu00ebs",
        "city": "Polican",
        "prov": "Berat",
        "region": "Rrethi i Beratit",
        "latt": "40.64583",
        "longt": "20.07056",
        "address": "36273 Yoder Pike Suite 633nShelbyberg, NC 99565"
    },
    {
        "state": "AL",
        "name": "Buckaj",
        "city": "Buckaj",
        "prov": "Gjirokastu00ebr",
        "region": null,
        "latt": "40.45116",
        "longt": "19.84034",
        "address": "73032 Craig Shores Suite 418nCharlestown, UT 08338"
    },
    {
        "state": "AL",
        "name": "Qyteti i Roskovecit",
        "city": "Roskovec",
        "prov": "Fier",
        "region": "Fier",
        "latt": "40.75",
        "longt": "19.7",
        "address": "79809 Carroll Crossroad Apt. 230nThompsonview, RI 82866"
    },
    {
        "state": "AL",
        "name": "Goxhaj",
        "city": "Goxhaj",
        "prov": "Kuku00ebs",
        "region": "Rrethi i Hasit",
        "latt": "42.22472",
        "longt": "20.29222",
        "address": "10840 Danielle CoursenChristianside, OH 60958"
    },
    {
        "state": "AL",
        "name": "Buckaj",
        "city": "Buckaj",
        "prov": "Gjirokastu00ebr",
        "region": null,
        "latt": "40.45116",
        "longt": "19.84034",
        "address": "531 Michelle FieldnHarrisfurt, ND 94528"
    },
    {
        "state": "AL",
        "name": "Veleshnjaret",
        "city": "Veleshnjaret",
        "prov": "Gjirokastu00ebr",
        "region": "Bashkia Kelcyru00eb",
        "latt": "40.43944",
        "longt": "20.13444",
        "address": "07728 Robinson ForknPort Kellyville, TN 35078"
    },
    {
        "state": "AL",
        "name": "Metoq",
        "city": "Sarande",
        "prov": "Vloru00eb",
        "region": "Rrethi i Sarandu00ebs",
        "latt": "39.88333",
        "longt": "20.04556",
        "address": "91972 White Point Apt. 660nEast Crystal, LA 21370"
    },
    {
        "state": "AL",
        "name": "Ara tu00eb Lumit",
        "city": "Ara te Lumit",
        "prov": "Kuku00ebs",
        "region": null,
        "latt": "42.285",
        "longt": "20.03028",
        "address": "76220 Skinner DrivenPortertown, PA 73211"
    },
    {
        "state": "AL",
        "name": "Shesh",
        "city": "Shesh",
        "prov": "Elbasan",
        "region": "Rrethi i Gramshit",
        "latt": "40.940833",
        "longt": "20.234722",
        "address": "550 Robert DrivenPort Josephstad, MO 95272"
    },
    {
        "state": "AL",
        "name": "Vadardhu00eb",
        "city": "Shijak",
        "prov": "Durru00ebs",
        "region": "Bashkia Durru00ebs",
        "latt": "41.39694",
        "longt": "19.54389",
        "address": "818 Hurst Corners Suite 401nPort Deanville, DC 41231"
    },
    {
        "state": "AL",
        "name": "Borsh",
        "city": "Bilisht",
        "prov": "Koru00e7u00eb",
        "region": "Rrethi i Devollit",
        "latt": "40.58694",
        "longt": "20.95028",
        "address": "90968 Cannon WalknKimberg, SD 91090"
    },
    {
        "state": "AL",
        "name": "Kodra e Thanasajt",
        "city": "Rrogozhinu00eb",
        "prov": "Tirana",
        "region": "Rrethi i Kavaju00ebs",
        "latt": "41.05",
        "longt": "19.666667",
        "address": "56112 Robinson Drive Suite 423nPatrickfurt, WI 31711"
    },
    {
        "state": "AL",
        "name": "Veleshnjaret",
        "city": "Veleshnjaret",
        "prov": "Gjirokastu00ebr",
        "region": "Bashkia Kelcyru00eb",
        "latt": "40.43944",
        "longt": "20.13444",
        "address": "PSC 3520, Box 6331nAPO AP 58691"
    },
    {
        "state": "AL",
        "name": "Kodu00ebr Mulliri",
        "city": "Lezhe",
        "prov": "Lezhu00eb",
        "region": null,
        "latt": "41.73333",
        "longt": "19.61639",
        "address": "0486 Allen Roads Suite 758nLake Peggyport, MO 13456"
    },
    {
        "state": "AL",
        "name": "Goxhaj",
        "city": "Goxhaj",
        "prov": "Kuku00ebs",
        "region": "Rrethi i Hasit",
        "latt": "42.22472",
        "longt": "20.29222",
        "address": "628 Castillo MissionnLake Amber, AZ 70104"
    },
    {
        "state": "AL",
        "name": "Kodu00ebr Mulliri",
        "city": "Lezhe",
        "prov": "Lezhu00eb",
        "region": null,
        "latt": "41.73333",
        "longt": "19.61639",
        "address": "6183 Samantha RoadsnSamuelport, NM 04363"
    },
    {
        "state": "AL",
        "name": "Ara tu00eb Lumit",
        "city": "Ara te Lumit",
        "prov": "Kuku00ebs",
        "region": null,
        "latt": "42.285",
        "longt": "20.03028",
        "address": "518 Joseph BurgsnTanyahaven, TN 29858"
    },
    {
        "state": "AL",
        "name": "Rru00ebnojet e Malishovu00ebs",
        "city": "Polican",
        "prov": "Berat",
        "region": "Rrethi i Beratit",
        "latt": "40.64583",
        "longt": "20.07056",
        "address": "552 Wilson Oval Suite 139nWallaceland, NH 17005"
    },
    {
        "state": "AL",
        "name": "Shesh",
        "city": "Shesh",
        "prov": "Elbasan",
        "region": "Rrethi i Gramshit",
        "latt": "40.940833",
        "longt": "20.234722",
        "address": "996 Cynthia MountainnWelchside, ME 91539"
    },
    {
        "state": "AL",
        "name": "Metoq",
        "city": "Sarande",
        "prov": "Vloru00eb",
        "region": "Rrethi i Sarandu00ebs",
        "latt": "39.88333",
        "longt": "20.04556",
        "address": "644 Chase BypassnMcclurebury, MN 25924"
    },
    {
        "state": "AL",
        "name": "Metoq",
        "city": "Sarande",
        "prov": "Vloru00eb",
        "region": "Rrethi i Sarandu00ebs",
        "latt": "39.88333",
        "longt": "20.04556",
        "address": "14919 Jonathan Fork Suite 648nNorth Amanda, DC 65693"
    },
    {
        "state": "AL",
        "name": "Shesh",
        "city": "Shesh",
        "prov": "Elbasan",
        "region": "Rrethi i Gramshit",
        "latt": "40.940833",
        "longt": "20.234722",
        "address": "773 Jimenez StationnEast Amandaview, IA 08944"
    },
    {
        "state": "AL",
        "name": "Trebinju00eb",
        "city": "Trebinje",
        "prov": "Koru00e7u00eb",
        "region": "Rrethi i Pogradecit",
        "latt": "40.91333",
        "longt": "20.55306",
        "address": "45980 Kathryn RanchnNorth Janet, NH 81056"
    },
    {
        "state": "AL",
        "name": "Fan",
        "city": "Milot",
        "prov": "Lezhu00eb",
        "region": "Rrethi i Kurbinit",
        "latt": "41.70556",
        "longt": "19.76972",
        "address": "013 Lopez PlainsnLake Nathan, MD 70575"
    },
    {
        "state": "AL",
        "name": "Nezhaj",
        "city": "Nezhaj",
        "prov": "Dibu00ebr",
        "region": null,
        "latt": "41.79",
        "longt": "20.32861",
        "address": "USNS SmithnFPO AE 64649"
    },
    {
        "state": "AL",
        "name": "Zalli Bulqizu00ebs",
        "city": "Podgorcu00eb",
        "prov": "Dibu00ebr",
        "region": null,
        "latt": "41.559167",
        "longt": "20.447222",
        "address": "USCGC ThomasnFPO AA 47265"
    },
    {
        "state": "AL",
        "name": "Fan",
        "city": "Milot",
        "prov": "Lezhu00eb",
        "region": "Rrethi i Kurbinit",
        "latt": "41.70556",
        "longt": "19.76972",
        "address": "Unit 7225 Box 2512nDPO AE 97055"
    },
    {
        "state": "AL",
        "name": "Nezhaj",
        "city": "Nezhaj",
        "prov": "Dibu00ebr",
        "region": null,
        "latt": "41.79",
        "longt": "20.32861",
        "address": "200 Hernandez Inlet Suite 831nNew Brittneyfort, WV 34110"
    },
    {
        "state": "AL",
        "name": "Tabake",
        "city": "Peqin",
        "prov": "Elbasan",
        "region": "Bashkia Peqin",
        "latt": "41.026111",
        "longt": "19.820556",
        "address": "3040 Smith IslandsnLake Erinfort, KS 57423"
    },
    {
        "state": "AL",
        "name": "Metoq",
        "city": "Sarande",
        "prov": "Vloru00eb",
        "region": "Rrethi i Sarandu00ebs",
        "latt": "39.88333",
        "longt": "20.04556",
        "address": "0420 Jon Wells Apt. 238nNorth Thomasside, NE 44582"
    },
    {
        "state": "AL",
        "name": "Vadardhu00eb",
        "city": "Shijak",
        "prov": "Durru00ebs",
        "region": "Bashkia Durru00ebs",
        "latt": "41.39694",
        "longt": "19.54389",
        "address": "5606 Joshua Lodge Suite 618nPort Jasmine, DE 53693"
    },
    {
        "state": "AL",
        "name": "Veleshnjaret",
        "city": "Veleshnjaret",
        "prov": "Gjirokastu00ebr",
        "region": "Bashkia Kelcyru00eb",
        "latt": "40.43944",
        "longt": "20.13444",
        "address": "48329 Murphy FreewaynHunterville, NV 56498"
    },
    {
        "state": "AL",
        "name": "Buckaj",
        "city": "Buckaj",
        "prov": "Gjirokastu00ebr",
        "region": null,
        "latt": "40.45116",
        "longt": "19.84034",
        "address": "Unit 7300 Box 6524nDPO AP 37779"
    },
    {
        "state": "AL",
        "name": "Kalaja e Petralbu00ebs",
        "city": "Klos",
        "prov": "Dibu00ebr",
        "region": "Rrethi i Matit",
        "latt": "41.471944",
        "longt": "20.080833",
        "address": "7135 Wesley StravenuenNorth Markton, MI 04730"
    },
    {
        "state": "AL",
        "name": "Veli Popa",
        "city": "Vermosh",
        "prov": "Shkodu00ebr",
        "region": null,
        "latt": "42.600833",
        "longt": "19.6625",
        "address": "7670 Billy Squares Suite 105nJohnsonborough, NE 12650"
    },
    {
        "state": "AL",
        "name": "Vadardhu00eb",
        "city": "Shijak",
        "prov": "Durru00ebs",
        "region": "Bashkia Durru00ebs",
        "latt": "41.39694",
        "longt": "19.54389",
        "address": "Unit 9419 Box 5001nDPO AE 24367"
    },
    {
        "state": "AL",
        "name": "Tabake",
        "city": "Peqin",
        "prov": "Elbasan",
        "region": "Bashkia Peqin",
        "latt": "41.026111",
        "longt": "19.820556",
        "address": "44413 Giles ValleynDominguezborough, TX 11481"
    },
    {
        "state": "AL",
        "name": "Rru00ebnojet e Malishovu00ebs",
        "city": "Polican",
        "prov": "Berat",
        "region": "Rrethi i Beratit",
        "latt": "40.64583",
        "longt": "20.07056",
        "address": "1997 Gina Harbor Suite 754nLake Amyport, KS 99929"
    },
    {
        "state": "AL",
        "name": "Rru00ebnojet e Malishovu00ebs",
        "city": "Polican",
        "prov": "Berat",
        "region": "Rrethi i Beratit",
        "latt": "40.64583",
        "longt": "20.07056",
        "address": "60799 Martin CourtsnMelissaview, ND 10850"
    },
    {
        "state": "AL",
        "name": "Metoq",
        "city": "Sarande",
        "prov": "Vloru00eb",
        "region": "Rrethi i Sarandu00ebs",
        "latt": "39.88333",
        "longt": "20.04556",
        "address": "51164 Tammy SpurnPort Rose, KY 68076"
    },
    {
        "state": "AL",
        "name": "Kortou00e7aj",
        "city": "Qeli",
        "prov": "Kuku00ebs",
        "region": "Rrethi i Tropoju00ebs",
        "latt": "42.42374",
        "longt": "20.14448",
        "address": "3909 Mcgrath DrivenPort Thomasside, AL 17384"
    },
    {
        "state": "AL",
        "name": "Kodra e Tufinu00ebs",
        "city": "Tirana",
        "prov": "Tirana",
        "region": "Rrethi i Tiranu00ebs",
        "latt": "41.366389",
        "longt": "19.889167",
        "address": "037 Lauren Island Apt. 600nKarenmouth, NE 16569"
    },
    {
        "state": "AL",
        "name": "Kodu00ebr Mulliri",
        "city": "Lezhe",
        "prov": "Lezhu00eb",
        "region": null,
        "latt": "41.73333",
        "longt": "19.61639",
        "address": "0261 Castro CausewaynWest Lauraberg, VA 57619"
    },
    {
        "state": "AL",
        "name": "Tabake",
        "city": "Peqin",
        "prov": "Elbasan",
        "region": "Bashkia Peqin",
        "latt": "41.026111",
        "longt": "19.820556",
        "address": "268 Fowler ParknNorth Richardview, MO 35036"
    },
    {
        "state": "AL",
        "name": "Qyteti i Roskovecit",
        "city": "Roskovec",
        "prov": "Fier",
        "region": "Fier",
        "latt": "40.75",
        "longt": "19.7",
        "address": "1183 Derek VillagenNew Andrechester, MO 92638"
    },
    {
        "state": "AL",
        "name": "Kodra e Tufinu00ebs",
        "city": "Tirana",
        "prov": "Tirana",
        "region": "Rrethi i Tiranu00ebs",
        "latt": "41.366389",
        "longt": "19.889167",
        "address": "76228 Tapia StreetnFishershire, MD 20915"
    },
    {
        "state": "AL",
        "name": "Kodra e Tufinu00ebs",
        "city": "Tirana",
        "prov": "Tirana",
        "region": "Rrethi i Tiranu00ebs",
        "latt": "41.366389",
        "longt": "19.889167",
        "address": "93641 Ford Corners Apt. 778nNorth Lisafurt, HI 06487"
    },
    {
        "state": "AL",
        "name": "Kortou00e7aj",
        "city": "Qeli",
        "prov": "Kuku00ebs",
        "region": "Rrethi i Tropoju00ebs",
        "latt": "42.42374",
        "longt": "20.14448",
        "address": "108 Lowery RuenNew Nancy, WI 13488"
    },
    {
        "state": "AL",
        "name": "Rru00ebnojet e Malishovu00ebs",
        "city": "Polican",
        "prov": "Berat",
        "region": "Rrethi i Beratit",
        "latt": "40.64583",
        "longt": "20.07056",
        "address": "75615 Moreno Vista Suite 460nPort Christopherbury, VA 48326"
    },
    {
        "state": "AL",
        "name": "Goxhaj",
        "city": "Goxhaj",
        "prov": "Kuku00ebs",
        "region": "Rrethi i Hasit",
        "latt": "42.22472",
        "longt": "20.29222",
        "address": "2846 Smith RunnThomashaven, MO 29724"
    },
    {
        "state": "AL",
        "name": "Vrinu00eb",
        "city": "Ksamil",
        "prov": "Vloru00eb",
        "region": null,
        "latt": "39.73028",
        "longt": "20.01972",
        "address": "0259 Bruce Port Suite 614nPort Anthony, FL 66858"
    },
    {
        "state": "AL",
        "name": "Shesh",
        "city": "Shesh",
        "prov": "Elbasan",
        "region": "Rrethi i Gramshit",
        "latt": "40.940833",
        "longt": "20.234722",
        "address": "49515 Reynolds SkywaynNorth Ryan, TN 96275"
    },
    {
        "state": "AL",
        "name": "Rru00ebnojet e Malishovu00ebs",
        "city": "Polican",
        "prov": "Berat",
        "region": "Rrethi i Beratit",
        "latt": "40.64583",
        "longt": "20.07056",
        "address": "USS NoblenFPO AP 90926"
    },
    {
        "state": "AL",
        "name": "Shkodra",
        "city": "Shkodu00ebr",
        "prov": "Shkodu00ebr",
        "region": "Rrethi i Shkodru00ebs",
        "latt": "42.0675",
        "longt": "19.513056",
        "address": "8940 Ryan RoadsnJonathanmouth, WA 48999"
    },
    {
        "state": "AL",
        "name": "Ara tu00eb Lumit",
        "city": "Ara te Lumit",
        "prov": "Kuku00ebs",
        "region": null,
        "latt": "42.285",
        "longt": "20.03028",
        "address": "946 Smith ViewsnLindaton, FL 57203"
    },
    {
        "state": "AL",
        "name": "Kodra e Tufinu00ebs",
        "city": "Tirana",
        "prov": "Tirana",
        "region": "Rrethi i Tiranu00ebs",
        "latt": "41.366389",
        "longt": "19.889167",
        "address": "PSC 7822, Box 9714nAPO AA 62922"
    },
    {
        "state": "AL",
        "name": "Shesh",
        "city": "Shesh",
        "prov": "Elbasan",
        "region": "Rrethi i Gramshit",
        "latt": "40.940833",
        "longt": "20.234722",
        "address": "58871 Jeanne Way Suite 634nJessicaborough, OK 54379"
    },
    {
        "state": "AL",
        "name": "Ara tu00eb Lumit",
        "city": "Ara te Lumit",
        "prov": "Kuku00ebs",
        "region": null,
        "latt": "42.285",
        "longt": "20.03028",
        "address": "59002 Jacob ManornGardnermouth, NC 10480"
    },
    {
        "state": "AL",
        "name": "Maja e Gajashu00ebs",
        "city": "Nau00e7aj",
        "prov": "Shkodu00ebr",
        "region": null,
        "latt": "42.330556",
        "longt": "19.459167",
        "address": "5956 Austin WalksnHendrixborough, MS 34250"
    },
    {
        "state": "AL",
        "name": "Shesh",
        "city": "Shesh",
        "prov": "Elbasan",
        "region": "Rrethi i Gramshit",
        "latt": "40.940833",
        "longt": "20.234722",
        "address": "30807 Little MountainnCardenasbury, UT 69769"
    },
    {
        "state": "AL",
        "name": "Kalaja e Petralbu00ebs",
        "city": "Klos",
        "prov": "Dibu00ebr",
        "region": "Rrethi i Matit",
        "latt": "41.471944",
        "longt": "20.080833",
        "address": "506 Michelle IslenMichaelhaven, MI 66086"
    },
    {
        "state": "AL",
        "name": "Rru00ebnojet e Malishovu00ebs",
        "city": "Polican",
        "prov": "Berat",
        "region": "Rrethi i Beratit",
        "latt": "40.64583",
        "longt": "20.07056",
        "address": "693 Amber Port Apt. 368nTonimouth, NV 34325"
    },
    {
        "state": "AL",
        "name": "Zvezdu00eb",
        "city": "Zvezde",
        "prov": "Koru00e7u00eb",
        "region": null,
        "latt": "40.73111",
        "longt": "20.85806",
        "address": "9475 Cole CanyonnPort Travisshire, MN 89908"
    },
    {
        "state": "AL",
        "name": "Fan",
        "city": "Milot",
        "prov": "Lezhu00eb",
        "region": "Rrethi i Kurbinit",
        "latt": "41.70556",
        "longt": "19.76972",
        "address": "PSC 6137, Box 9776nAPO AE 68504"
    },
    {
        "state": "AL",
        "name": "Metoq",
        "city": "Sarande",
        "prov": "Vloru00eb",
        "region": "Rrethi i Sarandu00ebs",
        "latt": "39.88333",
        "longt": "20.04556",
        "address": "USS FigueroanFPO AP 08391"
    },
    {
        "state": "AL",
        "name": "Zalli Bulqizu00ebs",
        "city": "Podgorcu00eb",
        "prov": "Dibu00ebr",
        "region": null,
        "latt": "41.559167",
        "longt": "20.447222",
        "address": "6249 John PikenCampbellchester, NM 40183"
    },
    {
        "state": "AL",
        "name": "Kalaja e Petralbu00ebs",
        "city": "Klos",
        "prov": "Dibu00ebr",
        "region": "Rrethi i Matit",
        "latt": "41.471944",
        "longt": "20.080833",
        "address": "0409 Kristina LandnChristinehaven, SD 37483"
    },
    {
        "state": "AL",
        "name": "Buckaj",
        "city": "Buckaj",
        "prov": "Gjirokastu00ebr",
        "region": null,
        "latt": "40.45116",
        "longt": "19.84034",
        "address": "1148 Lisa Grove Apt. 083nWest Emily, TX 52150"
    },
    {
        "state": "AL",
        "name": "Nezhaj",
        "city": "Nezhaj",
        "prov": "Dibu00ebr",
        "region": null,
        "latt": "41.79",
        "longt": "20.32861",
        "address": "34201 Wilson Vista Apt. 041nJonestown, TX 34016"
    },
    {
        "state": "AL",
        "name": "Krinu00eb",
        "city": "Gjirokaster",
        "prov": "Gjirokastu00ebr",
        "region": "Bashkia Libohovu00eb",
        "latt": "40.09972",
        "longt": "20.20139",
        "address": "071 Juarez Underpass Suite 867nHouseport, MT 45335"
    },
    {
        "state": "AL",
        "name": "Maja e Gajashu00ebs",
        "city": "Nau00e7aj",
        "prov": "Shkodu00ebr",
        "region": null,
        "latt": "42.330556",
        "longt": "19.459167",
        "address": "50210 Oliver RownBowmanside, HI 54062"
    },
    {
        "state": "AL",
        "name": "Vrinu00eb",
        "city": "Ksamil",
        "prov": "Vloru00eb",
        "region": null,
        "latt": "39.73028",
        "longt": "20.01972",
        "address": "6594 Liu Summit Suite 800nSanchezhaven, TX 96912"
    },
    {
        "state": "AL",
        "name": "Buckaj",
        "city": "Buckaj",
        "prov": "Gjirokastu00ebr",
        "region": null,
        "latt": "40.45116",
        "longt": "19.84034",
        "address": "98000 Tara TurnpikenLake Elizabethville, VA 54493"
    },
    {
        "state": "AL",
        "name": "Nezhaj",
        "city": "Nezhaj",
        "prov": "Dibu00ebr",
        "region": null,
        "latt": "41.79",
        "longt": "20.32861",
        "address": "69127 Thomas Keys Suite 428nPort Eduardo, NC 18358"
    },
    {
        "state": "AL",
        "name": "Qelu00ebz",
        "city": "Puku00eb",
        "prov": "Shkodu00ebr",
        "region": "Rrethi i Puku00ebs",
        "latt": "42.1",
        "longt": "19.883333",
        "address": "23856 Shaffer Loop Apt. 565nPotterville, IN 80320"
    },
    {
        "state": "AL",
        "name": "Rru00ebnojet e Malishovu00ebs",
        "city": "Polican",
        "prov": "Berat",
        "region": "Rrethi i Beratit",
        "latt": "40.64583",
        "longt": "20.07056",
        "address": "197 Wood HavennSandrahaven, MA 89047"
    },
    {
        "state": "AL",
        "name": "Qelu00ebz",
        "city": "Puku00eb",
        "prov": "Shkodu00ebr",
        "region": "Rrethi i Puku00ebs",
        "latt": "42.1",
        "longt": "19.883333",
        "address": "214 Ingram Villages Apt. 507nEast Tamaraland, GA 26740"
    },
    {
        "state": "AL",
        "name": "Zalli Bulqizu00ebs",
        "city": "Podgorcu00eb",
        "prov": "Dibu00ebr",
        "region": null,
        "latt": "41.559167",
        "longt": "20.447222",
        "address": "87483 Marshall Inlet Suite 781nDeanshire, KY 19615"
    },
    {
        "state": "AL",
        "name": "Qelu00ebz",
        "city": "Puku00eb",
        "prov": "Shkodu00ebr",
        "region": "Rrethi i Puku00ebs",
        "latt": "42.1",
        "longt": "19.883333",
        "address": "49515 Myers Turnpike Suite 077nNorth Carrie, HI 52022"
    },
    {
        "state": "AL",
        "name": "Kalaja e Petralbu00ebs",
        "city": "Klos",
        "prov": "Dibu00ebr",
        "region": "Rrethi i Matit",
        "latt": "41.471944",
        "longt": "20.080833",
        "address": "659 Ryan Run Apt. 659nPort Lauraborough, NY 32182"
    },
    {
        "state": "AL",
        "name": "Kodra e Tufinu00ebs",
        "city": "Tirana",
        "prov": "Tirana",
        "region": "Rrethi i Tiranu00ebs",
        "latt": "41.366389",
        "longt": "19.889167",
        "address": "8908 Johnson CourtnAshleyville, HI 09013"
    },
    {
        "state": "AL",
        "name": "Kalaja e Petralbu00ebs",
        "city": "Klos",
        "prov": "Dibu00ebr",
        "region": "Rrethi i Matit",
        "latt": "41.471944",
        "longt": "20.080833",
        "address": "96743 Meredith Brook Apt. 569nPerrystad, VA 54965"
    },
    {
        "state": "AL",
        "name": "Shesh",
        "city": "Shesh",
        "prov": "Elbasan",
        "region": "Rrethi i Gramshit",
        "latt": "40.940833",
        "longt": "20.234722",
        "address": "5385 Fuller GardensnLake Cherylland, CA 64050"
    },
    {
        "state": "AL",
        "name": "Vrinu00eb",
        "city": "Ksamil",
        "prov": "Vloru00eb",
        "region": null,
        "latt": "39.73028",
        "longt": "20.01972",
        "address": "USNV SmithnFPO AE 62183"
    },
    {
        "state": "AL",
        "name": "Kodra e Thanasajt",
        "city": "Rrogozhinu00eb",
        "prov": "Tirana",
        "region": "Rrethi i Kavaju00ebs",
        "latt": "41.05",
        "longt": "19.666667",
        "address": "Unit 9266 Box 0050nDPO AE 46556"
    },
    {
        "state": "AL",
        "name": "Metoq",
        "city": "Sarande",
        "prov": "Vloru00eb",
        "region": "Rrethi i Sarandu00ebs",
        "latt": "39.88333",
        "longt": "20.04556",
        "address": "082 Conner Dale Apt. 042nNorth Mariochester, LA 75155"
    },
    {
        "state": "AL",
        "name": "Shkodra",
        "city": "Shkodu00ebr",
        "prov": "Shkodu00ebr",
        "region": "Rrethi i Shkodru00ebs",
        "latt": "42.0675",
        "longt": "19.513056",
        "address": "2764 Mcclure RoadnPort Tannerbury, NY 38966"
    },
    {
        "state": "AL",
        "name": "Kodra e Tufinu00ebs",
        "city": "Tirana",
        "prov": "Tirana",
        "region": "Rrethi i Tiranu00ebs",
        "latt": "41.366389",
        "longt": "19.889167",
        "address": "21075 Patel Street Apt. 867nEast Alvinside, AL 24778"
    },
    {
        "state": "AL",
        "name": "Povelu00e7e",
        "city": "Povelce",
        "prov": "Fier",
        "region": "Bashkia Fier",
        "latt": "40.72889",
        "longt": "19.42083",
        "address": "78488 Berry Field Apt. 105nPort Jesse, ME 49976"
    },
    {
        "state": "AL",
        "name": "Kodra e Tufinu00ebs",
        "city": "Tirana",
        "prov": "Tirana",
        "region": "Rrethi i Tiranu00ebs",
        "latt": "41.366389",
        "longt": "19.889167",
        "address": "8863 Robin Coves Apt. 365nAndrewburgh, DC 66282"
    },
    {
        "state": "AL",
        "name": "Shesh",
        "city": "Shesh",
        "prov": "Elbasan",
        "region": "Rrethi i Gramshit",
        "latt": "40.940833",
        "longt": "20.234722",
        "address": "1767 Gomez Common Suite 112nJessicashire, WA 14549"
    },
    {
        "state": "AL",
        "name": "Tabake",
        "city": "Peqin",
        "prov": "Elbasan",
        "region": "Bashkia Peqin",
        "latt": "41.026111",
        "longt": "19.820556",
        "address": "695 Sparks Fords Apt. 675nSouth Andrew, HI 09729"
    },
    {
        "state": "AL",
        "name": "Goxhaj",
        "city": "Goxhaj",
        "prov": "Kuku00ebs",
        "region": "Rrethi i Hasit",
        "latt": "42.22472",
        "longt": "20.29222",
        "address": "22459 Walton RestnAndrewmouth, VT 33536"
    },
    {
        "state": "AL",
        "name": "Zalli Bulqizu00ebs",
        "city": "Podgorcu00eb",
        "prov": "Dibu00ebr",
        "region": null,
        "latt": "41.559167",
        "longt": "20.447222",
        "address": "29709 Johnson Summit Apt. 911nNew Tony, NV 56170"
    },
    {
        "state": "AL",
        "name": "Fan",
        "city": "Milot",
        "prov": "Lezhu00eb",
        "region": "Rrethi i Kurbinit",
        "latt": "41.70556",
        "longt": "19.76972",
        "address": "84062 Melendez PortnNew Gregoryside, ID 41327"
    },
    {
        "state": "AL",
        "name": "2 Kitarrat",
        "city": "Durres",
        "prov": "Durru00ebs",
        "region": "Durru00ebs District",
        "latt": "41.31195",
        "longt": "19.43559",
        "address": "90972 Sean Village Apt. 285nWilliamsport, AZ 51313"
    },
    {
        "state": "AL",
        "name": "Ara tu00eb Lumit",
        "city": "Ara te Lumit",
        "prov": "Kuku00ebs",
        "region": null,
        "latt": "42.285",
        "longt": "20.03028",
        "address": "148 Williams Key Suite 111nPort Jonathan, AR 42791"
    },
    {
        "state": "AL",
        "name": "Maja e Gajashu00ebs",
        "city": "Nau00e7aj",
        "prov": "Shkodu00ebr",
        "region": null,
        "latt": "42.330556",
        "longt": "19.459167",
        "address": "06394 Miller ExtensionsnWest Michael, AL 54122"
    },
    {
        "state": "AL",
        "name": "Buckaj",
        "city": "Buckaj",
        "prov": "Gjirokastu00ebr",
        "region": null,
        "latt": "40.45116",
        "longt": "19.84034",
        "address": "57281 Jessica ForgesnWest Peter, AR 48465"
    },
    {
        "state": "AL",
        "name": "Goxhaj",
        "city": "Goxhaj",
        "prov": "Kuku00ebs",
        "region": "Rrethi i Hasit",
        "latt": "42.22472",
        "longt": "20.29222",
        "address": "78265 Mcmahon Stravenue Suite 900nAmandaland, AK 25539"
    },
    {
        "state": "AL",
        "name": "Metoq",
        "city": "Sarande",
        "prov": "Vloru00eb",
        "region": "Rrethi i Sarandu00ebs",
        "latt": "39.88333",
        "longt": "20.04556",
        "address": "6946 Young BurgnPort Danielport, DC 35585"
    },
    {
        "state": "AL",
        "name": "Vadardhu00eb",
        "city": "Shijak",
        "prov": "Durru00ebs",
        "region": "Bashkia Durru00ebs",
        "latt": "41.39694",
        "longt": "19.54389",
        "address": "15464 Blake CornernWest Kimberlyfurt, CA 62343"
    },
    {
        "state": "AL",
        "name": "Qelu00ebz",
        "city": "Puku00eb",
        "prov": "Shkodu00ebr",
        "region": "Rrethi i Puku00ebs",
        "latt": "42.1",
        "longt": "19.883333",
        "address": "707 Guerra TrailnAnnaville, VT 70100"
    },
    {
        "state": "AL",
        "name": "Nezhaj",
        "city": "Nezhaj",
        "prov": "Dibu00ebr",
        "region": null,
        "latt": "41.79",
        "longt": "20.32861",
        "address": "137 Nicole SkywaynElliottport, NV 01712"
    },
    {
        "state": "AL",
        "name": "Zalli Bulqizu00ebs",
        "city": "Podgorcu00eb",
        "prov": "Dibu00ebr",
        "region": null,
        "latt": "41.559167",
        "longt": "20.447222",
        "address": "Unit 8376 Box 1326nDPO AA 46122"
    },
    {
        "state": "AL",
        "name": "Tabake",
        "city": "Peqin",
        "prov": "Elbasan",
        "region": "Bashkia Peqin",
        "latt": "41.026111",
        "longt": "19.820556",
        "address": "5177 Kathleen CliffnNorth Jillianfurt, NH 73666"
    },
    {
        "state": "AL",
        "name": "Qyteti i Roskovecit",
        "city": "Roskovec",
        "prov": "Fier",
        "region": "Fier",
        "latt": "40.75",
        "longt": "19.7",
        "address": "178 Billy Underpass Apt. 790nWest Andrew, VT 27838"
    },
    {
        "state": "AL",
        "name": "Metoq",
        "city": "Sarande",
        "prov": "Vloru00eb",
        "region": "Rrethi i Sarandu00ebs",
        "latt": "39.88333",
        "longt": "20.04556",
        "address": "6644 Keller LanenLake Stefanieland, WY 48074"
    },
    {
        "state": "AL",
        "name": "Trebinju00eb",
        "city": "Trebinje",
        "prov": "Koru00e7u00eb",
        "region": "Rrethi i Pogradecit",
        "latt": "40.91333",
        "longt": "20.55306",
        "address": "10624 Robert Valley Suite 247nCheyenneview, WY 48942"
    },
    {
        "state": "AL",
        "name": "Zvezdu00eb",
        "city": "Zvezde",
        "prov": "Koru00e7u00eb",
        "region": null,
        "latt": "40.73111",
        "longt": "20.85806",
        "address": "9985 James CornernLake Melissa, WA 19980"
    },
    {
        "state": "AL",
        "name": "Qyteti i Roskovecit",
        "city": "Roskovec",
        "prov": "Fier",
        "region": "Fier",
        "latt": "40.75",
        "longt": "19.7",
        "address": "65346 Juarez BrooknNew Michael, WI 95975"
    },
    {
        "state": "AL",
        "name": "Kodra e Thanasajt",
        "city": "Rrogozhinu00eb",
        "prov": "Tirana",
        "region": "Rrethi i Kavaju00ebs",
        "latt": "41.05",
        "longt": "19.666667",
        "address": "636 Rebecca Isle Apt. 730nMortonville, HI 14761"
    },
    {
        "state": "AL",
        "name": "Metoq",
        "city": "Sarande",
        "prov": "Vloru00eb",
        "region": "Rrethi i Sarandu00ebs",
        "latt": "39.88333",
        "longt": "20.04556",
        "address": "6668 Michelle IslandnCarolynberg, LA 39635"
    },
    {
        "state": "AL",
        "name": "Povelu00e7e",
        "city": "Povelce",
        "prov": "Fier",
        "region": "Bashkia Fier",
        "latt": "40.72889",
        "longt": "19.42083",
        "address": "747 Black ForestnSouth Laura, OH 36039"
    },
    {
        "state": "AL",
        "name": "Veleshnjaret",
        "city": "Veleshnjaret",
        "prov": "Gjirokastu00ebr",
        "region": "Bashkia Kelcyru00eb",
        "latt": "40.43944",
        "longt": "20.13444",
        "address": "833 Garcia ShorenAlexandrachester, IA 00811"
    },
    {
        "state": "AL",
        "name": "Vadardhu00eb",
        "city": "Shijak",
        "prov": "Durru00ebs",
        "region": "Bashkia Durru00ebs",
        "latt": "41.39694",
        "longt": "19.54389",
        "address": "66269 Perez Ridge Suite 529nSouth Thomas, MO 66391"
    },
    {
        "state": "AL",
        "name": "Ara tu00eb Lumit",
        "city": "Ara te Lumit",
        "prov": "Kuku00ebs",
        "region": null,
        "latt": "42.285",
        "longt": "20.03028",
        "address": "15777 Ashley WaynAmymouth, VT 68878"
    },
    {
        "state": "AL",
        "name": "Shkodra",
        "city": "Shkodu00ebr",
        "prov": "Shkodu00ebr",
        "region": "Rrethi i Shkodru00ebs",
        "latt": "42.0675",
        "longt": "19.513056",
        "address": "98312 Ryan TunnelnOliverchester, TX 72907"
    },
    {
        "state": "AL",
        "name": "Prronu2019 i Bambullit",
        "city": "Koru00e7u00eb",
        "prov": "Koru00e7u00eb",
        "region": "Rrethi i Koru00e7u00ebs",
        "latt": "40.6",
        "longt": "20.71667",
        "address": "8322 Gordon CrossingnKennethchester, SC 51306"
    },
    {
        "state": "AL",
        "name": "Buckaj",
        "city": "Buckaj",
        "prov": "Gjirokastu00ebr",
        "region": null,
        "latt": "40.45116",
        "longt": "19.84034",
        "address": "8058 Castro Burgs Apt. 547nEmilyfort, NV 15316"
    },
    {
        "state": "AL",
        "name": "Kodra e Tufinu00ebs",
        "city": "Tirana",
        "prov": "Tirana",
        "region": "Rrethi i Tiranu00ebs",
        "latt": "41.366389",
        "longt": "19.889167",
        "address": "PSC 4998, Box 5725nAPO AA 69281"
    },
    {
        "state": "AL",
        "name": "Kalaja e Petralbu00ebs",
        "city": "Klos",
        "prov": "Dibu00ebr",
        "region": "Rrethi i Matit",
        "latt": "41.471944",
        "longt": "20.080833",
        "address": "167 Heidi Mall Apt. 627nDavisshire, DC 45960"
    },
    {
        "state": "AL",
        "name": "Kodra e Thanasajt",
        "city": "Rrogozhinu00eb",
        "prov": "Tirana",
        "region": "Rrethi i Kavaju00ebs",
        "latt": "41.05",
        "longt": "19.666667",
        "address": "USS ColemannFPO AE 61286"
    },
    {
        "state": "AL",
        "name": "Shesh",
        "city": "Shesh",
        "prov": "Elbasan",
        "region": "Rrethi i Gramshit",
        "latt": "40.940833",
        "longt": "20.234722",
        "address": "06075 Alvarez SkywaynJasonville, MI 61715"
    },
    {
        "state": "AL",
        "name": "Tabake",
        "city": "Peqin",
        "prov": "Elbasan",
        "region": "Bashkia Peqin",
        "latt": "41.026111",
        "longt": "19.820556",
        "address": "74488 Malone RoutenWest Zacharystad, KS 06487"
    },
    {
        "state": "AL",
        "name": "Metoq",
        "city": "Sarande",
        "prov": "Vloru00eb",
        "region": "Rrethi i Sarandu00ebs",
        "latt": "39.88333",
        "longt": "20.04556",
        "address": "40871 Lynn Park Suite 026nMorganport, IL 11698"
    },
    {
        "state": "AL",
        "name": "Kodra e Tufinu00ebs",
        "city": "Tirana",
        "prov": "Tirana",
        "region": "Rrethi i Tiranu00ebs",
        "latt": "41.366389",
        "longt": "19.889167",
        "address": "PSC 7992, Box 4938nAPO AP 83604"
    },
    {
        "state": "AL",
        "name": "Kalaja e Petralbu00ebs",
        "city": "Klos",
        "prov": "Dibu00ebr",
        "region": "Rrethi i Matit",
        "latt": "41.471944",
        "longt": "20.080833",
        "address": "95368 Daniels PointnChristinafort, OK 21536"
    },
    {
        "state": "AL",
        "name": "Vadardhu00eb",
        "city": "Shijak",
        "prov": "Durru00ebs",
        "region": "Bashkia Durru00ebs",
        "latt": "41.39694",
        "longt": "19.54389",
        "address": "Unit 1991 Box 8935nDPO AP 30302"
    },
    {
        "state": "AL",
        "name": "Kalaja e Petralbu00ebs",
        "city": "Klos",
        "prov": "Dibu00ebr",
        "region": "Rrethi i Matit",
        "latt": "41.471944",
        "longt": "20.080833",
        "address": "63994 Christopher Manors Suite 158nLake John, TN 84248"
    },
    {
        "state": "AL",
        "name": "Tabake",
        "city": "Peqin",
        "prov": "Elbasan",
        "region": "Bashkia Peqin",
        "latt": "41.026111",
        "longt": "19.820556",
        "address": "105 Amy Forest Apt. 137nSouth Robinstad, AZ 82903"
    },
    {
        "state": "AL",
        "name": "Veli Popa",
        "city": "Vermosh",
        "prov": "Shkodu00ebr",
        "region": null,
        "latt": "42.600833",
        "longt": "19.6625",
        "address": "1564 Nicholas StreetnEast Austinstad, NC 80410"
    },
    {
        "state": "AL",
        "name": "Kalaja e Petralbu00ebs",
        "city": "Klos",
        "prov": "Dibu00ebr",
        "region": "Rrethi i Matit",
        "latt": "41.471944",
        "longt": "20.080833",
        "address": "092 Eric Mills Suite 812nWhiteville, FL 18401"
    },
    {
        "state": "AL",
        "name": "Shkodra",
        "city": "Shkodu00ebr",
        "prov": "Shkodu00ebr",
        "region": "Rrethi i Shkodru00ebs",
        "latt": "42.0675",
        "longt": "19.513056",
        "address": "33124 Samantha Streets Apt. 387nBurnettton, VT 81826"
    },
    {
        "state": "AL",
        "name": "Tabake",
        "city": "Peqin",
        "prov": "Elbasan",
        "region": "Bashkia Peqin",
        "latt": "41.026111",
        "longt": "19.820556",
        "address": "340 Cynthia RivernNathanport, AR 82726"
    },
    {
        "state": "AL",
        "name": "Tabake",
        "city": "Peqin",
        "prov": "Elbasan",
        "region": "Bashkia Peqin",
        "latt": "41.026111",
        "longt": "19.820556",
        "address": "01501 Albert VillenParkershire, MA 05553"
    },
    {
        "state": "AL",
        "name": "Nezhaj",
        "city": "Nezhaj",
        "prov": "Dibu00ebr",
        "region": null,
        "latt": "41.79",
        "longt": "20.32861",
        "address": "041 Miller PrairienLake Melaniehaven, FL 01736"
    },
    {
        "state": "AL",
        "name": "Rru00ebnojet e Malishovu00ebs",
        "city": "Polican",
        "prov": "Berat",
        "region": "Rrethi i Beratit",
        "latt": "40.64583",
        "longt": "20.07056",
        "address": "93877 Marshall Prairie Suite 665nLake Corey, VT 60297"
    },
    {
        "state": "AL",
        "name": "Moriq",
        "city": "Moriq",
        "prov": "Kuku00ebs",
        "region": null,
        "latt": "42.17972",
        "longt": "20.52583",
        "address": "Unit 4209 Box 5675nDPO AE 50291"
    },
    {
        "state": "AL",
        "name": "Rru00ebnojet e Malishovu00ebs",
        "city": "Polican",
        "prov": "Berat",
        "region": "Rrethi i Beratit",
        "latt": "40.64583",
        "longt": "20.07056",
        "address": "7756 Ingram LandingnWayneview, IN 12304"
    },
    {
        "state": "AL",
        "name": "Vadardhu00eb",
        "city": "Shijak",
        "prov": "Durru00ebs",
        "region": "Bashkia Durru00ebs",
        "latt": "41.39694",
        "longt": "19.54389",
        "address": "46516 Alexander Forge Suite 769nPort Aaron, SD 77044"
    },
    {
        "state": "AL",
        "name": "Krinu00eb",
        "city": "Gjirokaster",
        "prov": "Gjirokastu00ebr",
        "region": "Bashkia Libohovu00eb",
        "latt": "40.09972",
        "longt": "20.20139",
        "address": "72397 Marisa Stream Apt. 996nCampbellbury, IA 83897"
    },
    {
        "state": "AL",
        "name": "Qyteti i Roskovecit",
        "city": "Roskovec",
        "prov": "Fier",
        "region": "Fier",
        "latt": "40.75",
        "longt": "19.7",
        "address": "8805 Reed CornersnRuizport, CA 97874"
    },
    {
        "state": "AL",
        "name": "Kaludh",
        "city": "Gjinkar",
        "prov": "Gjirokastu00ebr",
        "region": "Rrethi i Pu00ebrmetit",
        "latt": "40.17389",
        "longt": "20.43333",
        "address": "4044 Janice RoadsnEast Anna, CT 47792"
    },
    {
        "state": "AL",
        "name": "Tabake",
        "city": "Peqin",
        "prov": "Elbasan",
        "region": "Bashkia Peqin",
        "latt": "41.026111",
        "longt": "19.820556",
        "address": "4363 Diana StreetnPort Raymouth, DE 26023"
    },
    {
        "state": "AL",
        "name": "Vadardhu00eb",
        "city": "Shijak",
        "prov": "Durru00ebs",
        "region": "Bashkia Durru00ebs",
        "latt": "41.39694",
        "longt": "19.54389",
        "address": "1618 Gloria RoadnSouth Kristinburgh, IL 87205"
    },
    {
        "state": "AL",
        "name": "Maja e Gajashu00ebs",
        "city": "Nau00e7aj",
        "prov": "Shkodu00ebr",
        "region": null,
        "latt": "42.330556",
        "longt": "19.459167",
        "address": "USNV RogersnFPO AE 04514"
    },
    {
        "state": "AL",
        "name": "Goxhaj",
        "city": "Goxhaj",
        "prov": "Kuku00ebs",
        "region": "Rrethi i Hasit",
        "latt": "42.22472",
        "longt": "20.29222",
        "address": "0581 May Corners Suite 187nColemouth, SC 32754"
    },
    {
        "state": "AL",
        "name": "Shkodra",
        "city": "Shkodu00ebr",
        "prov": "Shkodu00ebr",
        "region": "Rrethi i Shkodru00ebs",
        "latt": "42.0675",
        "longt": "19.513056",
        "address": "7897 Cassandra CornernPort Gary, NH 78817"
    },
    {
        "state": "AL",
        "name": "Veleshnjaret",
        "city": "Veleshnjaret",
        "prov": "Gjirokastu00ebr",
        "region": "Bashkia Kelcyru00eb",
        "latt": "40.43944",
        "longt": "20.13444",
        "address": "Unit 2459 Box 1700nDPO AP 72597"
    },
    {
        "state": "AL",
        "name": "Metoq",
        "city": "Sarande",
        "prov": "Vloru00eb",
        "region": "Rrethi i Sarandu00ebs",
        "latt": "39.88333",
        "longt": "20.04556",
        "address": "205 Elizabeth Ferry Suite 891nChelseaside, MD 54902"
    },
    {
        "state": "AL",
        "name": "Shkodra",
        "city": "Shkodu00ebr",
        "prov": "Shkodu00ebr",
        "region": "Rrethi i Shkodru00ebs",
        "latt": "42.0675",
        "longt": "19.513056",
        "address": "859 Matthew LoafnDebrachester, IA 77566"
    },
    {
        "state": "AL",
        "name": "Rru00ebnojet e Malishovu00ebs",
        "city": "Polican",
        "prov": "Berat",
        "region": "Rrethi i Beratit",
        "latt": "40.64583",
        "longt": "20.07056",
        "address": "221 Jody ClubnBrownberg, HI 85443"
    },
    {
        "state": "AL",
        "name": "Ara tu00eb Lumit",
        "city": "Ara te Lumit",
        "prov": "Kuku00ebs",
        "region": null,
        "latt": "42.285",
        "longt": "20.03028",
        "address": "794 Danielle Terrace Suite 975nLeontown, ND 85168"
    },
    {
        "state": "AL",
        "name": "Tabake",
        "city": "Peqin",
        "prov": "Elbasan",
        "region": "Bashkia Peqin",
        "latt": "41.026111",
        "longt": "19.820556",
        "address": "780 Jeffrey CenternPort Richard, MS 20269"
    },
    {
        "state": "AL",
        "name": "Rru00ebnojet e Malishovu00ebs",
        "city": "Polican",
        "prov": "Berat",
        "region": "Rrethi i Beratit",
        "latt": "40.64583",
        "longt": "20.07056",
        "address": "17969 Andrea Gateway Suite 761nEast Marcchester, MN 58144"
    },
    {
        "state": "AL",
        "name": "Zalli Bulqizu00ebs",
        "city": "Podgorcu00eb",
        "prov": "Dibu00ebr",
        "region": null,
        "latt": "41.559167",
        "longt": "20.447222",
        "address": "69106 Strickland PointsnReynoldsland, ME 77971"
    },
    {
        "state": "AL",
        "name": "Ara tu00eb Lumit",
        "city": "Ara te Lumit",
        "prov": "Kuku00ebs",
        "region": null,
        "latt": "42.285",
        "longt": "20.03028",
        "address": "968 Michael Field Apt. 376nWest Stacy, SC 88860"
    },
    {
        "state": "AL",
        "name": "Maliu00e7an",
        "city": "Malican",
        "prov": "Vloru00eb",
        "region": "Bashkia Finiq",
        "latt": "39.81472",
        "longt": "20.22972",
        "address": "184 Todd ForknNathanielshire, MN 55457"
    },
    {
        "state": "AL",
        "name": "Kortou00e7aj",
        "city": "Qeli",
        "prov": "Kuku00ebs",
        "region": "Rrethi i Tropoju00ebs",
        "latt": "42.42374",
        "longt": "20.14448",
        "address": "79864 Collin LandnNorth Daniel, FL 20347"
    },
    {
        "state": "AL",
        "name": "Rru00ebnojet e Malishovu00ebs",
        "city": "Polican",
        "prov": "Berat",
        "region": "Rrethi i Beratit",
        "latt": "40.64583",
        "longt": "20.07056",
        "address": "77559 Cantu Pike Suite 682nVincentville, CT 10411"
    },
    {
        "state": "AL",
        "name": "Povelu00e7e",
        "city": "Povelce",
        "prov": "Fier",
        "region": "Bashkia Fier",
        "latt": "40.72889",
        "longt": "19.42083",
        "address": "PSC 3381, Box 4093nAPO AA 95977"
    },
    {
        "state": "AL",
        "name": "Kodra e Tufinu00ebs",
        "city": "Tirana",
        "prov": "Tirana",
        "region": "Rrethi i Tiranu00ebs",
        "latt": "41.366389",
        "longt": "19.889167",
        "address": "618 Green Circle Suite 400nPerezside, AZ 48560"
    },
    {
        "state": "AL",
        "name": "Maja e Gajashu00ebs",
        "city": "Nau00e7aj",
        "prov": "Shkodu00ebr",
        "region": null,
        "latt": "42.330556",
        "longt": "19.459167",
        "address": "7494 Melissa PathnPort Emily, WV 71276"
    },
    {
        "state": "AL",
        "name": "Povelu00e7e",
        "city": "Povelce",
        "prov": "Fier",
        "region": "Bashkia Fier",
        "latt": "40.72889",
        "longt": "19.42083",
        "address": "60503 Wilson Garden Suite 957nNew Rebecca, VT 10682"
    },
    {
        "state": "AL",
        "name": "Ara tu00eb Lumit",
        "city": "Ara te Lumit",
        "prov": "Kuku00ebs",
        "region": null,
        "latt": "42.285",
        "longt": "20.03028",
        "address": "5997 Aguilar CornersnEast Cassandrahaven, OH 98024"
    },
    {
        "state": "AL",
        "name": "Krinu00eb",
        "city": "Gjirokaster",
        "prov": "Gjirokastu00ebr",
        "region": "Bashkia Libohovu00eb",
        "latt": "40.09972",
        "longt": "20.20139",
        "address": "23781 Taylor MissionnNew Sabrina, VA 20862"
    },
    {
        "state": "AL",
        "name": "Metoq",
        "city": "Sarande",
        "prov": "Vloru00eb",
        "region": "Rrethi i Sarandu00ebs",
        "latt": "39.88333",
        "longt": "20.04556",
        "address": "634 Joseph RidgesnThomasberg, PA 61583"
    },
    {
        "state": "AL",
        "name": "Veleshnjaret",
        "city": "Veleshnjaret",
        "prov": "Gjirokastu00ebr",
        "region": "Bashkia Kelcyru00eb",
        "latt": "40.43944",
        "longt": "20.13444",
        "address": "PSC 4565, Box 3322nAPO AA 48236"
    },
    {
        "state": "AL",
        "name": "Rru00ebnojet e Malishovu00ebs",
        "city": "Polican",
        "prov": "Berat",
        "region": "Rrethi i Beratit",
        "latt": "40.64583",
        "longt": "20.07056",
        "address": "91131 Oneill Underpass Suite 231nRachelberg, PA 93129"
    },
    {
        "state": "AL",
        "name": "Shkodra",
        "city": "Shkodu00ebr",
        "prov": "Shkodu00ebr",
        "region": "Rrethi i Shkodru00ebs",
        "latt": "42.0675",
        "longt": "19.513056",
        "address": "279 Jeffrey MillnPayneland, WV 98970"
    },
    {
        "state": "AL",
        "name": "Goxhaj",
        "city": "Goxhaj",
        "prov": "Kuku00ebs",
        "region": "Rrethi i Hasit",
        "latt": "42.22472",
        "longt": "20.29222",
        "address": "4845 Moses Plains Apt. 580nCruzburgh, NY 53659"
    },
    {
        "state": "AL",
        "name": "Maja e Pashtrezes",
        "city": "Shtrezu00eb",
        "prov": "Kuku00ebs",
        "region": null,
        "latt": "41.97",
        "longt": "20.545",
        "address": "4952 Andrade CreeknAnnamouth, HI 46905"
    },
    {
        "state": "AL",
        "name": "Shkodra",
        "city": "Shkodu00ebr",
        "prov": "Shkodu00ebr",
        "region": "Rrethi i Shkodru00ebs",
        "latt": "42.0675",
        "longt": "19.513056",
        "address": "43932 Mikayla GardennNorth Thomasberg, FL 42000"
    },
    {
        "state": "AL",
        "name": "Maja e Gajashu00ebs",
        "city": "Nau00e7aj",
        "prov": "Shkodu00ebr",
        "region": null,
        "latt": "42.330556",
        "longt": "19.459167",
        "address": "PSC 2231, Box 9800nAPO AA 18860"
    },
    {
        "state": "AL",
        "name": "Fan",
        "city": "Milot",
        "prov": "Lezhu00eb",
        "region": "Rrethi i Kurbinit",
        "latt": "41.70556",
        "longt": "19.76972",
        "address": "73828 Gibson InletnMichaelmouth, NJ 36095"
    },
    {
        "state": "AL",
        "name": "Kodra e Tufinu00ebs",
        "city": "Tirana",
        "prov": "Tirana",
        "region": "Rrethi i Tiranu00ebs",
        "latt": "41.366389",
        "longt": "19.889167",
        "address": "2153 Cruz Flats Suite 974nNew Carolyn, PA 29085"
    },
    {
        "state": "AL",
        "name": "Qelu00ebz",
        "city": "Puku00eb",
        "prov": "Shkodu00ebr",
        "region": "Rrethi i Puku00ebs",
        "latt": "42.1",
        "longt": "19.883333",
        "address": "673 Linda Ville Apt. 445nLake Roberta, VA 97764"
    },
    {
        "state": "AL",
        "name": "Nezhaj",
        "city": "Nezhaj",
        "prov": "Dibu00ebr",
        "region": null,
        "latt": "41.79",
        "longt": "20.32861",
        "address": "4999 Michael WalksnDavidport, OK 94111"
    },
    {
        "state": "AL",
        "name": "Veleshnjaret",
        "city": "Veleshnjaret",
        "prov": "Gjirokastu00ebr",
        "region": "Bashkia Kelcyru00eb",
        "latt": "40.43944",
        "longt": "20.13444",
        "address": "845 Peterson PlacenWest Michelle, ND 56578"
    },
    {
        "state": "AL",
        "name": "Metoq",
        "city": "Sarande",
        "prov": "Vloru00eb",
        "region": "Rrethi i Sarandu00ebs",
        "latt": "39.88333",
        "longt": "20.04556",
        "address": "658 Richard Stravenue Apt. 349nPort Phillip, DC 19690"
    },
    {
        "state": "AL",
        "name": "Shkodra",
        "city": "Shkodu00ebr",
        "prov": "Shkodu00ebr",
        "region": "Rrethi i Shkodru00ebs",
        "latt": "42.0675",
        "longt": "19.513056",
        "address": "4445 Caleb Square Suite 956nSouth Ashley, AR 38928"
    },
    {
        "state": "AL",
        "name": "Goxhaj",
        "city": "Goxhaj",
        "prov": "Kuku00ebs",
        "region": "Rrethi i Hasit",
        "latt": "42.22472",
        "longt": "20.29222",
        "address": "17712 Perez RidgesnWest Richard, DE 01837"
    },
    {
        "state": "AL",
        "name": "Veleshnjaret",
        "city": "Veleshnjaret",
        "prov": "Gjirokastu00ebr",
        "region": "Bashkia Kelcyru00eb",
        "latt": "40.43944",
        "longt": "20.13444",
        "address": "2653 Petersen Wall Suite 680nRobertmouth, UT 16247"
    },
    {
        "state": "AL",
        "name": "Shkodra",
        "city": "Shkodu00ebr",
        "prov": "Shkodu00ebr",
        "region": "Rrethi i Shkodru00ebs",
        "latt": "42.0675",
        "longt": "19.513056",
        "address": "Unit 2197 Box 1432nDPO AP 98554"
    },
    {
        "state": "AL",
        "name": "Maliu00e7an",
        "city": "Malican",
        "prov": "Vloru00eb",
        "region": "Bashkia Finiq",
        "latt": "39.81472",
        "longt": "20.22972",
        "address": "518 Ronald ExpresswaynReevesburgh, OK 12448"
    },
    {
        "state": "AL",
        "name": "Ara tu00eb Lumit",
        "city": "Ara te Lumit",
        "prov": "Kuku00ebs",
        "region": null,
        "latt": "42.285",
        "longt": "20.03028",
        "address": "73985 Anthony WaysnLake Ian, NV 40510"
    },
    {
        "state": "AL",
        "name": "Zalli Bulqizu00ebs",
        "city": "Podgorcu00eb",
        "prov": "Dibu00ebr",
        "region": null,
        "latt": "41.559167",
        "longt": "20.447222",
        "address": "293 Kimberly MillnLake Michael, ND 39684"
    },
    {
        "state": "AL",
        "name": "Moriq",
        "city": "Moriq",
        "prov": "Kuku00ebs",
        "region": null,
        "latt": "42.17972",
        "longt": "20.52583",
        "address": "5809 Tabitha Mountain Suite 540nNorth Josephfurt, ND 36809"
    },
    {
        "state": "AL",
        "name": "Tabake",
        "city": "Peqin",
        "prov": "Elbasan",
        "region": "Bashkia Peqin",
        "latt": "41.026111",
        "longt": "19.820556",
        "address": "696 Velez Station Apt. 546nSouth Patrickstad, AZ 96238"
    },
    {
        "state": "AL",
        "name": "Kodra e Thanasajt",
        "city": "Rrogozhinu00eb",
        "prov": "Tirana",
        "region": "Rrethi i Kavaju00ebs",
        "latt": "41.05",
        "longt": "19.666667",
        "address": "3864 Arnold Light Apt. 373nCarrollshire, WV 53592"
    },
    {
        "state": "AL",
        "name": "Nezhaj",
        "city": "Nezhaj",
        "prov": "Dibu00ebr",
        "region": null,
        "latt": "41.79",
        "longt": "20.32861",
        "address": "40348 Dunn FieldsnPort Alexisborough, OH 45506"
    },
    {
        "state": "AL",
        "name": "Rru00ebnojet e Malishovu00ebs",
        "city": "Polican",
        "prov": "Berat",
        "region": "Rrethi i Beratit",
        "latt": "40.64583",
        "longt": "20.07056",
        "address": "765 Crystal Lane Apt. 191nFoxside, IL 21063"
    },
    {
        "state": "AL",
        "name": "Trebinju00eb",
        "city": "Trebinje",
        "prov": "Koru00e7u00eb",
        "region": "Rrethi i Pogradecit",
        "latt": "40.91333",
        "longt": "20.55306",
        "address": "7029 Anthony CourtsnMerrittshire, SC 96379"
    },
    {
        "state": "AL",
        "name": "Zalli Bulqizu00ebs",
        "city": "Podgorcu00eb",
        "prov": "Dibu00ebr",
        "region": null,
        "latt": "41.559167",
        "longt": "20.447222",
        "address": "88206 Goodwin HillnNew Lauraport, ME 75609"
    },
    {
        "state": "AL",
        "name": "Veleshnjaret",
        "city": "Veleshnjaret",
        "prov": "Gjirokastu00ebr",
        "region": "Bashkia Kelcyru00eb",
        "latt": "40.43944",
        "longt": "20.13444",
        "address": "257 Veronica Views Apt. 875nAnthonyton, IN 79215"
    },
    {
        "state": "AL",
        "name": "Kodra e Thanasajt",
        "city": "Rrogozhinu00eb",
        "prov": "Tirana",
        "region": "Rrethi i Kavaju00ebs",
        "latt": "41.05",
        "longt": "19.666667",
        "address": "84311 Wilson PortnEast Richard, WI 46669"
    },
    {
        "state": "AL",
        "name": "Tabake",
        "city": "Peqin",
        "prov": "Elbasan",
        "region": "Bashkia Peqin",
        "latt": "41.026111",
        "longt": "19.820556",
        "address": "956 Cassandra GrovesnWest Derrick, FL 44737"
    },