[
    {
        "state": "ES",
        "name": "Sinllu00e1n",
        "city": "Sinllan",
        "prov": "Galicia",
        "region": "Provincia de Lugo",
        "latt": "42.76903",
        "longt": "-7.12371",
        "address": "Pasadizo Daru00edo Cu00e1rdenas 40nJau00e9n, 45125"
    },
    {
        "state": "ES",
        "name": "El Arrabal Mas",
        "city": "Sant Boi de Llobregat",
        "prov": "Catalonia",
        "region": "Provu00edncia de Barcelona",
        "latt": "41.35",
        "longt": "1.96667",
        "address": "Cuesta de Eutropio Linares 314 Puerta 6 nAsturias, 47785"
    },
    {
        "state": "ES",
        "name": "Corral de la Bodega",
        "city": "Niebla",
        "prov": "Andalusia",
        "region": "Provincia de Huelva",
        "latt": "37.35798",
        "longt": "-6.65982",
        "address": "Plaza de Juan Pu00e1ez 28nToledo, 18432"
    },
    {
        "state": "ES",
        "name": "El Horcajo",
        "city": "El Horcajo",
        "prov": "Castille-La Mancha",
        "region": "Provincia de Ciudad Real",
        "latt": "38.51337",
        "longt": "-4.44182",
        "address": "Glorieta de Manola Cu00e9spedes 14 Puerta 2 nHuesca, 16702"
    },
    {
        "state": "ES",
        "name": "Escarilla 3000",
        "city": "Panticosa",
        "prov": "Aragon",
        "region": "Provincia de Huesca",
        "latt": "42.73226",
        "longt": "-0.31149",
        "address": "Alameda de Marcia Gonzalez 74 Apt. 29 nPalencia, 51661"
    },
    {
        "state": "ES",
        "name": "Cazolga",
        "city": "Mogo",
        "prov": "Galicia",
        "region": "Provincia de Lugo",
        "latt": "43.5",
        "longt": "-7.3",
        "address": "Ronda u00c1mbar Ru00edos 20 Apt. 71 nGuipu00fazcoa, 13743"
    },
    {
        "state": "ES",
        "name": "Corvillones",
        "city": "Corvillones",
        "prov": "Murcia",
        "region": "Murcia",
        "latt": "37.65653",
        "longt": "-1.48165",
        "address": "Acceso Bernabu00e9 Camacho 87nBarcelona, 01749"
    },
    {
        "state": "ES",
        "name": "Rambla de Dou00f1a Ana",
        "city": "Mula",
        "prov": "Murcia",
        "region": "Murcia",
        "latt": "38.01724",
        "longt": "-1.49871",
        "address": "Glorieta Adelaida Barreda 83nZaragoza, 13346"
    },
    {
        "state": "ES",
        "name": "Praia Espiu00f1eirido",
        "city": "Seru00e1ns",
        "prov": "Galicia",
        "region": "Provincia da Coruu00f1a",
        "latt": "42.60223",
        "longt": "-9.06348",
        "address": "Alameda de Zoraida Cruz 18 Piso 2 nSevilla, 13835"
    },
    {
        "state": "ES",
        "name": "Tudera",
        "city": "Tudera",
        "prov": "Castille and Leu00f3n",
        "region": "Provincia de Zamora",
        "latt": "41.41667",
        "longt": "-6.21066",
        "address": "Calle de Martu00edn Rios 62nBurgos, 26301"
    },
    {
        "state": "ES",
        "name": "Port de Pollenu00e7a",
        "city": "Port de Pollenca",
        "prov": "Balearic Islands",
        "region": "Illes Balears",
        "latt": "39.9075",
        "longt": "3.0814",
        "address": "Paseo de Octavio Morera 92nCeuta, 32548"
    },
    {
        "state": "ES",
        "name": "Barranco de las Canales",
        "city": "La Fresneda",
        "prov": "Aragon",
        "region": "Provincia de Teruel",
        "latt": "40.94199",
        "longt": "0.09842",
        "address": "Calleju00f3n de Arturo Casado 94 Piso 8 nAsturias, 12162"
    },
    {
        "state": "ES",
        "name": "Buensol",
        "city": "Torremolinos",
        "prov": "Andalusia",
        "region": "Provincia de Mu00e1laga",
        "latt": "36.6037",
        "longt": "-4.5092",
        "address": "Pasaje de Elou00edsa Zapata 37nToledo, 07436"
    },
    {
        "state": "ES",
        "name": "Oubiu00f1a",
        "city": "Cambados",
        "prov": "Galicia",
        "region": "Provincia de Pontevedra",
        "latt": "42.53333",
        "longt": "-8.76667",
        "address": "Acceso Vidal Fortuny 94nNavarra, 01397"
    },
    {
        "state": "ES",
        "name": "Sant Esteve Sesrovires",
        "city": "Martorell",
        "prov": "Catalonia",
        "region": "Provu00edncia de Barcelona",
        "latt": "41.49341",
        "longt": "1.8833",
        "address": "Paseo Graciana Reina 55 Apt. 44 nSalamanca, 28197"
    },
    {
        "state": "ES",
        "name": "La Almunia de Dou00f1a Godina",
        "city": "La Almunia de Dona Godina",
        "prov": "Aragon",
        "region": "Provincia de Zaragoza",
        "latt": "41.4767",
        "longt": "-1.37451",
        "address": "Cau00f1ada Octavia Arana 5 Puerta 9 nBaleares, 28382"
    },
    {
        "state": "ES",
        "name": "Valdespartera",
        "city": "Zaragoza",
        "prov": "Aragon",
        "region": "Provincia de Zaragoza",
        "latt": "41.62192",
        "longt": "-0.92869",
        "address": "Cuesta Azahar Becerra 569nLa Coruu00f1a, 40600"
    },
    {
        "state": "ES",
        "name": "San Bartolomu00e9",
        "city": "Ubeda",
        "prov": "Andalusia",
        "region": "Provincia de Jau00e9n",
        "latt": "38.02734",
        "longt": "-3.32231",
        "address": "Plaza Rosalu00eda Iu00f1iguez 74nValladolid, 04760"
    },
    {
        "state": "ES",
        "name": "La Aceitunilla",
        "city": "Nunomoral",
        "prov": "Extremadura",
        "region": "Provincia de Cu00e1ceres",
        "latt": "40.43576",
        "longt": "-6.24315",
        "address": "Pasadizo de Hipu00f3lito Saldau00f1a 19 Piso 5 nSalamanca, 34715"
    },
    {
        "state": "ES",
        "name": "Sierra del Regali",
        "city": "Elche de la Sierra",
        "prov": "Castille-La Mancha",
        "region": "Provincia de Albacete",
        "latt": "38.390623",
        "longt": "-2.073448",
        "address": "Cuesta Jacinto Montenegro 612 Puerta 7 nSegovia, 36947"
    },
    {
        "state": "ES",
        "name": "Los Pedroches",
        "city": "Los Pedroches",
        "prov": "Castille-La Mancha",
        "region": "Provincia de Ciudad Real",
        "latt": "38.69986",
        "longt": "-4.92622",
        "address": "Cau00f1ada de Ximena Gonzalez 439nSegovia, 18065"
    },
    {
        "state": "ES",
        "name": "Cu00f3breces Mediumwave Transmitter",
        "city": "Comillas",
        "prov": "Cantabria",
        "region": "Provincia de Cantabria",
        "latt": "43.39714",
        "longt": "-4.21107",
        "address": "Ronda Luisa Sierra 50 Puerta 9 nLeu00f3n, 09742"
    },
    {
        "state": "ES",
        "name": "La Almunia de Dou00f1a Godina",
        "city": "La Almunia de Dona Godina",
        "prov": "Aragon",
        "region": "Provincia de Zaragoza",
        "latt": "41.4767",
        "longt": "-1.37451",
        "address": "Ronda Begou00f1a Mancebo 84 Piso 0 nCastellu00f3n, 41983"
    },
    {
        "state": "ES",
        "name": "Torremar",
        "city": "Benidorm",
        "prov": "Valencia",
        "region": "Provincia de Alicante",
        "latt": "38.53801",
        "longt": "-0.11185",
        "address": "Paseo de Mu00f3nica Salas 47nMelilla, 34117"
    },
    {
        "state": "ES",
        "name": "Mercat de Santa Catarina",
        "city": "Barcelona",
        "prov": "Catalonia",
        "region": "Provu00edncia de Barcelona",
        "latt": "41.38628",
        "longt": "2.17846",
        "address": "Via de Leandro Porta 62nCuenca, 13947"
    },
    {
        "state": "ES",
        "name": "Cerro de San Sebastiu00e1n",
        "city": "Puertollano",
        "prov": "Castille-La Mancha",
        "region": "Provincia de Ciudad Real",
        "latt": "38.69546",
        "longt": "-4.13148",
        "address": "Acceso de Rebeca Yu00e1u00f1ez 2 Apt. 88 nMurcia, 27489"
    },
    {
        "state": "ES",
        "name": "Arroyo Molinos",
        "city": "Huesa",
        "prov": "Andalusia",
        "region": "Provincia de Jau00e9n",
        "latt": "37.73697",
        "longt": "-3.02911",
        "address": "Ronda Cesar Abascal 974nGuadalajara, 05006"
    },
    {
        "state": "ES",
        "name": "Reguengo",
        "city": "Baralla",
        "prov": "Galicia",
        "region": "Provincia de Lugo",
        "latt": "42.91667",
        "longt": "-7.26667",
        "address": "C. Isabela Verdugo 288nLa Coruu00f1a, 49608"
    },
    {
        "state": "ES",
        "name": "Villapau00f1ada",
        "city": "Grado",
        "prov": "Asturias",
        "region": "Province of Asturias",
        "latt": "43.38333",
        "longt": "-6.1",
        "address": "Plaza Ciro Tejera 8 Puerta 8 nCiudad, 35802"
    },
    {
        "state": "ES",
        "name": "Mainar",
        "city": "Mainar",
        "prov": "Aragon",
        "region": "Provincia de Zaragoza",
        "latt": "41.19275",
        "longt": "-1.30292",
        "address": "Pasaje Amanda Blanco 87 Piso 9 nPontevedra, 14349"
    },
    {
        "state": "ES",
        "name": "Lomo de Arico",
        "city": "Lomo de Arico",
        "prov": "Canary Islands",
        "region": "Provincia de Santa Cruz de Tenerife",
        "latt": "28.16667",
        "longt": "-16.48333",
        "address": "Calle Victoria Corral 14 Apt. 00 nGirona, 11007"
    },
    {
        "state": "ES",
        "name": "Mercat de Santa Catarina",
        "city": "Barcelona",
        "prov": "Catalonia",
        "region": "Provu00edncia de Barcelona",
        "latt": "41.38628",
        "longt": "2.17846",
        "address": "Vial de Loreto Valenzuela 15nAlmeru00eda, 49340"
    },
    {
        "state": "ES",
        "name": "Geu00f3logo Josu00e9 Royo Gu00f3mez Park",
        "city": "Castello de la Plana",
        "prov": "Valencia",
        "region": "Provu00edncia de Castellu00f3",
        "latt": "39.97851",
        "longt": "-0.03799",
        "address": "Cau00f1ada de Ramiro Juliu00e1n 86 Puerta 6 nLeu00f3n, 13128"
    },
    {
        "state": "ES",
        "name": "San Martu00edn de Arango",
        "city": "San Martin de Arango",
        "prov": "Asturias",
        "region": "Province of Asturias",
        "latt": "43.46667",
        "longt": "-6.16667",
        "address": "Alameda de Rosalina Valenzuela 49 Puerta 0 nOurense, 31714"
    },
    {
        "state": "ES",
        "name": "Casas Valverde",
        "city": "Casas Valverde",
        "prov": "Extremadura",
        "region": "Provincia de Cu00e1ceres",
        "latt": "40.08333",
        "longt": "-6.2",
        "address": "Cau00f1ada de Esperanza Miguel 96nJau00e9n, 12494"
    },
    {
        "state": "ES",
        "name": "Los Monjos",
        "city": "Abrucena",
        "prov": "Andalusia",
        "region": "Almeru00eda",
        "latt": "37.116667",
        "longt": "-2.8",
        "address": "Calleju00f3n de Tiburcio Piquer 29nBaleares, 18032"
    },
    {
        "state": "ES",
        "name": "Ginastu00e9",
        "city": "Vilaller",
        "prov": "Catalonia",
        "region": "Provu00edncia de Lleida",
        "latt": "42.494799",
        "longt": "0.71382",
        "address": "Cau00f1ada Luisina Alberola 925 Puerta 4 nCeuta, 04111"
    },
    {
        "state": "ES",
        "name": "Hotel Grevol Spa",
        "city": "Camprodon",
        "prov": "Catalonia",
        "region": "Provu00edncia de Girona",
        "latt": "42.3216",
        "longt": "2.34807",
        "address": "Paseo de Bienvenida Calleja 84nLeu00f3n, 22151"
    },
    {
        "state": "ES",
        "name": "Ru00edo de Viejas",
        "city": "Castau00f1ar de Ibor",
        "prov": "Extremadura",
        "region": "Provincia de Cu00e1ceres",
        "latt": "39.61836",
        "longt": "-5.4454",
        "address": "Avenida de Carlito Castilla 79 Puerta 2 nLleida, 12670"
    },
    {
        "state": "ES",
        "name": "La Posada De El Chaflan",
        "city": "Madrid",
        "prov": "Madrid",
        "region": "Provincia de Madrid",
        "latt": "40.467",
        "longt": "-3.674",
        "address": "Pasadizo de Ana Ortuu00f1o 24nSoria, 11906"
    },
    {
        "state": "ES",
        "name": "Ayelo de Malferit",
        "city": "Ontinyent",
        "prov": "Valencia",
        "region": "Provu00edncia de Valu00e8ncia",
        "latt": "38.879339",
        "longt": "-0.584485",
        "address": "Ronda de Encarnita Sanjuan 908 Puerta 8 nAsturias, 19814"
    },
    {
        "state": "ES",
        "name": "Ru00edo Tera",
        "city": "Burganes de Valverde",
        "prov": "Castille and Leu00f3n",
        "region": "Provincia de Zamora",
        "latt": "41.89932",
        "longt": "-5.73973",
        "address": "Avenida Zacaru00edas Cabrero 16nSanta Cruz de Tenerife, 27352"
    },
    {
        "state": "ES",
        "name": "Escarilla 3000",
        "city": "Panticosa",
        "prov": "Aragon",
        "region": "Provincia de Huesca",
        "latt": "42.73226",
        "longt": "-0.31149",
        "address": "Cau00f1ada Rodolfo Saura 56nGuipu00fazcoa, 50339"
    },
    {
        "state": "ES",
        "name": "Ciordia",
        "city": "Altsasu",
        "prov": "Navarre",
        "region": "Provincia de Navarra",
        "latt": "42.870209",
        "longt": "-2.227577",
        "address": "Avenida de Fu00e1tima Franch 64 Puerta 4 nLa Rioja, 49620"
    },
    {
        "state": "ES",
        "name": "Rio Bravatas",
        "city": "Galera",
        "prov": "Andalusia",
        "region": "Provincia de Granada",
        "latt": "37.745396",
        "longt": "-2.549205",
        "address": "Vial de Fabricio Calzada 32nGuipu00fazcoa, 10477"
    },
    {
        "state": "ES",
        "name": "Segura de Leu00f3n",
        "city": "Segura de Leu00f3n",
        "prov": "Extremadura",
        "region": "Provincia de Badajoz",
        "latt": "38.11667",
        "longt": "-6.51667",
        "address": "Avenida Adalberto Silva 750 Piso 7 nPontevedra, 19645"
    },
    {
        "state": "ES",
        "name": "Irubideballara",
        "city": "San Sebastian",
        "prov": "Basque Country",
        "region": "Gipuzkoa",
        "latt": "43.27438",
        "longt": "-2.01396",
        "address": "Avenida Irma Zabala 21nBarcelona, 41404"
    },
    {
        "state": "ES",
        "name": "La Estaciu00f3n",
        "city": "Torreblanca",
        "prov": "Valencia",
        "region": "Provu00edncia de Castellu00f3",
        "latt": "40.21125",
        "longt": "0.19843",
        "address": "Ronda de Graciela Guerrero 16nAlbacete, 32671"
    },
    {
        "state": "ES",
        "name": "Santa Maru00eda de Nava",
        "city": "Barruelo de Santullan",
        "prov": "Castille and Leu00f3n",
        "region": "Provincia de Palencia",
        "latt": "42.88285",
        "longt": "-4.30861",
        "address": "Avenida de Bru00edgida Arnau 38nMelilla, 36953"
    },
    {
        "state": "ES",
        "name": "Pico Espadu00e1n",
        "city": "Artana",
        "prov": "Valencia",
        "region": "Provu00edncia de Castellu00f3",
        "latt": "39.9",
        "longt": "-0.35",
        "address": "Glorieta Eligio Salvador 7nTeruel, 16555"
    },
    {
        "state": "ES",
        "name": "Rebollar",
        "city": "Pola de Siero",
        "prov": "Asturias",
        "region": "Province of Asturias",
        "latt": "43.39616",
        "longt": "-5.6546",
        "address": "Cuesta Candela Melu00e9ndez 15 Puerta 7 nu00c1vila, 03077"
    },
    {
        "state": "ES",
        "name": "La Llum",
        "city": "Valencia",
        "prov": "Valencia",
        "region": "Provu00edncia de Valu00e8ncia",
        "latt": "39.46813",
        "longt": "-0.41308",
        "address": "Alameda de Elou00edsa Cuervo 260nAlmeru00eda, 39798"
    },
    {
        "state": "ES",
        "name": "Meiral",
        "city": "Pobra de Trives",
        "prov": "Galicia",
        "region": "Provincia de Lugo",
        "latt": "42.36667",
        "longt": "-7.2",
        "address": "Plaza de Alex Arteaga 4nu00c1vila, 34903"
    },
    {
        "state": "ES",
        "name": "Cu00f3breces Mediumwave Transmitter",
        "city": "Comillas",
        "prov": "Cantabria",
        "region": "Provincia de Cantabria",
        "latt": "43.39714",
        "longt": "-4.21107",
        "address": "Cuesta Gilberto Torrents 88nSevilla, 21335"
    },
    {
        "state": "ES",
        "name": "Provincia de Palencia",
        "city": "Villasarracino",
        "prov": "Castille and Leu00f3n",
        "region": "Provincia de Palencia",
        "latt": "42.41667",
        "longt": "-4.5",
        "address": "Rambla Marino Riquelme 37nTarragona, 45627"
    },
    {
        "state": "ES",
        "name": "Zeanuri",
        "city": "Zeanuri",
        "prov": "Basque Country",
        "region": "Bizkaia",
        "latt": "43.1",
        "longt": "-2.75",
        "address": "Plaza Ariadna Moru00e1n 95nLa Coruu00f1a, 35482"
    },
    {
        "state": "ES",
        "name": "Cerros de Valdesequera",
        "city": "Bu00f3toa",
        "prov": "Extremadura",
        "region": "Provincia de Badajoz",
        "latt": "39.05",
        "longt": "-6.86667",
        "address": "Acceso de Zoraida Vallejo 92nCeuta, 15298"
    },
    {
        "state": "ES",
        "name": "Becerril de la Sierra",
        "city": "Becerril de la Sierra",
        "prov": "Madrid",
        "region": "Provincia de Madrid",
        "latt": "40.72857",
        "longt": "-3.9746",
        "address": "Via Consuelo Ferrera 287nToledo, 37610"
    },
    {
        "state": "ES",
        "name": "Corvillones",
        "city": "Corvillones",
        "prov": "Murcia",
        "region": "Murcia",
        "latt": "37.65653",
        "longt": "-1.48165",
        "address": "Alameda Eliseo Gabaldu00f3n 91nSevilla, 07295"
    },
    {
        "state": "ES",
        "name": "Noreu00f1a",
        "city": "Norena",
        "prov": "Asturias",
        "region": "Province of Asturias",
        "latt": "43.39672",
        "longt": "-5.70828",
        "address": "Cau00f1ada de u00c1ngeles Pujadas 4nCastellu00f3n, 30787"
    },
    {
        "state": "ES",
        "name": "Corcoya",
        "city": "Casariche",
        "prov": "Andalusia",
        "region": "Provincia de Sevilla",
        "latt": "37.27027",
        "longt": "-4.68811",
        "address": "Rambla Carmelo Crespi 87nGirona, 22930"
    },
    {
        "state": "ES",
        "name": "Monte de Alcol",
        "city": "Barchu00edn del Hoyo",
        "prov": "Castille-La Mancha",
        "region": "Provincia de Cuenca",
        "latt": "39.716667",
        "longt": "-2.016667",
        "address": "Pasadizo Albert Figueroa 22nSanta Cruz de Tenerife, 24128"
    },
    {
        "state": "ES",
        "name": "Agroturisme Son Pons",
        "city": "sa Pobla",
        "prov": "Balearic Islands",
        "region": "Illes Balears",
        "latt": "39.76052",
        "longt": "2.99738",
        "address": "Acceso de Maribel Raya 5nNavarra, 38470"
    },
    {
        "state": "ES",
        "name": "San Martu00edn de Arango",
        "city": "San Martin de Arango",
        "prov": "Asturias",
        "region": "Province of Asturias",
        "latt": "43.46667",
        "longt": "-6.16667",
        "address": "Camino de Marino Bello 59nNavarra, 38094"
    },
    {
        "state": "ES",
        "name": "Malpica de Bergantiu00f1os",
        "city": "Malpica",
        "prov": "Galicia",
        "region": "Provincia da Coruu00f1a",
        "latt": "43.31494",
        "longt": "-8.82271",
        "address": "Pasadizo de Lope Ferru00e1ndez 11nLeu00f3n, 31215"
    },
    {
        "state": "ES",
        "name": "Peruny",
        "city": "Sort",
        "prov": "Catalonia",
        "region": "Provu00edncia de Lleida",
        "latt": "42.41416",
        "longt": "1.14152",
        "address": "Avenida de Eulalia Aranda 9nBaleares, 30898"
    },
    {
        "state": "ES",
        "name": "Holycan",
        "city": "Maspalomas",
        "prov": "Canary Islands",
        "region": "Provincia de Las Palmas",
        "latt": "27.75395",
        "longt": "-15.5805",
        "address": "C. Josu00e9 Manuel Quintanilla 295nSalamanca, 50441"
    },
    {
        "state": "ES",
        "name": "Hontanillas",
        "city": "Hontanillas",
        "prov": "Castille-La Mancha",
        "region": "Provincia de Guadalajara",
        "latt": "40.58614",
        "longt": "-2.60867",
        "address": "Pasaje de Ana Gimenez 5 Puerta 8 nCastellu00f3n, 48183"
    },
    {
        "state": "ES",
        "name": "Sigru00e1s",
        "city": "Culleredo",
        "prov": "Galicia",
        "region": "Provincia da Coruu00f1a",
        "latt": "43.28674",
        "longt": "-8.3653",
        "address": "Cuesta Ana Belu00e9n Marin 7nSevilla, 11286"
    },
    {
        "state": "ES",
        "name": "Begou00f1alde",
        "city": "Bilbao",
        "prov": "Basque Country",
        "region": "Bizkaia",
        "latt": "43.25753",
        "longt": "-2.90723",
        "address": "Alameda de Ildefonso Bonilla 18nAsturias, 16991"
    },
    {
        "state": "ES",
        "name": "LAS ARTES Hotel",
        "city": "Pinto",
        "prov": "Madrid",
        "region": "Provincia de Madrid",
        "latt": "40.25267",
        "longt": "-3.6965",
        "address": "Pasaje Bonifacio Amores 49 Puerta 6 nSegovia, 18415"
    },
    {
        "state": "ES",
        "name": "Parcent",
        "city": "Parcent",
        "prov": "Valencia",
        "region": "Provincia de Alicante",
        "latt": "38.74502",
        "longt": "-0.06446",
        "address": "Acceso Candelaria Llabru00e9s 88nGranada, 16948"
    },
    {
        "state": "ES",
        "name": "La Loma",
        "city": "Villaescusa",
        "prov": "Cantabria",
        "region": "Provincia de Cantabria",
        "latt": "42.93834",
        "longt": "-4.20481",
        "address": "Urbanizaciu00f3n de Rosalina Vaquero 49 Puerta 1 nLas Palmas, 17637"
    },
    {
        "state": "ES",
        "name": "Cazolga",
        "city": "Mogo",
        "prov": "Galicia",
        "region": "Provincia de Lugo",
        "latt": "43.5",
        "longt": "-7.3",
        "address": "Calle Trinidad Barbero 38nLugo, 38545"
    },
    {
        "state": "ES",
        "name": "Seru00e1n",
        "city": "Villabrille",
        "prov": "Asturias",
        "region": "Province of Asturias",
        "latt": "43.26667",
        "longt": "-6.85",
        "address": "Calleju00f3n Candelas Gu00e1mez 9 Puerta 6 nVizcaya, 30273"
    },
    {
        "state": "ES",
        "name": "Argayo",
        "city": "Fabero",
        "prov": "Castille and Leu00f3n",
        "region": "Provincia de Leu00f3n",
        "latt": "42.81125",
        "longt": "-6.57591",
        "address": "Cuesta de u00c1ngel Corominas 98nLeu00f3n, 51052"
    },
    {
        "state": "ES",
        "name": "VEREDA REAL Hotel",
        "city": "Camas",
        "prov": "Andalusia",
        "region": "Provincia de Sevilla",
        "latt": "37.4044",
        "longt": "-6.07673",
        "address": "Avenida de Beatriz Royo 15nBarcelona, 30441"
    },
    {
        "state": "ES",
        "name": "Besande",
        "city": "Besande",
        "prov": "Castille and Leu00f3n",
        "region": "Provincia de Leu00f3n",
        "latt": "42.89697",
        "longt": "-4.88669",
        "address": "Vial Tristu00e1n Puente 6 Apt. 13 nCantabria, 23391"
    },
    {
        "state": "ES",
        "name": "Cardeu00f1osa de Volpejera",
        "city": "Villanueva del Rebollar",
        "prov": "Castille and Leu00f3n",
        "region": "Provincia de Palencia",
        "latt": "42.23214",
        "longt": "-4.70197",
        "address": "Urbanizaciu00f3n de Luis Miguel Rebollo 191nCu00e1ceres, 03518"
    },
    {
        "state": "ES",
        "name": "Cardeu00f1uela-Ru00edopico",
        "city": "Cardenuela-Riopico",
        "prov": "Castille and Leu00f3n",
        "region": "Provincia de Burgos",
        "latt": "42.36019",
        "longt": "-3.5582",
        "address": "Urbanizaciu00f3n Andrea Maestre 23nJau00e9n, 03792"
    },
    {
        "state": "ES",
        "name": "Pobra de San Xuliu00e1n",
        "city": "Pobra de San Xuliu00e1n",
        "prov": "Galicia",
        "region": "Provincia de Lugo",
        "latt": "42.86477",
        "longt": "-7.44427",
        "address": "Pasadizo Geru00f3nimo u00c1vila 26nLugo, 41421"
    },
    {
        "state": "ES",
        "name": "La Alfoquia",
        "city": "Zurgena",
        "prov": "Andalusia",
        "region": "Almeru00eda",
        "latt": "37.35338",
        "longt": "-2.0408",
        "address": "Plaza Roberta Beltru00e1n 795nLa Rioja, 49783"
    },
    {
        "state": "ES",
        "name": "Serveis Generals Del Circuit Catalunya",
        "city": "Granollers",
        "prov": "Catalonia",
        "region": "Provu00edncia de Barcelona",
        "latt": "41.57389",
        "longt": "2.25694",
        "address": "C. Montserrat Mendoza 924nTarragona, 31841"
    },
    {
        "state": "ES",
        "name": "Cazolga",
        "city": "Mogo",
        "prov": "Galicia",
        "region": "Provincia de Lugo",
        "latt": "43.5",
        "longt": "-7.3",
        "address": "Cuesta de Miguel Montenegro 422nValencia, 10207"
    },
    {
        "state": "ES",
        "name": "Platja d'Aro",
        "city": "Castell-Platja d'Aro",
        "prov": "Catalonia",
        "region": "Provu00edncia de Girona",
        "latt": "41.81667",
        "longt": "3.06667",
        "address": "Via de Jordana Balaguer 73 Apt. 39 nGirona, 08754"
    },
    {
        "state": "ES",
        "name": "Zalba",
        "city": "Zalba",
        "prov": "Navarre",
        "region": "Provincia de Navarra",
        "latt": "42.8346",
        "longt": "-1.4501",
        "address": "Calle Merche Andrade 16 Apt. 93 nCeuta, 26948"
    },
    {
        "state": "ES",
        "name": "Arroyo del Besugo",
        "city": "Cigales",
        "prov": "Castille and Leu00f3n",
        "region": "Provincia de Valladolid",
        "latt": "41.741752",
        "longt": "-4.752392",
        "address": "Urbanizaciu00f3n de Elvira Carmona 66nGranada, 05795"
    },
    {
        "state": "ES",
        "name": "LAS ARTES Hotel",
        "city": "Pinto",
        "prov": "Madrid",
        "region": "Provincia de Madrid",
        "latt": "40.25267",
        "longt": "-3.6965",
        "address": "Vial Osvaldo Bernal 92nBaleares, 37066"
    },
    {
        "state": "ES",
        "name": "Ligu00fcerre de Cinca",
        "city": "Liguerre de Cinca",
        "prov": "Aragon",
        "region": "Provincia de Huesca",
        "latt": "42.28616",
        "longt": "0.21522",
        "address": "Acceso Juliana Falcu00f3 28 Apt. 74 nAsturias, 22241"
    },
    {
        "state": "ES",
        "name": "Arroyo del Besugo",
        "city": "Cigales",
        "prov": "Castille and Leu00f3n",
        "region": "Provincia de Valladolid",
        "latt": "41.741752",
        "longt": "-4.752392",
        "address": "C. de Zaida Bayu00f3n 69 Puerta 4 nGranada, 45520"
    },
    {
        "state": "ES",
        "name": "Las Hoyas",
        "city": "Camporrobles",
        "prov": "Castille-La Mancha",
        "region": "Provincia de Cuenca",
        "latt": "39.63333",
        "longt": "-1.38333",
        "address": "Plaza de Bibiana Quintana 45nAlicante, 43731"
    },
    {
        "state": "ES",
        "name": "Somolinos",
        "city": "Condemios de Arriba",
        "prov": "Castille-La Mancha",
        "region": "Provincia de Guadalajara",
        "latt": "41.24606",
        "longt": "-3.06004",
        "address": "Camino Guiomar Barrio 58 Puerta 7 nBaleares, 48840"
    },
    {
        "state": "ES",
        "name": "Morata",
        "city": "Vera",
        "prov": "Andalusia",
        "region": "Almeru00eda",
        "latt": "37.23348",
        "longt": "-1.89936",
        "address": "Cuesta Alejandro Tejera 912 Piso 7 nMurcia, 48570"
    },
    {
        "state": "ES",
        "name": "Mercat de Santa Catarina",
        "city": "Barcelona",
        "prov": "Catalonia",
        "region": "Provu00edncia de Barcelona",
        "latt": "41.38628",
        "longt": "2.17846",
        "address": "Glorieta Carolina Benavente 31nSegovia, 24221"
    },
    {
        "state": "ES",
        "name": "Platja d'Aro",
        "city": "Castell-Platja d'Aro",
        "prov": "Catalonia",
        "region": "Provu00edncia de Girona",
        "latt": "41.81667",
        "longt": "3.06667",
        "address": "Pasadizo Rita Castell 52nBarcelona, 47755"
    },
    {
        "state": "ES",
        "name": "Casa Grande De Rosende",
        "city": "Sober",
        "prov": "Galicia",
        "region": "Provincia de Lugo",
        "latt": "42.43642",
        "longt": "-7.6243",
        "address": "Cuesta Maricruz Cabello 7nCu00e1ceres, 04110"
    },
    {
        "state": "ES",
        "name": "Noreu00f1a",
        "city": "Norena",
        "prov": "Asturias",
        "region": "Province of Asturias",
        "latt": "43.39672",
        "longt": "-5.70828",
        "address": "Urbanizaciu00f3n de Reinaldo Crespo 73nGranada, 09319"
    },
    {
        "state": "ES",
        "name": "Agroturisme Son Pons",
        "city": "sa Pobla",
        "prov": "Balearic Islands",
        "region": "Illes Balears",
        "latt": "39.76052",
        "longt": "2.99738",
        "address": "Cau00f1ada de Felisa Andrade 85nCeuta, 46066"
    },
    {
        "state": "ES",
        "name": "Talaru00e1",
        "city": "Durcal",
        "prov": "Andalusia",
        "region": "Provincia de Granada",
        "latt": "36.94783",
        "longt": "-3.55064",
        "address": "C. de Marcos Hervia 359nMurcia, 27950"
    },
    {
        "state": "ES",
        "name": "el Port",
        "city": "Llanca",
        "prov": "Catalonia",
        "region": "Provu00edncia de Girona",
        "latt": "42.36996",
        "longt": "3.16054",
        "address": "Via Tecla Izaguirre 52nLugo, 04796"
    },
    {
        "state": "ES",
        "name": "Lomo de Arico",
        "city": "Lomo de Arico",
        "prov": "Canary Islands",
        "region": "Provincia de Santa Cruz de Tenerife",
        "latt": "28.16667",
        "longt": "-16.48333",
        "address": "Ronda de Horacio Lozano 615 Piso 4 nCastellu00f3n, 34762"
    },
    {
        "state": "ES",
        "name": "Altora",
        "city": "Tomelloso",
        "prov": "Castille-La Mancha",
        "region": "Provincia de Ciudad Real",
        "latt": "39.16002",
        "longt": "-3.02007",
        "address": "Urbanizaciu00f3n de u00c1lvaro Sancho 504 Puerta 4 nLugo, 39942"
    },
    {
        "state": "ES",
        "name": "Laguna del Rey",
        "city": "Ruidera",
        "prov": "Castille-La Mancha",
        "region": "Provincia de Ciudad Real",
        "latt": "38.96881",
        "longt": "-2.88611",
        "address": "Pasaje de Vasco Aller 55 Apt. 68 nHuelva, 17547"
    },
    {
        "state": "ES",
        "name": "Arroyo del Regajo",
        "city": "Villanueva",
        "prov": "Valencia",
        "region": "Provu00edncia de Valu00e8ncia",
        "latt": "39.75",
        "longt": "-1.13333",
        "address": "Alameda Cu00e1ndida Velasco 9 Piso 7 nMu00e1laga, 33436"
    },
    {
        "state": "ES",
        "name": "Cay Beach Sun",
        "city": "San Bartolomu00e9",
        "prov": "Canary Islands",
        "region": "Provincia de Las Palmas",
        "latt": "29.03854",
        "longt": "-13.65069",
        "address": "Camino Cruz Bello 877nCiudad, 51449"
    },
    {
        "state": "ES",
        "name": "Ru00edo Cervigona",
        "city": "Acebo",
        "prov": "Extremadura",
        "region": "Provincia de Cu00e1ceres",
        "latt": "40.20089",
        "longt": "-6.70088",
        "address": "Via de Adriu00e1n Benavides 7nCastellu00f3n, 38620"
    },
    {
        "state": "ES",
        "name": "Opau00f1el",
        "city": "Madrid",
        "prov": "Madrid",
        "region": "Provincia de Madrid",
        "latt": "40.39023",
        "longt": "-3.72178",
        "address": "Ronda Lupe Zabaleta 91 Puerta 3 nNavarra, 31647"
    },
    {
        "state": "ES",
        "name": "Las Chinas",
        "city": "Las Chinas",
        "prov": "Andalusia",
        "region": "Provincia de Huelva",
        "latt": "37.93041",
        "longt": "-6.71676",
        "address": "Cuesta Joaquu00edn Ariu00f1o 55nAlbacete, 14388"
    },
    {
        "state": "ES",
        "name": "Villaengracia Htl Rural Aptos",
        "city": "Montblanc",
        "prov": "Catalonia",
        "region": "Provu00edncia de Tarragona",
        "latt": "41.38953",
        "longt": "1.11122",
        "address": "Plaza Dionisio Barco 462 Piso 1 nCu00f3rdoba, 51005"
    },
    {
        "state": "ES",
        "name": "Oco",
        "city": "Oco",
        "prov": "Castille and Leu00f3n",
        "region": "Provincia de u00c1vila",
        "latt": "40.62519",
        "longt": "-4.97027",
        "address": "Pasadizo Narciso Landa 80 Puerta 5 nNavarra, 19155"
    },
    {
        "state": "ES",
        "name": "Campo de Golf Municipal Reino de Leu00f3n",
        "city": "Leu00f3n",
        "prov": "Castille and Leu00f3n",
        "region": "Provincia de Leu00f3n",
        "latt": "42.63658",
        "longt": "-5.60238",
        "address": "Cuesta de Emelina Zamorano 60 Apt. 80 nGirona, 03019"
    },
    {
        "state": "ES",
        "name": "Rebollar",
        "city": "Pola de Siero",
        "prov": "Asturias",
        "region": "Province of Asturias",
        "latt": "43.39616",
        "longt": "-5.6546",
        "address": "Ronda de Pili Manrique 54 Puerta 9 nCantabria, 51736"
    },
    {
        "state": "ES",
        "name": "Vega de Monasterio",
        "city": "Vega de Monasterio",
        "prov": "Castille and Leu00f3n",
        "region": "Provincia de Leu00f3n",
        "latt": "42.6714",
        "longt": "-5.18282",
        "address": "Urbanizaciu00f3n de Amu00e9rico Marti 215nLa Rioja, 12178"
    },
    {
        "state": "ES",
        "name": "Aloria",
        "city": "Amurrio",
        "prov": "Basque Country",
        "region": "Araba / u00c1lava",
        "latt": "42.99598",
        "longt": "-2.98159",
        "address": "C. de Concepciu00f3n Garcu00e9s 58nCu00f3rdoba, 05710"
    },
    {
        "state": "ES",
        "name": "Leixa",
        "city": "Ferrol",
        "prov": "Galicia",
        "region": "Provincia da Coruu00f1a",
        "latt": "43.51667",
        "longt": "-8.2",
        "address": "Plaza de Marcio Franco 26 Puerta 8 nu00c1lava, 02853"
    },
    {
        "state": "ES",
        "name": "Arroyo de las Pozas",
        "city": "Villacarrillo",
        "prov": "Andalusia",
        "region": "Provincia de Jau00e9n",
        "latt": "38.05392",
        "longt": "-3.05702",
        "address": "Urbanizaciu00f3n de Guadalupe Noguera 989 Piso 7 nZamora, 46603"
    },
    {
        "state": "ES",
        "name": "Villapau00f1ada",
        "city": "Grado",
        "prov": "Asturias",
        "region": "Province of Asturias",
        "latt": "43.38333",
        "longt": "-6.1",
        "address": "Cuesta Omar Fuster 83nBaleares, 25137"
    },
    {
        "state": "ES",
        "name": "Rabal",
        "city": "Oimbra",
        "prov": "Galicia",
        "region": "Provincia de Ourense",
        "latt": "41.84733",
        "longt": "-7.44088",
        "address": "Ronda Wu00e1lter Blazquez 23nTarragona, 35343"
    },
    {
        "state": "ES",
        "name": "Opau00f1el",
        "city": "Madrid",
        "prov": "Madrid",
        "region": "Provincia de Madrid",
        "latt": "40.39023",
        "longt": "-3.72178",
        "address": "Alameda Rafael Escolano 696nGranada, 47742"
    },
    {
        "state": "ES",
        "name": "Noreu00f1a",
        "city": "Norena",
        "prov": "Asturias",
        "region": "Province of Asturias",
        "latt": "43.39672",
        "longt": "-5.70828",
        "address": "Via Hilda Carmona 17 Puerta 2 nSoria, 34052"
    },
    {
        "state": "ES",
        "name": "Viura",
        "city": "Villabuena de Alava",
        "prov": "Basque Country",
        "region": "Araba / u00c1lava",
        "latt": "42.54807",
        "longt": "-2.66496",
        "address": "Pasaje Amancio Coca 39 Apt. 65 nCuenca, 10845"
    },
    {
        "state": "ES",
        "name": "C&L Alberto Lista By Life Apartments",
        "city": "Espartinas",
        "prov": "Andalusia",
        "region": "Provincia de Sevilla",
        "latt": "37.39583",
        "longt": "-6.15472",
        "address": "Camino Cebriu00e1n Mariscal 5 Piso 8 nCastellu00f3n, 28278"
    },
    {
        "state": "ES",
        "name": "Rambla de Escriche",
        "city": "Casa Grande",
        "prov": "Aragon",
        "region": "Provincia de Teruel",
        "latt": "40.38186",
        "longt": "-0.96488",
        "address": "Camino de Alberto Maldonado 74 Piso 9 nAlmeru00eda, 08470"
    },
    {
        "state": "ES",
        "name": "Osera",
        "city": "Fuentes de Ebro",
        "prov": "Aragon",
        "region": "Provincia de Zaragoza",
        "latt": "41.53345",
        "longt": "-0.57922",
        "address": "Cuesta Marina Prat 17nCu00e1diz, 47970"
    },
    {
        "state": "ES",
        "name": "Alqueria de la Comtessa, l'",
        "city": "Gandia",
        "prov": "Valencia",
        "region": "Provu00edncia de Valu00e8ncia",
        "latt": "38.93748",
        "longt": "-0.153",
        "address": "Rambla de Amparo Solano 5 Piso 3 nCiudad, 43848"
    },
    {
        "state": "ES",
        "name": "La Posada De El Chaflan",
        "city": "Madrid",
        "prov": "Madrid",
        "region": "Provincia de Madrid",
        "latt": "40.467",
        "longt": "-3.674",
        "address": "Via Inocencio Gonzu00e1lez 25nAlbacete, 17062"
    },
    {
        "state": "ES",
        "name": "Puerto deportivo de San Miguel",
        "city": "El Rompido",
        "prov": "Andalusia",
        "region": "Provincia de Huelva",
        "latt": "37.21382",
        "longt": "-7.09965",
        "address": "Paseo de Edgardo Escolano 1nJau00e9n, 15856"
    },
    {
        "state": "ES",
        "name": "La Alqueru00eda",
        "city": "Montanejos",
        "prov": "Valencia",
        "region": "Provu00edncia de Castellu00f3",
        "latt": "40.06667",
        "longt": "-0.5",
        "address": "Camino de Gil Berrocal 9nBarcelona, 29914"
    },
    {
        "state": "ES",
        "name": "Opau00f1el",
        "city": "Madrid",
        "prov": "Madrid",
        "region": "Provincia de Madrid",
        "latt": "40.39023",
        "longt": "-3.72178",
        "address": "Pasaje de Ani Carrera 782 Apt. 58 nCu00f3rdoba, 31550"
    },
    {
        "state": "ES",
        "name": "Cay Beach Sun",
        "city": "San Bartolomu00e9",
        "prov": "Canary Islands",
        "region": "Provincia de Las Palmas",
        "latt": "29.03854",
        "longt": "-13.65069",
        "address": "Acceso Graciano Espau00f1ol 60 Piso 4 nCu00f3rdoba, 25530"
    },
    {
        "state": "ES",
        "name": "Begou00f1alde",
        "city": "Bilbao",
        "prov": "Basque Country",
        "region": "Bizkaia",
        "latt": "43.25753",
        "longt": "-2.90723",
        "address": "Pasadizo Herberto Cobos 3nCiudad, 27128"
    },
    {
        "state": "ES",
        "name": "u00d3rzola Ferry Port",
        "city": "Orzola",
        "prov": "Canary Islands",
        "region": "Provincia de Las Palmas",
        "latt": "29.22331",
        "longt": "-13.45201",
        "address": "Glorieta de Eusebia Luna 23nAlicante, 44937"
    },
    {
        "state": "ES",
        "name": "Rio Malucas",
        "city": "Chau00f1e",
        "prov": "Castille and Leu00f3n",
        "region": "Provincia de Segovia",
        "latt": "41.303858",
        "longt": "-4.445666",
        "address": "Via de Agustina Sandoval 203 Apt. 25 nAlicante, 12941"
    },
    {
        "state": "ES",
        "name": "Cazolga",
        "city": "Mogo",
        "prov": "Galicia",
        "region": "Provincia de Lugo",
        "latt": "43.5",
        "longt": "-7.3",
        "address": "Acceso Gilberto Mu00ednguez 593 Apt. 89 nu00c1lava, 02754"
    },
    {
        "state": "ES",
        "name": "Noreu00f1a",
        "city": "Norena",
        "prov": "Asturias",
        "region": "Province of Asturias",
        "latt": "43.39672",
        "longt": "-5.70828",
        "address": "Rambla Gabriel Vizcau00edno 42 Piso 5 nLas Palmas, 37460"
    },
    {
        "state": "ES",
        "name": "Mainar",
        "city": "Mainar",
        "prov": "Aragon",
        "region": "Provincia de Zaragoza",
        "latt": "41.19275",
        "longt": "-1.30292",
        "address": "Ronda Ariel Escribano 1 Puerta 8 nBarcelona, 47075"
    },
    {
        "state": "ES",
        "name": "Ciordia",
        "city": "Altsasu",
        "prov": "Navarre",
        "region": "Provincia de Navarra",
        "latt": "42.870209",
        "longt": "-2.227577",
        "address": "Urbanizaciu00f3n de Hu00e9ctor Juan 39 Puerta 1 nToledo, 04687"
    },
    {
        "state": "ES",
        "name": "Barcala",
        "city": "Padron",
        "prov": "Galicia",
        "region": "Provincia da Coruu00f1a",
        "latt": "42.71473",
        "longt": "-8.70529",
        "address": "Acceso de Juan Pablo Nogueira 4 Apt. 29 nValencia, 28267"
    },
    {
        "state": "ES",
        "name": "Arroyo San Nicasio",
        "city": "Martos",
        "prov": "Andalusia",
        "region": "Provincia de Jau00e9n",
        "latt": "37.75",
        "longt": "-4",
        "address": "Rambla Gastu00f3n Vara 75nPalencia, 47637"
    },
    {
        "state": "ES",
        "name": "Escobedo",
        "city": "Villafufre",
        "prov": "Cantabria",
        "region": "Provincia de Cantabria",
        "latt": "43.26968",
        "longt": "-3.90727",
        "address": "Camino de Odalys Cu00e9spedes 49 Piso 7 nCeuta, 51990"
    },
    {
        "state": "ES",
        "name": "Irubideballara",
        "city": "San Sebastian",
        "prov": "Basque Country",
        "region": "Gipuzkoa",
        "latt": "43.27438",
        "longt": "-2.01396",
        "address": "Calle Leire Morell 7 Puerta 9 nHuelva, 17422"
    },
    {
        "state": "ES",
        "name": "Gorostapolo de Errazu",
        "city": "Gorostapalo",
        "prov": "Navarre",
        "region": "Provincia de Navarra",
        "latt": "43.167821",
        "longt": "-1.456868",
        "address": "Plaza de Segismundo Blanes 40nCeuta, 21937"
    },
    {
        "state": "ES",
        "name": "Ru00edo Luna",
        "city": "Llamas de la Ribera",
        "prov": "Castille and Leu00f3n",
        "region": "Provincia de Leu00f3n",
        "latt": "42.653916",
        "longt": "-5.822062",
        "address": "Urbanizaciu00f3n Josu00e9 Antonio Amo 7 Apt. 22 nCiudad, 42614"
    },
    {
        "state": "ES",
        "name": "Moli Blanc",
        "city": "Igualada",
        "prov": "Catalonia",
        "region": "Provu00edncia de Barcelona",
        "latt": "41.5857",
        "longt": "1.5805",
        "address": "Paseo de Soledad Pujol 73nPontevedra, 07087"
    },
    {
        "state": "ES",
        "name": "Feculas-Navarra",
        "city": "Lodosa",
        "prov": "Navarre",
        "region": "Provincia de Navarra",
        "latt": "42.4112",
        "longt": "-2.09826",
        "address": "Urbanizaciu00f3n Reina Guijarro 89nSegovia, 21255"
    },
    {
        "state": "ES",
        "name": "San Romu00e1n del Valle",
        "city": "San Romu00e1n del Valle",
        "prov": "Castille and Leu00f3n",
        "region": "Provincia de Zamora",
        "latt": "42.0742",
        "longt": "-5.71958",
        "address": "Cuesta de Abigau00edl Villena 86 Piso 5 nAsturias, 12478"
    },
    {
        "state": "ES",
        "name": "Campo de Golf Municipal Reino de Leu00f3n",
        "city": "Leu00f3n",
        "prov": "Castille and Leu00f3n",
        "region": "Provincia de Leu00f3n",
        "latt": "42.63658",
        "longt": "-5.60238",
        "address": "Vial de Domingo Nogueira 24 Apt. 85 nCu00f3rdoba, 28907"
    },
    {
        "state": "ES",
        "name": "Bustelfollado",
        "city": "Bustelfollado",
        "prov": "Asturias",
        "region": "Province of Asturias",
        "latt": "43.38736",
        "longt": "-6.70727",
        "address": "Pasadizo de Renato Boada 97nCu00f3rdoba, 07185"
    },
    {
        "state": "ES",
        "name": "Santa Maru00eda de Nava",
        "city": "Barruelo de Santullan",
        "prov": "Castille and Leu00f3n",
        "region": "Provincia de Palencia",
        "latt": "42.88285",
        "longt": "-4.30861",
        "address": "Rambla de Goyo Gou00f1i 154 Piso 3 nLa Rioja, 23451"
    },
    {
        "state": "ES",
        "name": "Fonalleras",
        "city": "Torroella de Montgru00ed",
        "prov": "Catalonia",
        "region": "Provu00edncia de Girona",
        "latt": "42.021164",
        "longt": "3.051856",
        "address": "Via de Juan Pablo Juan 581nCeuta, 29906"
    },
    {
        "state": "ES",
        "name": "Platja d'Aro",
        "city": "Castell-Platja d'Aro",
        "prov": "Catalonia",
        "region": "Provu00edncia de Girona",
        "latt": "41.81667",
        "longt": "3.06667",
        "address": "Vial de Belu00e9n Pagu00e8s 54 Piso 7 nCuenca, 29239"
    },
    {
        "state": "ES",
        "name": "A seara",
        "city": "Outes",
        "prov": "Galicia",
        "region": "Provincia da Coruu00f1a",
        "latt": "42.86168",
        "longt": "-8.90236",
        "address": "Camino Estefanu00eda Castrillo 98 Puerta 9 nVizcaya, 02800"
    },
    {
        "state": "ES",
        "name": "Pobra de San Xuliu00e1n",
        "city": "Pobra de San Xuliu00e1n",
        "prov": "Galicia",
        "region": "Provincia de Lugo",
        "latt": "42.86477",
        "longt": "-7.44427",
        "address": "Cuesta de Belen Cisneros 6 Piso 8 nCu00f3rdoba, 45508"
    },
    {
        "state": "ES",
        "name": "Castillo Mayor",
        "city": "Escuau00edn",
        "prov": "Aragon",
        "region": "Provincia de Huesca",
        "latt": "42.57944",
        "longt": "0.12469",
        "address": "Camino de Paulina Espejo 9 Apt. 00 nAsturias, 44925"
    },
    {
        "state": "ES",
        "name": "Fuentes de Cesna",
        "city": "Iznu00e1jar",
        "prov": "Andalusia",
        "region": "Provincia de Granada",
        "latt": "37.268711",
        "longt": "-4.232371",
        "address": "Vial Vasco Machado 589nCeuta, 38316"
    },
    {
        "state": "ES",
        "name": "Mata de Ledesma, La",
        "city": "La Mata de Ledesma",
        "prov": "Castille and Leu00f3n",
        "region": "Provincia de Salamanca",
        "latt": "40.98678",
        "longt": "-5.98275",
        "address": "Alameda Mauricio Rozas 974nCu00e1diz, 04415"
    },
    {
        "state": "ES",
        "name": "Holycan",
        "city": "Maspalomas",
        "prov": "Canary Islands",
        "region": "Provincia de Las Palmas",
        "latt": "27.75395",
        "longt": "-15.5805",
        "address": "Glorieta Juan Carlos Egea 762 Piso 4 nCu00e1ceres, 44392"
    },
    {
        "state": "ES",
        "name": "Brantuas",
        "city": "Niu00f1u00f3ns",
        "prov": "Galicia",
        "region": "Provincia da Coruu00f1a",
        "latt": "43.282609",
        "longt": "-8.899486",
        "address": "Ronda de Dorotea Pozo 972 Piso 2 nGuipu00fazcoa, 14540"
    },
    {
        "state": "ES",
        "name": "Agroturisme Son Pons",
        "city": "sa Pobla",
        "prov": "Balearic Islands",
        "region": "Illes Balears",
        "latt": "39.76052",
        "longt": "2.99738",
        "address": "Cau00f1ada Casemiro Benavent 32nGuadalajara, 12854"
    },
    {
        "state": "ES",
        "name": "Arroyo de Martu00edn Romu00e1n",
        "city": "Moceju00f3n",
        "prov": "Castille-La Mancha",
        "region": "Province of Toledo",
        "latt": "39.93292",
        "longt": "-3.8285",
        "address": "Plaza de Florina Gras 2nu00c1vila, 19027"
    },
    {
        "state": "ES",
        "name": "Es Pujols Apartamenos",
        "city": "Es Pujols",
        "prov": "Balearic Islands",
        "region": "Illes Balears",
        "latt": "38.72332",
        "longt": "1.45643",
        "address": "C. Charo Donoso 69 Apt. 97 nValladolid, 19163"
    },
    {
        "state": "ES",
        "name": "Katategi",
        "city": "Tolosa",
        "prov": "Basque Country",
        "region": "Gipuzkoa",
        "latt": "43.16794",
        "longt": "-2.06448",
        "address": "Pasaje de Emilia Jaume 3nCastellu00f3n, 51049"
    },
    {
        "state": "ES",
        "name": "Cobos de Segovia",
        "city": "Cobos de Segovia",
        "prov": "Castille and Leu00f3n",
        "region": "Provincia de Segovia",
        "latt": "40.92251",
        "longt": "-4.43952",
        "address": "C. de Cloe Romeu 60nValladolid, 36312"
    },
    {
        "state": "ES",
        "name": "Cerro de la Horca",
        "city": "Villamalea",
        "prov": "Castille-La Mancha",
        "region": "Provincia de Cuenca",
        "latt": "39.4",
        "longt": "-1.6",
        "address": "Cau00f1ada de Azahar Carretero 20nCu00f3rdoba, 47532"
    },
    {
        "state": "ES",
        "name": "Argayo",
        "city": "Fabero",
        "prov": "Castille and Leu00f3n",
        "region": "Provincia de Leu00f3n",
        "latt": "42.81125",
        "longt": "-6.57591",
        "address": "Glorieta de Ramona Aguilu00f3 65nHuelva, 19494"
    },
    {
        "state": "ES",
        "name": "La Alfoquia",
        "city": "Zurgena",
        "prov": "Andalusia",
        "region": "Almeru00eda",
        "latt": "37.35338",
        "longt": "-2.0408",
        "address": "Urbanizaciu00f3n Zoraida Sastre 50 Apt. 59 nMelilla, 37464"
    },
    {
        "state": "ES",
        "name": "Pulianillas",
        "city": "Granada",
        "prov": "Andalusia",
        "region": "Provincia de Granada",
        "latt": "37.21913",
        "longt": "-3.60523",
        "address": "Camino de Martirio Vargas 7 Puerta 3 nHuelva, 30280"
    },
    {
        "state": "ES",
        "name": "La Cau00f1ada Ancha",
        "city": "Mojacar",
        "prov": "Andalusia",
        "region": "Almeru00eda",
        "latt": "37.13333",
        "longt": "-1.88333",
        "address": "Cau00f1ada Inocencio Suu00e1rez 950 Puerta 7 nSegovia, 48427"
    },
    {
        "state": "ES",
        "name": "Buensol",
        "city": "Torremolinos",
        "prov": "Andalusia",
        "region": "Provincia de Mu00e1laga",
        "latt": "36.6037",
        "longt": "-4.5092",
        "address": "Calleju00f3n de Galo Alemu00e1n 9nPontevedra, 16391"
    },
    {
        "state": "ES",
        "name": "Latsunbe",
        "city": "San Sebastian",
        "prov": "Basque Country",
        "region": "Gipuzkoa",
        "latt": "43.26955",
        "longt": "-1.97764",
        "address": "Calleju00f3n Anabel Arce 23nHuesca, 19204"
    },
    {
        "state": "ES",
        "name": "Peu00f1a del u00c1guila",
        "city": "Cercedilla",
        "prov": "Castille and Leu00f3n",
        "region": "Provincia de Segovia",
        "latt": "40.7657",
        "longt": "-4.0961",
        "address": "Via de Pepito Jara 68 Puerta 6 nSalamanca, 21450"
    },
    {
        "state": "ES",
        "name": "Cascanto",
        "city": "Murchante",
        "prov": "Navarre",
        "region": "Provincia de Navarra",
        "latt": "41.997688",
        "longt": "-1.680985",
        "address": "Pasadizo Candelas Blanco 473 Apt. 69 nMadrid, 44605"
    },
    {
        "state": "ES",
        "name": "Seru00e1n",
        "city": "Villabrille",
        "prov": "Asturias",
        "region": "Province of Asturias",
        "latt": "43.26667",
        "longt": "-6.85",
        "address": "Pasadizo de Delfina Menu00e9ndez 99nGuadalajara, 10752"
    },
    {
        "state": "ES",
        "name": "Sot",
        "city": "Jijona",
        "prov": "Valencia",
        "region": "Provincia de Alicante",
        "latt": "38.56193",
        "longt": "-0.50259",
        "address": "Cau00f1ada Begou00f1a Tur 818 Apt. 76 nLleida, 44650"
    },
    {
        "state": "ES",
        "name": "San Martu00edn",
        "city": "Castejon de Sos",
        "prov": "Aragon",
        "region": "Provincia de Huesca",
        "latt": "42.47039",
        "longt": "0.51047",
        "address": "Cuesta Clementina Alcaraz 7nu00c1vila, 18959"
    },
    {
        "state": "ES",
        "name": "Isla Redona",
        "city": "Colu00f2nia de Sant Jordi",
        "prov": "Balearic Islands",
        "region": "Illes Balears",
        "latt": "39.316667",
        "longt": "2.983333",
        "address": "Pasadizo Edelmiro Acedo 95 Piso 3 nCu00e1diz, 11908"
    },
    {
        "state": "ES",
        "name": "La Aceitunilla",
        "city": "Nunomoral",
        "prov": "Extremadura",
        "region": "Provincia de Cu00e1ceres",
        "latt": "40.43576",
        "longt": "-6.24315",
        "address": "Glorieta de Leandra Corbacho 94nAlicante, 10767"
    },
    {
        "state": "ES",
        "name": "Holycan",
        "city": "Maspalomas",
        "prov": "Canary Islands",
        "region": "Provincia de Las Palmas",
        "latt": "27.75395",
        "longt": "-15.5805",
        "address": "Cau00f1ada de Adriana Montalbu00e1n 178 Puerta 5 nToledo, 09542"
    },
    {
        "state": "ES",
        "name": "Es Pujols Apartamenos",
        "city": "Es Pujols",
        "prov": "Balearic Islands",
        "region": "Illes Balears",
        "latt": "38.72332",
        "longt": "1.45643",
        "address": "Via de Ulises Guzmu00e1n 430nToledo, 24911"
    },
    {
        "state": "ES",
        "name": "Las Toscas",
        "city": "Frontera",
        "prov": "Canary Islands",
        "region": "Provincia de Santa Cruz de Tenerife",
        "latt": "27.75",
        "longt": "-18.01667",
        "address": "Calle Eli Zamorano 132 Piso 0 nCuenca, 30454"
    },
    {
        "state": "ES",
        "name": "Casa Grande De Rosende",
        "city": "Sober",
        "prov": "Galicia",
        "region": "Provincia de Lugo",
        "latt": "42.43642",
        "longt": "-7.6243",
        "address": "Camino Quirino Alegre 25 Puerta 0 nCantabria, 23095"
    },
    {
        "state": "ES",
        "name": "El Horcajo",
        "city": "El Horcajo",
        "prov": "Castille-La Mancha",
        "region": "Provincia de Ciudad Real",
        "latt": "38.51337",
        "longt": "-4.44182",
        "address": "Pasadizo de Felicia Marco 66nBurgos, 13196"
    },
    {
        "state": "ES",
        "name": "Miramola",
        "city": "Ibiza",
        "prov": "Balearic Islands",
        "region": "Illes Balears",
        "latt": "38.89926",
        "longt": "1.41847",
        "address": "Via Adora Verdejo 80nBarcelona, 23050"
    },
    {
        "state": "ES",
        "name": "Fresnedillas de la Oliva",
        "city": "Fresnedillas",
        "prov": "Madrid",
        "region": "Provincia de Madrid",
        "latt": "40.47483",
        "longt": "-4.1788",
        "address": "Calleju00f3n de Sabas Martin 87 Puerta 8 nHuesca, 50126"
    },
    {
        "state": "ES",
        "name": "Bodegas Hacienda del Carche",
        "city": "El Carche",
        "prov": "Murcia",
        "region": "Murcia",
        "latt": "38.46253",
        "longt": "-1.20663",
        "address": "Plaza Felipe Chamorro 22 Puerta 2 nMadrid, 01686"
    },
    {
        "state": "ES",
        "name": "Patones de Arriba",
        "city": "Torrelaguna",
        "prov": "Madrid",
        "region": "Provincia de Madrid",
        "latt": "40.86607",
        "longt": "-3.49345",
        "address": "Avenida Cristina Gelabert 73 Puerta 0 nGuipu00fazcoa, 16740"
    },
    {
        "state": "ES",
        "name": "Oliete",
        "city": "Oliete",
        "prov": "Aragon",
        "region": "Provincia de Teruel",
        "latt": "40.99376",
        "longt": "-0.63968",
        "address": "Avenida de Eleuterio Casanova 4 Puerta 9 nAlbacete, 22593"
    },
    {
        "state": "ES",
        "name": "El Farallo",
        "city": "La Pineda",
        "prov": "Catalonia",
        "region": "Provu00edncia de Tarragona",
        "latt": "41.06741",
        "longt": "1.17964",
        "address": "Cuesta de Andrea Figueroa 81nGirona, 20935"
    },
    {
        "state": "ES",
        "name": "Buensol",
        "city": "Torremolinos",
        "prov": "Andalusia",
        "region": "Provincia de Mu00e1laga",
        "latt": "36.6037",
        "longt": "-4.5092",
        "address": "Urbanizaciu00f3n Encarnita Andreu 71 Puerta 8 nAlbacete, 28852"
    },
    {
        "state": "ES",
        "name": "Vierdes",
        "city": "Oseja de Sajambre",
        "prov": "Castille and Leu00f3n",
        "region": "Provincia de Leu00f3n",
        "latt": "43.13317",
        "longt": "-5.04479",
        "address": "Avenida Sebastiu00e1n Gordillo 797nLa Rioja, 01851"
    },
    {
        "state": "ES",
        "name": "Armental",
        "city": "Vilasantar",
        "prov": "Galicia",
        "region": "Provincia da Coruu00f1a",
        "latt": "43.06667",
        "longt": "-8.08333",
        "address": "Via Martirio Espejo 66nToledo, 45200"
    },
    {
        "state": "ES",
        "name": "Sendelle",
        "city": "Padrenda",
        "prov": "Galicia",
        "region": "Provincia de Pontevedra",
        "latt": "42.16946",
        "longt": "-8.18312",
        "address": "Cau00f1ada Reyes Amigu00f3 31 Piso 9 nZamora, 15301"
    },
    {
        "state": "ES",
        "name": "AMPURIA INN",
        "city": "Castello d'Empuries",
        "prov": "Catalonia",
        "region": "Provu00edncia de Girona",
        "latt": "42.26064",
        "longt": "3.10415",
        "address": "Alameda Micaela Vilanova 460 Piso 6 nu00c1vila, 46760"
    },
    {
        "state": "ES",
        "name": "San Romu00e1n del Valle",
        "city": "San Romu00e1n del Valle",
        "prov": "Castille and Leu00f3n",
        "region": "Provincia de Zamora",
        "latt": "42.0742",
        "longt": "-5.71958",
        "address": "Vial de Eloy Ferrando 62 Apt. 41 nAlmeru00eda, 38429"
    },
    {
        "state": "ES",
        "name": "Seru00e1n",
        "city": "Villabrille",
        "prov": "Asturias",
        "region": "Province of Asturias",
        "latt": "43.26667",
        "longt": "-6.85",
        "address": "Cau00f1ada Elpidio Cerro 69 Puerta 8 nMu00e1laga, 44471"
    },
    {
        "state": "ES",
        "name": "Tebra",
        "city": "Tui",
        "prov": "Galicia",
        "region": "Provincia de Pontevedra",
        "latt": "42.03333",
        "longt": "-8.71667",
        "address": "Glorieta de Lidia Ru00edos 3nAlicante, 43791"
    },
    {
        "state": "ES",
        "name": "Alqueria de la Comtessa, l'",
        "city": "Gandia",
        "prov": "Valencia",
        "region": "Provu00edncia de Valu00e8ncia",
        "latt": "38.93748",
        "longt": "-0.153",
        "address": "Rambla Ignacia Sierra 2nBadajoz, 05761"
    },
    {
        "state": "ES",
        "name": "Praia Espiu00f1eirido",
        "city": "Seru00e1ns",
        "prov": "Galicia",
        "region": "Provincia da Coruu00f1a",
        "latt": "42.60223",
        "longt": "-9.06348",
        "address": "Avenida Jonatan Dueu00f1as 16 Puerta 1 nAsturias, 51692"
    },
    {
        "state": "ES",
        "name": "Loeda",
        "city": "Cea",
        "prov": "Galicia",
        "region": "Provincia de Ourense",
        "latt": "42.5",
        "longt": "-8.01667",
        "address": "Calleju00f3n Pepita Pinilla 190nHuelva, 15579"
    },
    {
        "state": "ES",
        "name": "Seru00e1n",
        "city": "Villabrille",
        "prov": "Asturias",
        "region": "Province of Asturias",
        "latt": "43.26667",
        "longt": "-6.85",
        "address": "Rambla de Florencia Cu00e1rdenas 47 Puerta 5 nPalencia, 01936"
    },
    {
        "state": "ES",
        "name": "Loeda",
        "city": "Cea",
        "prov": "Galicia",
        "region": "Provincia de Ourense",
        "latt": "42.5",
        "longt": "-8.01667",
        "address": "Camino de Abel Arregui 868nHuelva, 36495"
    },
    {
        "state": "ES",
        "name": "Povedo de la Sierra",
        "city": "Poveda de la Sierra",
        "prov": "Castille-La Mancha",
        "region": "Provincia de Guadalajara",
        "latt": "40.643291",
        "longt": "-2.02905",
        "address": "Alameda de u00cdu00f1igo Posada 902 Puerta 4 nBadajoz, 33421"
    },
    {
        "state": "ES",
        "name": "Cardeu00f1osa de Volpejera",
        "city": "Villanueva del Rebollar",
        "prov": "Castille and Leu00f3n",
        "region": "Provincia de Palencia",
        "latt": "42.23214",
        "longt": "-4.70197",
        "address": "Acceso Lina Oller 29nSanta Cruz de Tenerife, 21630"
    },
    {
        "state": "ES",
        "name": "Villafuerte",
        "city": "Villafuerte",
        "prov": "Castille and Leu00f3n",
        "region": "Provincia de Valladolid",
        "latt": "41.73431",
        "longt": "-4.32365",
        "address": "Acceso Clementina Nadal 875nAsturias, 06017"
    },
    {
        "state": "ES",
        "name": "Mata de Ledesma, La",
        "city": "La Mata de Ledesma",
        "prov": "Castille and Leu00f3n",
        "region": "Provincia de Salamanca",
        "latt": "40.98678",
        "longt": "-5.98275",
        "address": "Pasadizo Baltasar Sancho 72 Apt. 85 nCantabria, 15636"
    },
    {
        "state": "ES",
        "name": "Zeanuri",
        "city": "Zeanuri",
        "prov": "Basque Country",
        "region": "Bizkaia",
        "latt": "43.1",
        "longt": "-2.75",
        "address": "Vial de Fabricio Lozano 3 Piso 7 nVizcaya, 31448"
    },
    {
        "state": "ES",
        "name": "Feculas-Navarra",
        "city": "Lodosa",
        "prov": "Navarre",
        "region": "Provincia de Navarra",
        "latt": "42.4112",
        "longt": "-2.09826",
        "address": "Alameda de Roberta Morcillo 5nGuipu00fazcoa, 37423"
    },
    {
        "state": "ES",
        "name": "Villaselu00e1n",
        "city": "Villaselan",
        "prov": "Castille and Leu00f3n",
        "region": "Provincia de Leu00f3n",
        "latt": "42.56105",
        "longt": "-5.0482",
        "address": "Cuesta de Ibu00e1n Marco 9nCastellu00f3n, 30635"
    },
    {
        "state": "ES",
        "name": "El Draguito",
        "city": "Granadilla de Abona",
        "prov": "Canary Islands",
        "region": "Provincia de Santa Cruz de Tenerife",
        "latt": "28.11253",
        "longt": "-16.56593",
        "address": "Acceso de Nu00e9lida Castillo 4 Apt. 30 nSoria, 04852"
    },
    {
        "state": "ES",
        "name": "Encebras",
        "city": "Pinoso",
        "prov": "Valencia",
        "region": "Provincia de Alicante",
        "latt": "38.39216",
        "longt": "-0.989751",
        "address": "Vial Yu00e9ssica Pagu00e8s 37 Apt. 20 nSegovia, 23652"
    },
    {
        "state": "ES",
        "name": "Bustelfollado",
        "city": "Bustelfollado",
        "prov": "Asturias",
        "region": "Province of Asturias",
        "latt": "43.38736",
        "longt": "-6.70727",
        "address": "Urbanizaciu00f3n de Yu00e9sica Gimenez 11nCu00e1ceres, 11865"
    },
    {
        "state": "ES",
        "name": "Arriazu",
        "city": "Pamplona",
        "prov": "Navarre",
        "region": "Provincia de Navarra",
        "latt": "42.81633",
        "longt": "-1.6437",
        "address": "Calle Eusebia Aliaga 5 Piso 0 nVizcaya, 01010"
    },
    {
        "state": "ES",
        "name": "Bodegas Morosanto",
        "city": "Arriate",
        "prov": "Andalusia",
        "region": "Provincia de Mu00e1laga",
        "latt": "36.82234",
        "longt": "-5.14808",
        "address": "Calleju00f3n Celestina Soriano 63 Puerta 9 nValencia, 28374"
    },
    {
        "state": "ES",
        "name": "Olmillos de Muu00f1u00f3",
        "city": "Pampliega",
        "prov": "Castille and Leu00f3n",
        "region": "Provincia de Burgos",
        "latt": "42.20449",
        "longt": "-3.94014",
        "address": "Avenida Ciro Cervantes 6 Apt. 84 nCuenca, 01866"
    },
    {
        "state": "ES",
        "name": "Quintela de Humoso",
        "city": "Quintela de Humoso",
        "prov": "Galicia",
        "region": "Provincia de Ourense",
        "latt": "42.14251",
        "longt": "-7.06342",
        "address": "Glorieta de Iker Barranco 92 Puerta 1 nCu00e1ceres, 34834"
    },
    {
        "state": "ES",
        "name": "Era Bordeta",
        "city": "Era Bordeta",
        "prov": "Catalonia",
        "region": "Provu00edncia de Lleida",
        "latt": "42.74966",
        "longt": "0.69986",
        "address": "Pasaje Rufino Ju00e1uregui 85 Puerta 8 nSegovia, 45129"
    },
    {
        "state": "ES",
        "name": "Oco",
        "city": "Oco",
        "prov": "Castille and Leu00f3n",
        "region": "Provincia de u00c1vila",
        "latt": "40.62519",
        "longt": "-4.97027",
        "address": "Calleju00f3n Jeremu00edas Guardia 88nCastellu00f3n, 01345"
    },
    {
        "state": "ES",
        "name": "Olmillos de Muu00f1u00f3",
        "city": "Pampliega",
        "prov": "Castille and Leu00f3n",
        "region": "Provincia de Burgos",
        "latt": "42.20449",
        "longt": "-3.94014",
        "address": "Ronda Luciano Carballo 72nNavarra, 32701"
    },
    {
        "state": "ES",
        "name": "Arroyo del Molinar",
        "city": "Monleras",
        "prov": "Castille and Leu00f3n",
        "region": "Provincia de Zamora",
        "latt": "41.19513",
        "longt": "-6.20167",
        "address": "Cau00f1ada Nacho Ricart 159 Apt. 87 nAsturias, 47030"
    },
    {
        "state": "ES",
        "name": "Fuente de los Dornajos",
        "city": "Huerta del Marquesado",
        "prov": "Castille-La Mancha",
        "region": "Provincia de Cuenca",
        "latt": "40.16869",
        "longt": "-1.66482",
        "address": "Cau00f1ada de Galo Ramu00edrez 2 Puerta 3 nZamora, 10290"
    },
    {
        "state": "ES",
        "name": "Becerril de la Sierra",
        "city": "Becerril de la Sierra",
        "prov": "Madrid",
        "region": "Provincia de Madrid",
        "latt": "40.72857",
        "longt": "-3.9746",
        "address": "Cau00f1ada de Ileana Tormo 39 Apt. 37 nu00c1lava, 16717"
    },
    {
        "state": "ES",
        "name": "Illueca",
        "city": "Illueca",
        "prov": "Aragon",
        "region": "Provincia de Zaragoza",
        "latt": "41.53818",
        "longt": "-1.62747",
        "address": "Pasaje Ainara Mu00e1rquez 30nGuadalajara, 45558"
    },
    {
        "state": "ES",
        "name": "La Brau00f1a",
        "city": "Aviles",
        "prov": "Asturias",
        "region": "Province of Asturias",
        "latt": "43.54604",
        "longt": "-5.98671",
        "address": "Plaza de Perla Marin 88 Piso 2 nAlmeru00eda, 17547"
    },
    {
        "state": "ES",
        "name": "Leixa",
        "city": "Ferrol",
        "prov": "Galicia",
        "region": "Provincia da Coruu00f1a",
        "latt": "43.51667",
        "longt": "-8.2",
        "address": "Pasadizo Mireia Carreu00f1o 29nMadrid, 08285"
    },
    {
        "state": "ES",
        "name": "La Posada De El Chaflan",
        "city": "Madrid",
        "prov": "Madrid",
        "region": "Provincia de Madrid",
        "latt": "40.467",
        "longt": "-3.674",
        "address": "Alameda de Roberto Alsina 387nNavarra, 02876"
    },
    {
        "state": "ES",
        "name": "Playa de Cuarezo",
        "city": "Noja",
        "prov": "Cantabria",
        "region": "Provincia de Cantabria",
        "latt": "43.491667",
        "longt": "-3.530833",
        "address": "Cuesta Josuu00e9 Rodriguez 9 Piso 6 nGuipu00fazcoa, 18643"
    },
    {
        "state": "ES",
        "name": "Fonalleras",
        "city": "Torroella de Montgru00ed",
        "prov": "Catalonia",
        "region": "Provu00edncia de Girona",
        "latt": "42.021164",
        "longt": "3.051856",
        "address": "Acceso Jose Luis Polo 8 Piso 7 nCiudad, 16311"
    },
    {
        "state": "ES",
        "name": "Zeanuri",
        "city": "Zeanuri",
        "prov": "Basque Country",
        "region": "Bizkaia",
        "latt": "43.1",
        "longt": "-2.75",
        "address": "Calleju00f3n de Maru00eda Pilar Cau00f1izares 880nValladolid, 39952"
    },
    {
        "state": "ES",
        "name": "Iglesia de la Milagrosa",
        "city": "Huelva",
        "prov": "Andalusia",
        "region": "Provincia de Huelva",
        "latt": "37.25432",
        "longt": "-6.95194",
        "address": "Camino Manuela Llabru00e9s 98 Piso 4 nPontevedra, 45774"
    },
    {
        "state": "ES",
        "name": "Jardu00edn de las Naciones",
        "city": "Torrevieja",
        "prov": "Valencia",
        "region": "Provincia de Alicante",
        "latt": "37.9833",
        "longt": "-0.68847",
        "address": "Urbanizaciu00f3n Salomu00f3n Hernando 4 Apt. 72 nGranada, 46167"
    },
    {
        "state": "ES",
        "name": "Centro de Golf El Vendrell",
        "city": "El Vendrell",
        "prov": "Catalonia",
        "region": "Provu00edncia de Tarragona",
        "latt": "41.20467",
        "longt": "1.54993",
        "address": "Acceso de Eva Maru00eda Cal 84 Apt. 42 nBurgos, 28279"
    },
    {
        "state": "ES",
        "name": "Torres de Barbuu00e9s",
        "city": "Torres de Barbuu00e9s",
        "prov": "Aragon",
        "region": "Provincia de Huesca",
        "latt": "41.9605",
        "longt": "-0.4335",
        "address": "Alameda de Elodia Nuu00f1ez 19nValencia, 21269"
    },
    {
        "state": "ES",
        "name": "Noreu00f1a",
        "city": "Norena",
        "prov": "Asturias",
        "region": "Province of Asturias",
        "latt": "43.39672",
        "longt": "-5.70828",
        "address": "Vial Maru00eda Huguet 72nOurense, 15819"
    },
    {
        "state": "ES",
        "name": "Punta de La Podadera",
        "city": "Cartagena",
        "prov": "Murcia",
        "region": "Murcia",
        "latt": "37.581612",
        "longt": "-0.989552",
        "address": "Alameda de Vasco Torrens 96nPalencia, 17097"
    },
    {
        "state": "ES",
        "name": "Berriozabaleta",
        "city": "Durango",
        "prov": "Basque Country",
        "region": "Bizkaia",
        "latt": "43.14439",
        "longt": "-2.5598",
        "address": "Urbanizaciu00f3n Rafael Campo 30 Piso 6 nGuipu00fazcoa, 22067"
    },
    {
        "state": "ES",
        "name": "Latsunbe",
        "city": "San Sebastian",
        "prov": "Basque Country",
        "region": "Gipuzkoa",
        "latt": "43.26955",
        "longt": "-1.97764",
        "address": "Plaza Olalla Sevilla 47nMadrid, 46189"
    },
    {
        "state": "ES",
        "name": "Arroyo del Zorro",
        "city": "Jerez de la Frontera",
        "prov": "Andalusia",
        "region": "Provincia de Cu00e1diz",
        "latt": "36.69351",
        "longt": "-6.16685",
        "address": "Acceso Florencia Sierra 44nMelilla, 38061"
    },
    {
        "state": "ES",
        "name": "Melias",
        "city": "Coles",
        "prov": "Galicia",
        "region": "Provincia de Ourense",
        "latt": "42.4",
        "longt": "-7.81667",
        "address": "Plaza de Marc Tormo 582nAlicante, 46162"
    },
    {
        "state": "ES",
        "name": "Montau00f1a Chiquina",
        "city": "Los Banquitos",
        "prov": "Canary Islands",
        "region": "Provincia de Santa Cruz de Tenerife",
        "latt": "28.52811",
        "longt": "-16.1708",
        "address": "Vial Claudia Gimenez 7 Puerta 4 nAlicante, 17268"
    },
    {
        "state": "ES",
        "name": "Katategi",
        "city": "Tolosa",
        "prov": "Basque Country",
        "region": "Gipuzkoa",
        "latt": "43.16794",
        "longt": "-2.06448",
        "address": "Avenida de Camila Uru00eda 36nTeruel, 20378"
    },
    {
        "state": "ES",
        "name": "Brantuas",
        "city": "Niu00f1u00f3ns",
        "prov": "Galicia",
        "region": "Provincia da Coruu00f1a",
        "latt": "43.282609",
        "longt": "-8.899486",
        "address": "Paseo de Graciana Canals 3 Piso 4 nu00c1lava, 07283"
    },
    {
        "state": "ES",
        "name": "Sierra de Forgoselo",
        "city": "Caaveiro",
        "prov": "Galicia",
        "region": "Provincia da Coruu00f1a",
        "latt": "43.471284",
        "longt": "-8.023817",
        "address": "Vial de Asunciu00f3n Pinilla 72nCantabria, 12683"
    },
    {
        "state": "ES",
        "name": "Aldeadu00e1vila de la Ribera",
        "city": "Aldeadu00e1vila de la Ribera",
        "prov": "Castille and Leu00f3n",
        "region": "Provincia de Salamanca",
        "latt": "41.21769",
        "longt": "-6.61786",
        "address": "Pasaje de Merche Diaz 68nCeuta, 36896"
    },
    {
        "state": "ES",
        "name": "La Carrasca",
        "city": "Alpuente",
        "prov": "Valencia",
        "region": "Provu00edncia de Valu00e8ncia",
        "latt": "39.86667",
        "longt": "-1.03333",
        "address": "C. de Ildefonso Bernat 6 Apt. 74 nBadajoz, 37978"
    },
    {
        "state": "ES",
        "name": "Holycan",
        "city": "Maspalomas",
        "prov": "Canary Islands",
        "region": "Provincia de Las Palmas",
        "latt": "27.75395",
        "longt": "-15.5805",
        "address": "Rambla Pili Morell 37nAlmeru00eda, 45735"
    },
    {
        "state": "ES",
        "name": "Pajaroncillo",
        "city": "Pajaron",
        "prov": "Castille-La Mancha",
        "region": "Provincia de Cuenca",
        "latt": "39.95",
        "longt": "-1.73333",
        "address": "Calle de Victor Reig 786 Puerta 2 nAlbacete, 28758"
    },
    {
        "state": "ES",
        "name": "Praia da Testada",
        "city": "Cangas do Morrazo",
        "prov": "Galicia",
        "region": "Provincia de Pontevedra",
        "latt": "42.27638",
        "longt": "-8.82543",
        "address": "Alameda Javier Crespo 5nGuadalajara, 08060"
    },
    {
        "state": "ES",
        "name": "Abelgas",
        "city": "Abelgas",
        "prov": "Castille and Leu00f3n",
        "region": "Provincia de Leu00f3n",
        "latt": "42.8",
        "longt": "-5.98333",
        "address": "Alameda Aaru00f3n Beltran 55 Apt. 71 nValencia, 22835"
    },
    {
        "state": "ES",
        "name": "Coju00f3bar",
        "city": "Cojobar",
        "prov": "Castille and Leu00f3n",
        "region": "Provincia de Burgos",
        "latt": "42.24644",
        "longt": "-3.66926",
        "address": "C. Albano Cortes 2 Piso 3 nCastellu00f3n, 29104"
    },
    {
        "state": "ES",
        "name": "Calmarza",
        "city": "Jaraba",
        "prov": "Aragon",
        "region": "Provincia de Zaragoza",
        "latt": "41.1581",
        "longt": "-1.91196",
        "address": "Calleju00f3n Jeremu00edas Jover 52 Apt. 05 nBarcelona, 07313"
    },
    {
        "state": "ES",
        "name": "Katategi",
        "city": "Tolosa",
        "prov": "Basque Country",
        "region": "Gipuzkoa",
        "latt": "43.16794",
        "longt": "-2.06448",
        "address": "C. Alma Barral 82nLleida, 33720"
    },
    {
        "state": "ES",
        "name": "Meirengos",
        "city": "Ribadeo",
        "prov": "Galicia",
        "region": "Provincia de Lugo",
        "latt": "43.55272",
        "longt": "-7.11742",
        "address": "Glorieta de Marta Ordu00f3u00f1ez 68nTarragona, 40751"
    },
    {
        "state": "ES",
        "name": "Su2019Arracu00f3",
        "city": "Andratx",
        "prov": "Balearic Islands",
        "region": "Illes Balears",
        "latt": "39.578148",
        "longt": "2.393873",
        "address": "C. de Mayte Alarcu00f3n 89nTeruel, 20851"
    },
    {
        "state": "ES",
        "name": "Katategi",
        "city": "Tolosa",
        "prov": "Basque Country",
        "region": "Gipuzkoa",
        "latt": "43.16794",
        "longt": "-2.06448",
        "address": "Paseo de Gervasio Llorente 507nZamora, 35275"
    },
    {
        "state": "ES",
        "name": "Begou00f1alde",
        "city": "Bilbao",
        "prov": "Basque Country",
        "region": "Bizkaia",
        "latt": "43.25753",
        "longt": "-2.90723",
        "address": "Ronda de Rubu00e9n Juan 912nNavarra, 36529"
    },
    {
        "state": "ES",
        "name": "San Bartolomu00e9",
        "city": "Ubeda",
        "prov": "Andalusia",
        "region": "Provincia de Jau00e9n",
        "latt": "38.02734",
        "longt": "-3.32231",
        "address": "Pasaje de Federico Matas 350 Apt. 41 nBarcelona, 37975"
    },
    {
        "state": "ES",
        "name": "Lomo de Arico",
        "city": "Lomo de Arico",
        "prov": "Canary Islands",
        "region": "Provincia de Santa Cruz de Tenerife",
        "latt": "28.16667",
        "longt": "-16.48333",
        "address": "Avenida de Olga Daza 97nGirona, 29208"
    },
    {
        "state": "ES",
        "name": "Cazolga",
        "city": "Mogo",
        "prov": "Galicia",
        "region": "Provincia de Lugo",
        "latt": "43.5",
        "longt": "-7.3",
        "address": "Alameda Alejandro Castell 511nMurcia, 46675"
    },
    {
        "state": "ES",
        "name": "Caldas de Reis",
        "city": "Caldas de Reis",
        "prov": "Galicia",
        "region": "Provincia de Pontevedra",
        "latt": "42.60473",
        "longt": "-8.6423",
        "address": "Alameda de Ximena Martu00ed 76 Piso 8 nMu00e1laga, 28335"
    },
    {
        "state": "ES",
        "name": "Arroyo de los Galgos",
        "city": "Mu00e9rida",
        "prov": "Extremadura",
        "region": "Provincia de Badajoz",
        "latt": "38.94322",
        "longt": "-6.41506",
        "address": "Paseo Maru00eda Fernanda Mora 391 Piso 6 nBurgos, 20494"
    },
    {
        "state": "ES",
        "name": "Sierra de Forgoselo",
        "city": "Caaveiro",
        "prov": "Galicia",
        "region": "Provincia da Coruu00f1a",
        "latt": "43.471284",
        "longt": "-8.023817",
        "address": "Calleju00f3n Tristu00e1n Jurado 59 Apt. 96 nSalamanca, 33783"
    },
    {
        "state": "ES",
        "name": "Corral de Bru",
        "city": "Corral de Bru",
        "prov": "Valencia",
        "region": "Provu00edncia de Valu00e8ncia",
        "latt": "39.03333",
        "longt": "-0.8",
        "address": "Alameda Amando Cabanillas 86 Apt. 73 nVizcaya, 38862"
    },
    {
        "state": "ES",
        "name": "La Costumbre",
        "city": "EL Reboso",
        "prov": "Andalusia",
        "region": "Provincia de Sevilla",
        "latt": "37.07944",
        "longt": "-6.09056",
        "address": "Urbanizaciu00f3n de Vidal Feliu 328 Puerta 3 nZaragoza, 48507"
    },
    {
        "state": "ES",
        "name": "Sierra Roldana",
        "city": "Olmillos de Castro",
        "prov": "Castille and Leu00f3n",
        "region": "Provincia de Zamora",
        "latt": "41.714512",
        "longt": "-5.937403",
        "address": "Acceso de Nydia Vilanova 7nLugo, 15279"
    },
    {
        "state": "ES",
        "name": "Segura de Leu00f3n",
        "city": "Segura de Leu00f3n",
        "prov": "Extremadura",
        "region": "Provincia de Badajoz",
        "latt": "38.11667",
        "longt": "-6.51667",
        "address": "Cau00f1ada Josu00e9 Manuel Palomino 20 Piso 8 nZamora, 11207"
    },
    {
        "state": "ES",
        "name": "Tebra",
        "city": "Tui",
        "prov": "Galicia",
        "region": "Provincia de Pontevedra",
        "latt": "42.03333",
        "longt": "-8.71667",
        "address": "Pasadizo de Ana Belu00e9n Palomares 15nAlicante, 42237"
    },
    {
        "state": "ES",
        "name": "La Carrasca",
        "city": "Alpuente",
        "prov": "Valencia",
        "region": "Provu00edncia de Valu00e8ncia",
        "latt": "39.86667",
        "longt": "-1.03333",
        "address": "Ronda de Eli Rivera 366nBarcelona, 38196"
    },
    {
        "state": "ES",
        "name": "Zalba",
        "city": "Zalba",
        "prov": "Navarre",
        "region": "Provincia de Navarra",
        "latt": "42.8346",
        "longt": "-1.4501",
        "address": "Glorieta de Federico Arroyo 29nValladolid, 48693"
    },
    {
        "state": "ES",
        "name": "Noreu00f1a",
        "city": "Norena",
        "prov": "Asturias",
        "region": "Province of Asturias",
        "latt": "43.39672",
        "longt": "-5.70828",
        "address": "Urbanizaciu00f3n Filomena Cu00e1rdenas 80nLas Palmas, 05300"
    },
    {
        "state": "ES",
        "name": "Cardeu00f1osa de Volpejera",
        "city": "Villanueva del Rebollar",
        "prov": "Castille and Leu00f3n",
        "region": "Provincia de Palencia",
        "latt": "42.23214",
        "longt": "-4.70197",
        "address": "Pasadizo Berta Cifuentes 57 Piso 7 nSegovia, 31986"
    },
    {
        "state": "ES",
        "name": "Tudera",
        "city": "Tudera",
        "prov": "Castille and Leu00f3n",
        "region": "Provincia de Zamora",
        "latt": "41.41667",
        "longt": "-6.21066",
        "address": "Alameda Manuela Manso 253nCuenca, 11892"
    },
    {
        "state": "ES",
        "name": "Arriazu",
        "city": "Pamplona",
        "prov": "Navarre",
        "region": "Provincia de Navarra",
        "latt": "42.81633",
        "longt": "-1.6437",
        "address": "Paseo Nilda Cau00f1as 771 Piso 2 nMelilla, 25992"
    },
    {
        "state": "ES",
        "name": "Monte de Alcol",
        "city": "Barchu00edn del Hoyo",
        "prov": "Castille-La Mancha",
        "region": "Provincia de Cuenca",
        "latt": "39.716667",
        "longt": "-2.016667",
        "address": "Pasadizo Guillermo Revilla 3 Puerta 7 nCantabria, 07385"
    },
    {
        "state": "ES",
        "name": "Aloria",
        "city": "Amurrio",
        "prov": "Basque Country",
        "region": "Araba / u00c1lava",
        "latt": "42.99598",
        "longt": "-2.98159",
        "address": "Cau00f1ada Mariano Cortina 57 Piso 2 nCastellu00f3n, 39185"
    },
    {
        "state": "ES",
        "name": "Islas de Addaya",
        "city": "Na Macaret",
        "prov": "Balearic Islands",
        "region": "Illes Balears",
        "latt": "40.018437",
        "longt": "4.212232",
        "address": "Camino Arsenio Garcia 82 Piso 7 nMadrid, 49525"
    },
    {
        "state": "ES",
        "name": "Ayera",
        "city": "Ayera",
        "prov": "Aragon",
        "region": "Provincia de Huesca",
        "latt": "42.17538",
        "longt": "-0.29954",
        "address": "Cuesta Luciano Montero 49 Puerta 2 nLugo, 03650"
    },
    {
        "state": "ES",
        "name": "Isla Redona",
        "city": "Colu00f2nia de Sant Jordi",
        "prov": "Balearic Islands",
        "region": "Illes Balears",
        "latt": "39.316667",
        "longt": "2.983333",
        "address": "Pasadizo de Vicente Bu00e1rcena 81nMurcia, 28353"
    },
    {
        "state": "ES",
        "name": "Ciordia",
        "city": "Altsasu",
        "prov": "Navarre",
        "region": "Provincia de Navarra",
        "latt": "42.870209",
        "longt": "-2.227577",
        "address": "C. Marino Fu00e1bregas 69nTarragona, 45763"
    },
    {
        "state": "ES",
        "name": "Hontamiu00f3",
        "city": "Hontamio",
        "prov": "Asturias",
        "region": "Province of Asturias",
        "latt": "43.31667",
        "longt": "-4.58333",
        "address": "Alameda Iris Cano 28 Puerta 0 nTeruel, 20614"
    },
    {
        "state": "ES",
        "name": "San Juan",
        "city": "San Juan",
        "prov": "Castille and Leu00f3n",
        "region": "Provincia de Burgos",
        "latt": "42.22409",
        "longt": "-3.58941",
        "address": "Rambla Remedios Lerma 1 Apt. 54 nBaleares, 35851"
    },
    {
        "state": "ES",
        "name": "Armental",
        "city": "Vilasantar",
        "prov": "Galicia",
        "region": "Provincia da Coruu00f1a",
        "latt": "43.06667",
        "longt": "-8.08333",
        "address": "C. de Federico Fernu00e1ndez 85 Puerta 8 nCastellu00f3n, 46684"
    },
    {
        "state": "ES",
        "name": "Seru00e1n",
        "city": "Villabrille",
        "prov": "Asturias",
        "region": "Province of Asturias",
        "latt": "43.26667",
        "longt": "-6.85",
        "address": "C. de Isabela Hierro 10nSalamanca, 14460"
    },
    {
        "state": "ES",
        "name": "Mijangos",
        "city": "Mijangos",
        "prov": "Castille and Leu00f3n",
        "region": "Provincia de Burgos",
        "latt": "42.83018",
        "longt": "-3.42578",
        "address": "Alameda Loreto Ribera 45 Apt. 88 nCiudad, 36122"
    },
    {
        "state": "ES",
        "name": "Montesalgueiro",
        "city": "Aranga",
        "prov": "Galicia",
        "region": "Provincia da Coruu00f1a",
        "latt": "43.21111",
        "longt": "-8.05282",
        "address": "Alameda de Anita Aguilera 788nCu00e1ceres, 41176"
    },
    {
        "state": "ES",
        "name": "Folgoso de la Carballeda",
        "city": "Folgoso de la Carballeda",
        "prov": "Castille and Leu00f3n",
        "region": "Provincia de Zamora",
        "latt": "41.95895",
        "longt": "-6.43543",
        "address": "Paseo de Atilio Marcos 73 Piso 6 nAsturias, 10002"
    },
    {
        "state": "ES",
        "name": "Arroyo de las Pozas",
        "city": "Villacarrillo",
        "prov": "Andalusia",
        "region": "Provincia de Jau00e9n",
        "latt": "38.05392",
        "longt": "-3.05702",
        "address": "Paseo de Ale Maza 96nGuadalajara, 13371"
    },
    {
        "state": "ES",
        "name": "Fondarella",
        "city": "Mollerussa",
        "prov": "Catalonia",
        "region": "Provu00edncia de Lleida",
        "latt": "41.63238",
        "longt": "0.8717",
        "address": "Urbanizaciu00f3n Irma Orozco 89nTarragona, 47405"
    },
    {
        "state": "ES",
        "name": "Jesu00fas",
        "city": "Aceuchal",
        "prov": "Extremadura",
        "region": "Provincia de Badajoz",
        "latt": "38.65",
        "longt": "-6.5",
        "address": "Pasaje de Visitaciu00f3n Roca 11 Piso 2 nSevilla, 24327"
    },
    {
        "state": "ES",
        "name": "Las Toscas",
        "city": "Frontera",
        "prov": "Canary Islands",
        "region": "Provincia de Santa Cruz de Tenerife",
        "latt": "27.75",
        "longt": "-18.01667",
        "address": "Pasaje de Ildefonso Navarro 14 Puerta 4 nCastellu00f3n, 31856"
    },
    {
        "state": "ES",
        "name": "Es Portitxolet",
        "city": "Palma",
        "prov": "Balearic Islands",
        "region": "Illes Balears",
        "latt": "39.55952",
        "longt": "2.67161",
        "address": "Pasadizo Lilia Monreal 25nGirona, 32754"
    },
    {
        "state": "ES",
        "name": "Hortezuela de Ocu00e9n",
        "city": "Padilla del Ducado",
        "prov": "Castille-La Mancha",
        "region": "Provincia de Guadalajara",
        "latt": "40.95407",
        "longt": "-2.40848",
        "address": "Alameda de Nazaret Cid 7nLeu00f3n, 03526"
    },
    {
        "state": "ES",
        "name": "Pazo Da Trave",
        "city": "Viveiro",
        "prov": "Galicia",
        "region": "Provincia de Lugo",
        "latt": "43.64194",
        "longt": "-7.60675",
        "address": "Vial Benita Bartolomu00e9 18nAlbacete, 51126"
    },
    {
        "state": "ES",
        "name": "Cazolga",
        "city": "Mogo",
        "prov": "Galicia",
        "region": "Provincia de Lugo",
        "latt": "43.5",
        "longt": "-7.3",
        "address": "Calleju00f3n Fernando Alcaraz 246nLugo, 20762"
    },
    {
        "state": "ES",
        "name": "Vierdes",
        "city": "Oseja de Sajambre",
        "prov": "Castille and Leu00f3n",
        "region": "Provincia de Leu00f3n",
        "latt": "43.13317",
        "longt": "-5.04479",
        "address": "Urbanizaciu00f3n Rafa Polo 859nGuadalajara, 02937"
    },
    {
        "state": "ES",
        "name": "Cerro de la Horca",
        "city": "Villamalea",
        "prov": "Castille-La Mancha",
        "region": "Provincia de Cuenca",
        "latt": "39.4",
        "longt": "-1.6",
        "address": "Vial de Nicolu00e1s Romu00e1n 5nTeruel, 20481"
    },
    {
        "state": "ES",
        "name": "Sot",
        "city": "Jijona",
        "prov": "Valencia",
        "region": "Provincia de Alicante",
        "latt": "38.56193",
        "longt": "-0.50259",
        "address": "Camino de Maru00eda Josu00e9 Andrade 76 Apt. 29 nGuipu00fazcoa, 07116"
    },
    {
        "state": "ES",
        "name": "Dianes",
        "city": "Nerja",
        "prov": "Andalusia",
        "region": "Provincia de Mu00e1laga",
        "latt": "36.74855",
        "longt": "-3.87644",
        "address": "Via Estrella Velu00e1zquez 29nGirona, 27043"
    },
    {
        "state": "ES",
        "name": "Santa Maru00eda de Nava",
        "city": "Barruelo de Santullan",
        "prov": "Castille and Leu00f3n",
        "region": "Provincia de Palencia",
        "latt": "42.88285",
        "longt": "-4.30861",
        "address": "Paseo Cayetano Castell 352 Apt. 90 nAlicante, 50302"
    },
    {
        "state": "ES",
        "name": "Ruidecau00f1a",
        "city": "Mont-roig del Camp",
        "prov": "Catalonia",
        "region": "Provu00edncia de Tarragona",
        "latt": "41.12921",
        "longt": "0.962295",
        "address": "Calleju00f3n de Albino Menu00e9ndez 46nSegovia, 33004"
    },
    {
        "state": "ES",
        "name": "Zeanuri",
        "city": "Zeanuri",
        "prov": "Basque Country",
        "region": "Bizkaia",
        "latt": "43.1",
        "longt": "-2.75",
        "address": "Calle Lourdes Mariu00f1o 930 Piso 3 nTarragona, 02126"
    },
    {
        "state": "ES",
        "name": "Cardeu00f1osa de Volpejera",
        "city": "Villanueva del Rebollar",
        "prov": "Castille and Leu00f3n",
        "region": "Provincia de Palencia",
        "latt": "42.23214",
        "longt": "-4.70197",
        "address": "Ronda Begou00f1a Rueda 27 Piso 8 nBaleares, 31626"
    },
    {
        "state": "ES",
        "name": "Morru00f3n Blanco",
        "city": "Mazarru00f3n",
        "prov": "Murcia",
        "region": "Murcia",
        "latt": "37.57283",
        "longt": "-1.34156",
        "address": "C. de Leonel Ramu00edrez 73nBurgos, 26029"
    },
    {
        "state": "ES",
        "name": "Murillo-Berroya",
        "city": "Murillo-Berroya",
        "prov": "Navarre",
        "region": "Provincia de Navarra",
        "latt": "42.702233",
        "longt": "-1.261018",
        "address": "Calle Roberta Guillen 88 Puerta 4 nCu00e1ceres, 30286"
    },
    {
        "state": "ES",
        "name": "Villapau00f1ada",
        "city": "Grado",
        "prov": "Asturias",
        "region": "Province of Asturias",
        "latt": "43.38333",
        "longt": "-6.1",
        "address": "Rambla Julie Tovar 837nBadajoz, 06921"
    },
    {
        "state": "ES",
        "name": "Es Portitxolet",
        "city": "Palma",
        "prov": "Balearic Islands",
        "region": "Illes Balears",
        "latt": "39.55952",
        "longt": "2.67161",
        "address": "Acceso de Emigdio Pombo 49nBadajoz, 28128"
    },
    {
        "state": "ES",
        "name": "Oubiu00f1a",
        "city": "Cambados",
        "prov": "Galicia",
        "region": "Provincia de Pontevedra",
        "latt": "42.53333",
        "longt": "-8.76667",
        "address": "Cuesta Inu00e9s Ferru00e1n 93 Piso 2 nLleida, 44635"
    },
    {
        "state": "ES",
        "name": "Club de Golf Las Pinaillas- Castilla La Mancha",
        "city": "Motilleja",
        "prov": "Castille-La Mancha",
        "region": "Provincia de Albacete",
        "latt": "39.15988",
        "longt": "-1.8194",
        "address": "Cuesta Paz Tejedor 471 Piso 5 nValencia, 37022"
    },
    {
        "state": "ES",
        "name": "Zeanuri",
        "city": "Zeanuri",
        "prov": "Basque Country",
        "region": "Bizkaia",
        "latt": "43.1",
        "longt": "-2.75",
        "address": "Urbanizaciu00f3n Carmelo Mata 86 Apt. 20 nLugo, 24671"
    },
    {
        "state": "ES",
        "name": "Corral de la Bodega",
        "city": "Niebla",
        "prov": "Andalusia",
        "region": "Provincia de Huelva",
        "latt": "37.35798",
        "longt": "-6.65982",
        "address": "Urbanizaciu00f3n de Javier Cerdu00e1n 38nSalamanca, 05810"
    },
    {
        "state": "ES",
        "name": "Castiltierra",
        "city": "Castiltierra",
        "prov": "Castille and Leu00f3n",
        "region": "Provincia de Segovia",
        "latt": "41.38531",
        "longt": "-3.53297",
        "address": "Calleju00f3n de Sol Pozuelo 22nTeruel, 34375"
    },
    {
        "state": "ES",
        "name": "Patones de Arriba",
        "city": "Torrelaguna",
        "prov": "Madrid",
        "region": "Provincia de Madrid",
        "latt": "40.86607",
        "longt": "-3.49345",
        "address": "Camino de Saturnino Peu00f1alver 70nPontevedra, 04386"
    },
    {
        "state": "ES",
        "name": "Foios",
        "city": "Foios",
        "prov": "Valencia",
        "region": "Provu00edncia de Valu00e8ncia",
        "latt": "39.53333",
        "longt": "-0.35",
        "address": "Ronda de Norberto Vazquez 13nZaragoza, 07481"
    },
    {
        "state": "ES",
        "name": "Arroyo Rumbos",
        "city": "Mojados",
        "prov": "Castille and Leu00f3n",
        "region": "Provincia de Valladolid",
        "latt": "41.39109",
        "longt": "-4.71813",
        "address": "Pasadizo Rita Sotelo 477 Piso 4 nSalamanca, 31971"
    },
    {
        "state": "ES",
        "name": "Serveis Generals Del Circuit Catalunya",
        "city": "Granollers",
        "prov": "Catalonia",
        "region": "Provu00edncia de Barcelona",
        "latt": "41.57389",
        "longt": "2.25694",
        "address": "Paseo Faustino Alfaro 859nu00c1lava, 05785"
    },
    {
        "state": "ES",
        "name": "Seru00e1n",
        "city": "Villabrille",
        "prov": "Asturias",
        "region": "Province of Asturias",
        "latt": "43.26667",
        "longt": "-6.85",
        "address": "Pasadizo de Rosa Ureu00f1a 95 Piso 1 nOurense, 44022"
    },
    {
        "state": "ES",
        "name": "Platja d'Aro",
        "city": "Castell-Platja d'Aro",
        "prov": "Catalonia",
        "region": "Provu00edncia de Girona",
        "latt": "41.81667",
        "longt": "3.06667",
        "address": "Cau00f1ada Haydu00e9e Fu00e1bregas 75 Piso 6 nHuesca, 12129"
    },
    {
        "state": "ES",
        "name": "Arroyo de Viu00f1ales",
        "city": "Villavicencio de los Caballeros",
        "prov": "Castille and Leu00f3n",
        "region": "Provincia de Valladolid",
        "latt": "42.04977",
        "longt": "-5.253",
        "address": "Vial de Olivia Hervia 75nGuipu00fazcoa, 36972"
    },
    {
        "state": "ES",
        "name": "Estaciu00f3n de El Cerro de Andu00e9valo",
        "city": "Calau00f1as",
        "prov": "Andalusia",
        "region": "Provincia de Huelva",
        "latt": "37.70514",
        "longt": "-6.89237",
        "address": "Pasaje Aaru00f3n Corral 96nAlbacete, 09884"
    },
    {
        "state": "ES",
        "name": "Osma",
        "city": "El Burgo de Osma",
        "prov": "Castille and Leu00f3n",
        "region": "Provincia de Soria",
        "latt": "41.58377",
        "longt": "-3.08234",
        "address": "Urbanizaciu00f3n Felicia Gil 1nBaleares, 02015"
    },
    {
        "state": "ES",
        "name": "La Alfoquia",
        "city": "Zurgena",
        "prov": "Andalusia",
        "region": "Almeru00eda",
        "latt": "37.35338",
        "longt": "-2.0408",
        "address": "Cau00f1ada Alejandro Carranza 3 Piso 2 nu00c1lava, 23005"
    },
    {
        "state": "ES",
        "name": "Cabezas de Bonilla",
        "city": "Cabezas de Bonilla",
        "prov": "Castille and Leu00f3n",
        "region": "Provincia de u00c1vila",
        "latt": "40.56175",
        "longt": "-5.24595",
        "address": "Avenida Trinidad Juan 92 Apt. 33 nHuesca, 14749"
    },