[
    {
        "state": "SE",
        "name": "Bredu00f6gern",
        "city": "Skeppsvik",
        "prov": "Vu00e4sterbotten",
        "region": null,
        "latt": "63.8",
        "longt": "20.61667",
        "address": "USNV HarrisonnFPO AA 50462"
    },
    {
        "state": "SE",
        "name": "Flundrebu00e5den",
        "city": "Stenshamn",
        "prov": "Blekinge",
        "region": "Karlskrona Kommun",
        "latt": "56.04284",
        "longt": "15.77709",
        "address": "797 Sanchez Drive Apt. 794nNew Thomas, RI 05256"
    },
    {
        "state": "SE",
        "name": "u00c5kers Krutbruk",
        "city": "u00c5kers Krutbruk",
        "prov": "Su00f6dermanland",
        "region": "Stru00e4ngnu00e4s Kommun",
        "latt": "59.26667",
        "longt": "17.11667",
        "address": "49821 Tara PlainnWilliammouth, AR 66746"
    },
    {
        "state": "SE",
        "name": "Kristine kyrka",
        "city": "Falun",
        "prov": "Dalarna",
        "region": "Falu kommun",
        "latt": "60.60774",
        "longt": "15.63083",
        "address": "615 Jimenez Extensions Apt. 741nBautistafurt, ID 55805"
    },
    {
        "state": "SE",
        "name": "Vissland",
        "city": "Fru00e4nsta",
        "prov": "Vu00e4sternorrland",
        "region": "u00c5nge kommun",
        "latt": "62.50045",
        "longt": "16.17926",
        "address": "11913 Wagner CurvenSouth Dawnmouth, CT 70890"
    },
    {
        "state": "SE",
        "name": "Buvalla",
        "city": "Limedsforsen",
        "prov": "Dalarna",
        "region": "Malung-Su00e4lens kommun",
        "latt": "60.88333",
        "longt": "13.38333",
        "address": "PSC 5144, Box 5385nAPO AE 66926"
    },
    {
        "state": "SE",
        "name": "Homnaflen",
        "city": "Gammelhomna",
        "prov": "Gu00e4vleborg",
        "region": "Ovanu00e5kers Kommun",
        "latt": "61.33333",
        "longt": "15.7",
        "address": "04531 Patricia CreeknNorth Markside, ME 26726"
    },
    {
        "state": "SE",
        "name": "Nu00e4u00e4s",
        "city": "Grabo",
        "prov": "Vu00e4stra Gu00f6taland",
        "region": "Lerums Kommun",
        "latt": "57.81002",
        "longt": "12.39713",
        "address": "608 Leonard Gateway Apt. 271nPort Lindseystad, KS 37529"
    },
    {
        "state": "SE",
        "name": "Ru00e5detorp",
        "city": "Radetorp",
        "prov": "Vu00e4rmland",
        "region": "Storfors Kommun",
        "latt": "59.43333",
        "longt": "14.33333",
        "address": "40116 Cooper Haven Apt. 605nLake Marcoborough, MS 07103"
    },
    {
        "state": "SE",
        "name": "Sagagallerian",
        "city": "Umeu00e5",
        "prov": "Vu00e4sterbotten",
        "region": "Umeu00e5 Kommun",
        "latt": "63.82758",
        "longt": "20.26013",
        "address": "USCGC GrossnFPO AA 50508"
    },
    {
        "state": "SE",
        "name": "Blu00e5sut",
        "city": "Vaenersborg",
        "prov": "Vu00e4stra Gu00f6taland",
        "region": "Vu00e4nersborgs Kommun",
        "latt": "58.37845",
        "longt": "12.29782",
        "address": "USNV HansennFPO AA 48801"
    },
    {
        "state": "SE",
        "name": "Vu00e5nevik",
        "city": "Paskallavik",
        "prov": "Kalmar",
        "region": "Oskarshamns Kommun",
        "latt": "57.18333",
        "longt": "16.45",
        "address": "38731 Justin Plains Apt. 245nMichaelburgh, CT 45876"
    },
    {
        "state": "SE",
        "name": "Bju00f6rnekullaklint",
        "city": "u00c5storp",
        "prov": "Sku00e5ne",
        "region": "u00c5storps Kommun",
        "latt": "56.13333",
        "longt": "12.95",
        "address": "679 Charles Run Suite 572nEast James, ND 82015"
    },
    {
        "state": "SE",
        "name": "Kuorpaholmen",
        "city": "Nurrholm",
        "prov": "Norrbotten",
        "region": "Arjeplogs Kommun",
        "latt": "66.00309",
        "longt": "17.76152",
        "address": "21852 Jim CausewaynSinghport, NE 87810"
    },
    {
        "state": "SE",
        "name": "Trotvallen",
        "city": "Alsju00f6arna",
        "prov": "Gu00e4vleborg",
        "region": "Ljusdals Kommun",
        "latt": "62.05",
        "longt": "15.96667",
        "address": "221 Johnson PortsnWest Loganshire, WY 82099"
    },
    {
        "state": "SE",
        "name": "Arnu00e4s",
        "city": "OErnskoeldsvik",
        "prov": "Vu00e4sternorrland",
        "region": "u00d6rnsku00f6ldsviks Kommun",
        "latt": "63.31781",
        "longt": "18.79426",
        "address": "55501 Ryan CrossingnNorth Lindastad, OK 55189"
    },
    {
        "state": "SE",
        "name": "Nimmern",
        "city": "Fulmestad",
        "prov": "u00d6stergu00f6tland",
        "region": "Kinda Kommun",
        "latt": "58.05",
        "longt": "15.78333",
        "address": "374 James Bridge Apt. 095nVictorchester, UT 17010"
    },
    {
        "state": "SE",
        "name": "Sku00e5pesundet",
        "city": "Myggenu00e4s",
        "prov": "Vu00e4stra Gu00f6taland",
        "region": "Orust",
        "latt": "58.09158",
        "longt": "11.70422",
        "address": "969 Schultz Orchard Suite 607nSmithton, MT 41954"
    },
    {
        "state": "SE",
        "name": "Sku00f6nvik",
        "city": "OEsthammar",
        "prov": "Uppsala",
        "region": "u00d6sthammars Kommun",
        "latt": "60.3",
        "longt": "18.33333",
        "address": "3390 Greer Circle Apt. 528nWest Ianburgh, MS 12023"
    },
    {
        "state": "SE",
        "name": "Skummeslu00f6vs Kyrka",
        "city": "Mellbystrand",
        "prov": "Halland",
        "region": "Laholms Kommun",
        "latt": "56.45148",
        "longt": "12.95644",
        "address": "59046 Casey InletnLake Maria, WV 32064"
    },
    {
        "state": "SE",
        "name": "Horn",
        "city": "Horn",
        "prov": "Kalmar",
        "region": "Borgholms Kommun",
        "latt": "57.18333",
        "longt": "16.93333",
        "address": "Unit 0070 Box 9561nDPO AE 06432"
    },
    {
        "state": "SE",
        "name": "Ru00f6nne",
        "city": "Ronne",
        "prov": "u00d6rebro",
        "region": "Askersunds Kommun",
        "latt": "58.93333",
        "longt": "15.01667",
        "address": "04367 Gina Parks Suite 258nWest Samuel, AK 28507"
    },
    {
        "state": "SE",
        "name": "u00c5svedal",
        "city": "Valdemarsvik",
        "prov": "u00d6stergu00f6tland",
        "region": "Valdemarsviks Kommun",
        "latt": "58.21667",
        "longt": "16.65",
        "address": "773 Susan LightnSouth Nicholas, SC 58399"
    },
    {
        "state": "SE",
        "name": "Sandhemssju00f6n",
        "city": "Sandhem",
        "prov": "Vu00e4stra Gu00f6taland",
        "region": "Mullsju00f6 kommun",
        "latt": "58",
        "longt": "13.78333",
        "address": "398 Stephanie Alley Apt. 177nMaryview, AK 42057"
    },
    {
        "state": "SE",
        "name": "Sevedsu00e4ng",
        "city": "Vu00e4xju00f6",
        "prov": "Kronoberg",
        "region": "Vu00e4xju00f6 Kommun",
        "latt": "56.83333",
        "longt": "14.75",
        "address": "56552 Yolanda TerracenNew Lynnton, PA 39064"
    },
    {
        "state": "SE",
        "name": "Othemars",
        "city": "Slite",
        "prov": "Gotland",
        "region": "Gotland",
        "latt": "57.73915",
        "longt": "18.72539",
        "address": "177 Farley Circle Apt. 035nMariafort, SC 31021"
    },
    {
        "state": "SE",
        "name": "Elinslund",
        "city": "Vaden",
        "prov": "Uppsala",
        "region": "u00d6sthammars Kommun",
        "latt": "60.23333",
        "longt": "18.6",
        "address": "2843 Wilson Street Suite 136nEast Evanmouth, ID 82703"
    },
    {
        "state": "SE",
        "name": "Sku00e4nninge-Allhelgona",
        "city": "Skaenninge",
        "prov": "u00d6stergu00f6tland",
        "region": "Mju00f6lby Kommun",
        "latt": "58.39484",
        "longt": "15.08661",
        "address": "742 Jones Park Suite 156nEsparzashire, PA 32825"
    },
    {
        "state": "SE",
        "name": "Riddartorp",
        "city": "Vu00e5rgu00e5rda",
        "prov": "Vu00e4stra Gu00f6taland",
        "region": "Vu00e5rgu00e5rda Kommun",
        "latt": "58.01667",
        "longt": "12.9",
        "address": "088 Christopher Ferry Apt. 400nPort Clinton, NE 51698"
    },
    {
        "state": "SE",
        "name": "Slu00e4ttlyckan",
        "city": "Froesakull",
        "prov": "Halland",
        "region": "Halmstads Kommun",
        "latt": "56.68333",
        "longt": "12.71667",
        "address": "2627 Stewart MewsnAprilbury, CO 88269"
    },
    {
        "state": "SE",
        "name": "u00c4rentuna",
        "city": "Gamla Uppsala",
        "prov": "Uppsala",
        "region": "Uppsala Kommun",
        "latt": "59.95",
        "longt": "17.6",
        "address": "980 Crystal Cape Apt. 613nSouth Richard, AL 46035"
    },
    {
        "state": "SE",
        "name": "Ku00e5rekulla",
        "city": "Malmbu00e4ck",
        "prov": "Ju00f6nku00f6ping",
        "region": "Nu00e4ssju00f6 Kommun",
        "latt": "57.61667",
        "longt": "14.43333",
        "address": "9616 Kevin MissionnEast Edwardport, ID 97927"
    },
    {
        "state": "SE",
        "name": "Chinateatern",
        "city": "Stockholm",
        "prov": "Stockholm",
        "region": "Stockholms Kommun",
        "latt": "59.33246",
        "longt": "18.07341",
        "address": "78496 Molina PortsnPort Crystalton, MN 63702"
    },
    {
        "state": "SE",
        "name": "Kyrkebykile",
        "city": "Stenungsund",
        "prov": "Vu00e4stra Gu00f6taland",
        "region": "Stenungsunds Kommun",
        "latt": "58",
        "longt": "11.816667",
        "address": "14087 Megan HollownSuarezmouth, MN 32577"
    },
    {
        "state": "SE",
        "name": "Rolfsbol",
        "city": "Ekebol",
        "prov": "Vu00e4rmland",
        "region": "Grums Kommun",
        "latt": "59.46667",
        "longt": "12.86667",
        "address": "007 Dylan Course Suite 766nEast Mikeborough, CA 40397"
    },
    {
        "state": "SE",
        "name": "Sku00e5pesundet",
        "city": "Myggenu00e4s",
        "prov": "Vu00e4stra Gu00f6taland",
        "region": "Orust",
        "latt": "58.09158",
        "longt": "11.70422",
        "address": "53552 Johnson Meadow Apt. 905nCallahanchester, NM 91639"
    },
    {
        "state": "SE",
        "name": "Hingsten",
        "city": "Asksku00e4r",
        "prov": "Uppsala",
        "region": "u00d6sthammars Kommun",
        "latt": "60.53333",
        "longt": "18.38333",
        "address": "226 Johnny TurnpikenSouth Mariaville, NH 53444"
    },
    {
        "state": "SE",
        "name": "Erstaviksbadet station",
        "city": "Boo",
        "prov": "Stockholm",
        "region": "Nacka Kommun",
        "latt": "59.27296",
        "longt": "18.28512",
        "address": "97243 Chen TurnpikenNorth Kevin, CO 40519"
    },
    {
        "state": "SE",
        "name": "Vinterviken",
        "city": "Vaesteras",
        "prov": "Vu00e4stmanland",
        "region": null,
        "latt": "59.56667",
        "longt": "16.6",
        "address": "02586 Jones Corner Suite 179nPort Robert, CT 73192"
    },
    {
        "state": "SE",
        "name": "Kirunavaara",
        "city": "Kiruna",
        "prov": "Norrbotten",
        "region": "Kiruna Kommun",
        "latt": "67.81667",
        "longt": "20.2",
        "address": "855 Robinson Skyway Suite 441nRonaldmouth, KS 36776"
    },
    {
        "state": "SE",
        "name": "Fagerhult",
        "city": "Fagerhult",
        "prov": "Vu00e4stra Gu00f6taland",
        "region": "Fu00e4rgelanda Kommun",
        "latt": "58.75",
        "longt": "12.03333",
        "address": "PSC 3120, Box 8486nAPO AP 46741"
    },
    {
        "state": "SE",
        "name": "Horsaryd",
        "city": "Karlshamn",
        "prov": "Blekinge",
        "region": "Karlshamns kommun",
        "latt": "56.18333",
        "longt": "14.81667",
        "address": "6448 Chloe Park Suite 344nLake Jonathan, WV 96462"
    },
    {
        "state": "SE",
        "name": "Julberga",
        "city": "Julberga",
        "prov": "Vu00e4stmanland",
        "region": "Ku00f6pings Kommun",
        "latt": "59.53333",
        "longt": "15.88333",
        "address": "2907 Joshua DamnEast Juan, MO 76245"
    },
    {
        "state": "SE",
        "name": "Vinterviken",
        "city": "Vaesteras",
        "prov": "Vu00e4stmanland",
        "region": null,
        "latt": "59.56667",
        "longt": "16.6",
        "address": "Unit 2617 Box 1452nDPO AP 13771"
    },
    {
        "state": "SE",
        "name": "Utterkalven",
        "city": "Tumba",
        "prov": "Stockholm",
        "region": "Botkyrka Kommun",
        "latt": "59.19413",
        "longt": "17.79819",
        "address": "59201 Wyatt Junction Suite 810nPort Hannahchester, HI 79453"
    },
    {
        "state": "SE",
        "name": "Fagerhult",
        "city": "Fagerhult",
        "prov": "Vu00e4stra Gu00f6taland",
        "region": "Fu00e4rgelanda Kommun",
        "latt": "58.75",
        "longt": "12.03333",
        "address": "Unit 9053 Box 1334nDPO AP 12521"
    },
    {
        "state": "SE",
        "name": "Sandsju00f6ryd",
        "city": "Aseda",
        "prov": "Kronoberg",
        "region": "Uppvidinge Kommun",
        "latt": "57.13333",
        "longt": "15.4",
        "address": "850 Destiny ThroughwaynLaurafurt, CT 75007"
    },
    {
        "state": "SE",
        "name": "Broestorp",
        "city": "Hittarp",
        "prov": "Sku00e5ne",
        "region": "u00d6stra Gu00f6inge Kommun",
        "latt": "56.25",
        "longt": "14.15",
        "address": "3861 Davis Club Suite 840nWest Joelbury, FL 55954"
    },
    {
        "state": "SE",
        "name": "Blockgrundet",
        "city": "Brattu00e5s",
        "prov": "Vu00e4sterbotten",
        "region": "Skellefteu00e5 Kommun",
        "latt": "64.51667",
        "longt": "21.56667",
        "address": "20390 May Plains Suite 027nWest Danielland, GA 08557"
    },
    {
        "state": "SE",
        "name": "Lirudsvu00e5len",
        "city": "Torsby",
        "prov": "Vu00e4rmland",
        "region": "Torsby Kommun",
        "latt": "60.13333",
        "longt": "13.05",
        "address": "7077 Bryan MountainsnWest Lindsayhaven, IL 19408"
    },
    {
        "state": "SE",
        "name": "Hu00e5skesta",
        "city": "Hallstahammar",
        "prov": "Vu00e4stmanland",
        "region": "Hallstahammars Kommun",
        "latt": "59.56667",
        "longt": "16.3",
        "address": "1433 Haley Fort Suite 204nNorth Jeffery, MI 85562"
    },
    {
        "state": "SE",
        "name": "u00c4rentuna",
        "city": "Gamla Uppsala",
        "prov": "Uppsala",
        "region": "Uppsala Kommun",
        "latt": "59.95",
        "longt": "17.6",
        "address": "9435 Miguel Trail Suite 820nNorth Catherineview, NH 37419"
    },
    {
        "state": "SE",
        "name": "Djuramu00e5sa",
        "city": "Hittarp",
        "prov": "Sku00e5ne",
        "region": "Helsingborg",
        "latt": "56.13333",
        "longt": "12.63333",
        "address": "6660 Miller Orchard Suite 632nRyanmouth, MD 39869"
    },
    {
        "state": "SE",
        "name": "Gu00f6teborgs stad",
        "city": "Goeteborg",
        "prov": "Vu00e4stra Gu00f6taland",
        "region": "Gu00f6teborgs stad",
        "latt": "57.72288",
        "longt": "11.94577",
        "address": "018 Rachel Courts Suite 005nVanessafort, WA 23409"
    },
    {
        "state": "SE",
        "name": "Ru00e4ttelsebo",
        "city": "Rattelsebo",
        "prov": "Kalmar",
        "region": "Hultsfreds Kommun",
        "latt": "57.55",
        "longt": "15.68333",
        "address": "99211 Gonzalez ManornGallowayfort, ID 15298"
    },
    {
        "state": "SE",
        "name": "Sillhu00f6vdingen",
        "city": "Holmsjoe",
        "prov": "Blekinge",
        "region": "Karlskrona Kommun",
        "latt": "56.41667",
        "longt": "15.55",
        "address": "525 John CourtnSouth Kristafurt, OR 80475"
    },
    {
        "state": "SE",
        "name": "Dansens hus",
        "city": "Stockholm",
        "prov": "Stockholm",
        "region": "Stockholms Kommun",
        "latt": "59.33622",
        "longt": "18.05637",
        "address": "509 Bridges GlensnMoranside, WV 35094"
    },
    {
        "state": "SE",
        "name": "Ljusaberg",
        "city": "Nybro",
        "prov": "Kalmar",
        "region": "Nybro Kommun",
        "latt": "56.8",
        "longt": "15.83333",
        "address": "522 Moore CornernWalshbury, MD 40363"
    },
    {
        "state": "SE",
        "name": "u00d6rminge",
        "city": "Linghem",
        "prov": "u00d6stergu00f6tland",
        "region": "Linku00f6pings Kommun",
        "latt": "58.4",
        "longt": "15.76667",
        "address": "016 Nichols SquaresnWest Jamesborough, KY 95988"
    },
    {
        "state": "SE",
        "name": "Ku00e4ringtru00e4sket",
        "city": "Gransju00f6riset",
        "prov": "Vu00e4sterbotten",
        "region": "Vilhelmina Kommun",
        "latt": "64.48333",
        "longt": "17.58333",
        "address": "8235 Marvin Squares Apt. 819nMadisonhaven, OK 18692"
    },
    {
        "state": "SE",
        "name": "Tansju00f6",
        "city": "Vu00e4stra Tansju00f6",
        "prov": "Kronoberg",
        "region": "Markaryds Kommun",
        "latt": "56.55",
        "longt": "13.6",
        "address": "34036 Lopez Crossing Apt. 281nLake Jamesborough, GA 10537"
    },
    {
        "state": "SE",
        "name": "Mu00f6rttju00e4rn",
        "city": "Mu00f6rttju00e4rn",
        "prov": "Vu00e4sterbotten",
        "region": "Norsju00f6 Kommun",
        "latt": "64.9",
        "longt": "20.08333",
        "address": "740 Joyce IslandnEast Chase, PA 71908"
    },
    {
        "state": "SE",
        "name": "Skalpen",
        "city": "Sillu00e4ng",
        "prov": "Gu00e4vleborg",
        "region": "Su00f6derhamns Kommun",
        "latt": "61.33333",
        "longt": "17.225",
        "address": "485 Lee Key Suite 961nPhillipsland, RI 37801"
    },
    {
        "state": "SE",
        "name": "u00d6sterbo",
        "city": "Osterbo",
        "prov": "Gu00e4vleborg",
        "region": "Sandvikens Kommun",
        "latt": "60.45",
        "longt": "16.71667",
        "address": "1279 Larry ParkwaysnTracyhaven, HI 34955"
    },
    {
        "state": "SE",
        "name": "Chinateatern",
        "city": "Stockholm",
        "prov": "Stockholm",
        "region": "Stockholms Kommun",
        "latt": "59.33246",
        "longt": "18.07341",
        "address": "7396 Guerra SummitnRichardborough, IA 59373"
    },
    {
        "state": "SE",
        "name": "Skepphussju00f6n",
        "city": "Vasselbodarna",
        "prov": "Dalarna",
        "region": "u00c4lvdalens kommun",
        "latt": "61.16667",
        "longt": "13.68333",
        "address": "10648 Linda ValleynEast Christina, NE 39572"
    },
    {
        "state": "SE",
        "name": "Svartklippen",
        "city": "Avatru00e4sk",
        "prov": "Vu00e4sterbotten",
        "region": "Dorotea Kommun",
        "latt": "64.4",
        "longt": "16.28333",
        "address": "54622 Brandon Forest Apt. 732nGarrettbury, VT 02816"
    },
    {
        "state": "SE",
        "name": "Horn",
        "city": "Horn",
        "prov": "Kalmar",
        "region": "Borgholms Kommun",
        "latt": "57.18333",
        "longt": "16.93333",
        "address": "7972 Burke VistanKimbury, AR 16858"
    },
    {
        "state": "SE",
        "name": "Nyu00e4ngsholm",
        "city": "Anderstorp",
        "prov": "Vu00e4stra Gu00f6taland",
        "region": "Gullspu00e5ngs Kommun",
        "latt": "58.86667",
        "longt": "14.21667",
        "address": "47210 Williams OrchardnWest Christina, IL 26220"
    },
    {
        "state": "SE",
        "name": "Germundhu00f6jden",
        "city": "Nordbyn",
        "prov": "Ju00e4mtland",
        "region": "u00c5re kommun",
        "latt": "63.8",
        "longt": "12.98333",
        "address": "PSC 5500, Box 2913nAPO AP 15519"
    },
    {
        "state": "SE",
        "name": "Erstaviksbadet station",
        "city": "Boo",
        "prov": "Stockholm",
        "region": "Nacka Kommun",
        "latt": "59.27296",
        "longt": "18.28512",
        "address": "43222 Susan RoutenCollinstown, VA 83704"
    },
    {
        "state": "SE",
        "name": "Viby",
        "city": "Vretstorp",
        "prov": "u00d6rebro",
        "region": "Hallsbergs Kommun",
        "latt": "59.06066",
        "longt": "14.87138",
        "address": "362 Glover Corner Suite 207nEast Brandon, WY 92738"
    },
    {
        "state": "SE",
        "name": "Galtern",
        "city": "Kungsu00f6r",
        "prov": "Vu00e4stmanland",
        "region": "Kungsu00f6rs kommun",
        "latt": "59.45",
        "longt": "16.15",
        "address": "09793 Sally StreetnEast Chris, TN 21989"
    },
    {
        "state": "SE",
        "name": "u00d6stra Grysju00f6n",
        "city": "Backadammen",
        "prov": "Vu00e4rmland",
        "region": "Torsby Kommun",
        "latt": "60.53333",
        "longt": "13.3",
        "address": "Unit 8060 Box 2291nDPO AP 25370"
    },
    {
        "state": "SE",
        "name": "Hju00e4rtums Kyrka",
        "city": "Lilla Edet",
        "prov": "Vu00e4stra Gu00f6taland",
        "region": "Lilla Edets Kommun",
        "latt": "58.18151",
        "longt": "12.10991",
        "address": "PSC 2890, Box 1856nAPO AA 16022"
    },
    {
        "state": "SE",
        "name": "Kristine kyrka",
        "city": "Falun",
        "prov": "Dalarna",
        "region": "Falu kommun",
        "latt": "60.60774",
        "longt": "15.63083",
        "address": "Unit 9750 Box 6147nDPO AE 18471"
    },
    {
        "state": "SE",
        "name": "Lilla Stockhult",
        "city": "Killeberg",
        "prov": "Sku00e5ne",
        "region": "Osby kommun",
        "latt": "56.46427",
        "longt": "14.08357",
        "address": "515 James Island Apt. 850nSouth Bradyville, NJ 96511"
    },
    {
        "state": "SE",
        "name": "Hingsten",
        "city": "Asksku00e4r",
        "prov": "Uppsala",
        "region": "u00d6sthammars Kommun",
        "latt": "60.53333",
        "longt": "18.38333",
        "address": "PSC 2991, Box 6050nAPO AP 73673"
    },
    {
        "state": "SE",
        "name": "Stubbelycke",
        "city": "Roedeby",
        "prov": "Blekinge",
        "region": "Karlskrona Kommun",
        "latt": "56.3",
        "longt": "15.66667",
        "address": "Unit 3721 Box 4056nDPO AP 26683"
    },
    {
        "state": "SE",
        "name": "Solberg",
        "city": "Solberg",
        "prov": "Vu00e4sternorrland",
        "region": "Hu00e4rnu00f6sands Kommun",
        "latt": "62.65",
        "longt": "17.65",
        "address": "815 Graves Underpass Suite 671nArellanoside, MI 65677"
    },
    {
        "state": "SE",
        "name": "Tavlan",
        "city": "Valbo",
        "prov": "Gu00e4vleborg",
        "region": "Gu00e4vle Kommun",
        "latt": "60.6264",
        "longt": "16.98263",
        "address": "0205 Gaines RoadsnLake Lauraview, MD 34617"
    },
    {
        "state": "SE",
        "name": "Kutgrundet",
        "city": "Hudiksvall",
        "prov": "Gu00e4vleborg",
        "region": "Hudiksvalls Kommun",
        "latt": "61.71667",
        "longt": "17.11667",
        "address": "73007 Ramirez Meadow Suite 725nMurphybury, WA 94522"
    },
    {
        "state": "SE",
        "name": "Storbodberget",
        "city": "Ytterhogdal",
        "prov": "Ju00e4mtland",
        "region": "Hu00e4rjedalens kommun",
        "latt": "62.11667",
        "longt": "14.9",
        "address": "14753 White Bypass Suite 263nWest Kimberly, ID 02294"
    },
    {
        "state": "SE",
        "name": "u00d6vre u00c4mten",
        "city": "Kulltorp",
        "prov": "Kalmar",
        "region": "Vu00e4sterviks Kommun",
        "latt": "57.75",
        "longt": "16.11667",
        "address": "0593 Richard FallnNorth Claireton, VT 10278"
    },
    {
        "state": "SE",
        "name": "Stu00f6ckeby",
        "city": "Umeu00e5",
        "prov": "Vu00e4sterbotten",
        "region": "Umeu00e5 Kommun",
        "latt": "63.77767",
        "longt": "20.19768",
        "address": "76849 Smith FieldsnEast Teresa, LA 44773"
    },
    {
        "state": "SE",
        "name": "Marieholmskyrkan",
        "city": "Mariestad",
        "prov": "Vu00e4stra Gu00f6taland",
        "region": "Mariestads Kommun",
        "latt": "58.7045",
        "longt": "13.80426",
        "address": "3649 Bryant TunnelnWilliamsberg, WA 41143"
    },
    {
        "state": "SE",
        "name": "Granmor",
        "city": "Ru00e4ttviks Kommun",
        "prov": "Dalarna",
        "region": "Ru00e4ttviks Kommun",
        "latt": "60.93333",
        "longt": "15.03333",
        "address": "672 Hamilton Isle Suite 465nPort Aprilmouth, AL 75484"
    },
    {
        "state": "SE",
        "name": "Stora Grytgu00f6len",
        "city": "Oskarshamn",
        "prov": "Kalmar",
        "region": "Oskarshamns Kommun",
        "latt": "57.233056",
        "longt": "16.366667",
        "address": "220 Melissa SummitnJoshuafort, NY 92014"
    },
    {
        "state": "SE",
        "name": "Sku00e4nninge-Allhelgona",
        "city": "Skaenninge",
        "prov": "u00d6stergu00f6tland",
        "region": "Mju00f6lby Kommun",
        "latt": "58.39484",
        "longt": "15.08661",
        "address": "912 Daniel Green Apt. 804nTinaburgh, ID 48787"
    },
    {
        "state": "SE",
        "name": "Bottenu00e5n",
        "city": "Lindesberg",
        "prov": "u00d6rebro",
        "region": "Lindesbergs Kommun",
        "latt": "59.583333",
        "longt": "15.216667",
        "address": "232 Christopher HillsnWest Nataliemouth, IN 44051"
    },
    {
        "state": "SE",
        "name": "Kolsnu00e4s station",
        "city": "Sunne",
        "prov": "Vu00e4rmland",
        "region": "Sunne Kommun",
        "latt": "59.82565",
        "longt": "13.14072",
        "address": "710 Kim Ville Apt. 590nMooreside, NV 58717"
    },
    {
        "state": "SE",
        "name": "Ku00e4llstorp",
        "city": "Kaellstorp",
        "prov": "Halland",
        "region": "Varbergs Kommun",
        "latt": "57.26667",
        "longt": "12.18333",
        "address": "9528 Madison RapidnOdonnellland, AK 70551"
    },
    {
        "state": "SE",
        "name": "Hu00e4stviken",
        "city": "Hu00e4stviken",
        "prov": "Vu00e4sternorrland",
        "region": "Hu00e4rnu00f6sands Kommun",
        "latt": "62.53278",
        "longt": "17.87278",
        "address": "76149 Jerry IslandnNicoleburgh, KS 46793"
    },
    {
        "state": "SE",
        "name": "Dansens hus",
        "city": "Stockholm",
        "prov": "Stockholm",
        "region": "Stockholms Kommun",
        "latt": "59.33622",
        "longt": "18.05637",
        "address": "47279 Watts Trail Apt. 563nAdamsland, NV 86551"
    },
    {
        "state": "SE",
        "name": "Lysingsbadets Golfklubb",
        "city": "Vu00e4stervik",
        "prov": "Kalmar",
        "region": "Vu00e4sterviks Kommun",
        "latt": "57.73491",
        "longt": "16.66403",
        "address": "67108 Vazquez Key Suite 529nNew Erinland, WY 10790"
    },
    {
        "state": "SE",
        "name": "Tovatorp",
        "city": "Sku00f6vde",
        "prov": "Vu00e4stra Gu00f6taland",
        "region": "Sku00f6vde Kommun",
        "latt": "58.45",
        "longt": "13.91667",
        "address": "96578 Brian Spring Apt. 909nWest Johnview, SD 10595"
    },
    {
        "state": "SE",
        "name": "Funnu00e4sdalssju00f6n",
        "city": "Funu00e4sdalen",
        "prov": "Ju00e4mtland",
        "region": "Hu00e4rjedalens kommun",
        "latt": "62.53333",
        "longt": "12.55",
        "address": "66056 Carter CoursenLaurenfort, MO 53704"
    },
    {
        "state": "SE",
        "name": "Ru00f6rbu00e4cksnu00e4s",
        "city": "Roerbaecksnaes",
        "prov": "Dalarna",
        "region": "Malung-Su00e4lens kommun",
        "latt": "61.13429",
        "longt": "12.80937",
        "address": "PSC 9502, Box 4999nAPO AE 51542"
    },
    {
        "state": "SE",
        "name": "Uddfors",
        "city": "Uddfors",
        "prov": "Vu00e4sternorrland",
        "region": "Timru00e5 Kommun",
        "latt": "62.68485",
        "longt": "17.16747",
        "address": "960 Ryan Ferry Suite 899nLake Gina, OR 56338"
    },
    {
        "state": "SE",
        "name": "Stora Grytgu00f6len",
        "city": "Oskarshamn",
        "prov": "Kalmar",
        "region": "Oskarshamns Kommun",
        "latt": "57.233056",
        "longt": "16.366667",
        "address": "3764 Tucker Center Apt. 272nLeemouth, TX 17014"
    },
    {
        "state": "SE",
        "name": "Kvedesta",
        "city": "Su00f6dertu00e4lje",
        "prov": "Stockholm",
        "region": "Su00f6dertu00e4lje Kommun",
        "latt": "59.15",
        "longt": "17.61667",
        "address": "994 Carl SquarenHarrisfort, WV 65861"
    },
    {
        "state": "SE",
        "name": "Stora Skog",
        "city": "Yttersju00f6holm",
        "prov": "Ju00f6nku00f6ping",
        "region": "Gislaveds Kommun",
        "latt": "57.08333",
        "longt": "13.48333",
        "address": "0037 Victoria Ports Suite 582nSouth Andre, NV 30632"
    },
    {
        "state": "SE",
        "name": "Klippan",
        "city": "Kaellby",
        "prov": "Vu00e4stra Gu00f6taland",
        "region": "Gu00f6tene Kommun",
        "latt": "58.55",
        "longt": "13.31667",
        "address": "638 Cory Valleys Suite 516nJameston, CO 27463"
    },
    {
        "state": "SE",
        "name": "Kvissleby",
        "city": "Kvissleby",
        "prov": "Vu00e4sternorrland",
        "region": "Sundsvalls Kommun",
        "latt": "62.29361",
        "longt": "17.375",
        "address": "Unit 3315 Box 8919nDPO AE 33679"
    },
    {
        "state": "SE",
        "name": "Elinslund",
        "city": "Vaden",
        "prov": "Uppsala",
        "region": "u00d6sthammars Kommun",
        "latt": "60.23333",
        "longt": "18.6",
        "address": "96191 Fisher Centers Apt. 368nLake Gregorybury, AZ 72864"
    },
    {
        "state": "SE",
        "name": "Raudojaure",
        "city": "Harru00e5",
        "prov": "Norrbotten",
        "region": "Gu00e4llivare kommun",
        "latt": "67.41667",
        "longt": "20.01667",
        "address": "978 Gomez Stravenue Suite 007nAmyside, VT 65467"
    },
    {
        "state": "SE",
        "name": "Sandsju00f6ryd",
        "city": "Aseda",
        "prov": "Kronoberg",
        "region": "Uppvidinge Kommun",
        "latt": "57.13333",
        "longt": "15.4",
        "address": "2973 Whitney Stravenue Apt. 387nMarkborough, MD 65057"
    },
    {
        "state": "SE",
        "name": "Norrsu00e5nna",
        "city": "Berghemmet",
        "prov": "Ju00f6nku00f6ping",
        "region": "Eksju00f6 Kommun",
        "latt": "57.6",
        "longt": "15.25",
        "address": "174 Price ForgesnNorth Zachary, SD 88949"
    },
    {
        "state": "SE",
        "name": "Skogsby",
        "city": "Skogsby",
        "prov": "Kalmar",
        "region": "Mu00f6rbylu00e5nga Kommun",
        "latt": "56.63643",
        "longt": "16.52321",
        "address": "53122 Collins Orchard Suite 800nAndrewsmouth, TX 49103"
    },
    {
        "state": "SE",
        "name": "Spannarps Kyrka",
        "city": "Tvu00e5u00e5ker",
        "prov": "Halland",
        "region": "Varbergs Kommun",
        "latt": "57.07592",
        "longt": "12.3732",
        "address": "05139 Deborah ParkwaysnWest Patriciaburgh, LA 63105"
    },
    {
        "state": "SE",
        "name": "Villsberga",
        "city": "Biskopskulla",
        "prov": "Uppsala",
        "region": "Enku00f6pings Kommun",
        "latt": "59.71667",
        "longt": "17.21667",
        "address": "PSC 8757, Box 5086nAPO AE 79532"
    },
    {
        "state": "SE",
        "name": "Julberga",
        "city": "Julberga",
        "prov": "Vu00e4stmanland",
        "region": "Ku00f6pings Kommun",
        "latt": "59.53333",
        "longt": "15.88333",
        "address": "0438 Jonathan Prairie Suite 074nJessicafurt, IN 00896"
    },
    {
        "state": "SE",
        "name": "Tungsberg",
        "city": "Finsthu00f6gst",
        "prov": "Gu00e4vleborg",
        "region": null,
        "latt": "61.28333",
        "longt": "15.53333",
        "address": "089 Barron FordnWhitefurt, ME 32842"
    },
    {
        "state": "SE",
        "name": "Spannarps Kyrka",
        "city": "Tvu00e5u00e5ker",
        "prov": "Halland",
        "region": "Varbergs Kommun",
        "latt": "57.07592",
        "longt": "12.3732",
        "address": "94703 Whitehead Underpass Apt. 873nAudreybury, KY 16960"
    },
    {
        "state": "SE",
        "name": "Tulebosju00f6n",
        "city": "Moelndal",
        "prov": "Vu00e4stra Gu00f6taland",
        "region": "Mu00f6lndals kommun",
        "latt": "57.61667",
        "longt": "12.08333",
        "address": "671 Joshua Mission Suite 307nKaylaberg, NH 49414"
    },
    {
        "state": "SE",
        "name": "Lirudsvu00e5len",
        "city": "Torsby",
        "prov": "Vu00e4rmland",
        "region": "Torsby Kommun",
        "latt": "60.13333",
        "longt": "13.05",
        "address": "92783 Brittany Vista Apt. 524nRileyborough, OR 62702"
    },
    {
        "state": "SE",
        "name": "Su00f6vdeborg",
        "city": "Sju00f6bo",
        "prov": "Sku00e5ne",
        "region": "Sju00f6bo Kommun",
        "latt": "55.58333",
        "longt": "13.7",
        "address": "849 Spencer Rest Suite 875nLake Darrell, CT 79469"
    },
    {
        "state": "SE",
        "name": "Ettarp",
        "city": "Dalby",
        "prov": "Sku00e5ne",
        "region": "Lunds Kommun",
        "latt": "55.61667",
        "longt": "13.36667",
        "address": "902 Bridges Road Apt. 255nThompsontown, TN 74878"
    },
    {
        "state": "SE",
        "name": "Kuppersju00f6n",
        "city": "Fridafors",
        "prov": "Kronoberg",
        "region": "Tingsryds Kommun",
        "latt": "56.44773",
        "longt": "14.67494",
        "address": "766 Sanchez Extension Apt. 074nSouth Jessica, NE 71285"
    },
    {
        "state": "SE",
        "name": "Bryttbyn",
        "city": "Bryttbyn",
        "prov": "Uppsala",
        "region": "u00d6sthammars Kommun",
        "latt": "60.23333",
        "longt": "17.85",
        "address": "6772 Bianca CrescentnSouth Alexandershire, NE 11569"
    },
    {
        "state": "SE",
        "name": "Stu00f6desju00f6n",
        "city": "Vu00e4sterlo",
        "prov": "Vu00e4sternorrland",
        "region": "Sundsvalls Kommun",
        "latt": "62.4",
        "longt": "16.7",
        "address": "16390 Linda DrivesnWest Dawn, TN 05886"
    },
    {
        "state": "SE",
        "name": "u00d6rminge",
        "city": "Linghem",
        "prov": "u00d6stergu00f6tland",
        "region": "Linku00f6pings Kommun",
        "latt": "58.4",
        "longt": "15.76667",
        "address": "8074 Turner Plain Apt. 123nElizabethshire, AL 94487"
    },
    {
        "state": "SE",
        "name": "Uddersju00f6n",
        "city": "Uddersju00f6n",
        "prov": "Vu00e4sternorrland",
        "region": "u00d6rnsku00f6ldsviks Kommun",
        "latt": "63.71667",
        "longt": "18.3",
        "address": "25192 Johnson Cape Apt. 589nPort Prestonside, NJ 60887"
    },
    {
        "state": "SE",
        "name": "u00d6rgrynnan",
        "city": "Ursviken",
        "prov": "Vu00e4sterbotten",
        "region": "Skellefteu00e5 Kommun",
        "latt": "64.675",
        "longt": "21.21667",
        "address": "6246 Rachael Ranch Suite 915nPort Kimburgh, VT 97373"
    },
    {
        "state": "SE",
        "name": "Klarabro",
        "city": "Jakobsheden",
        "prov": "Vu00e4rmland",
        "region": "Torsby Kommun",
        "latt": "60.75",
        "longt": "12.76667",
        "address": "Unit 0506 Box 8034nDPO AA 64835"
    },
    {
        "state": "SE",
        "name": "Hytthaget",
        "city": "Forshaga",
        "prov": "Vu00e4rmland",
        "region": "Forshaga Kommun",
        "latt": "59.5549",
        "longt": "13.52964",
        "address": "3393 Shelly SpursnSouth Brittany, AK 74867"
    },
    {
        "state": "SE",
        "name": "Utukkajaure",
        "city": "Ladnijaure",
        "prov": "Norrbotten",
        "region": "Gu00e4llivare kommun",
        "latt": "67.26667",
        "longt": "20.2",
        "address": "7182 John Pike Apt. 437nNavarroton, AL 18031"
    },
    {
        "state": "SE",
        "name": "Karlstads domkyrkofu00f6rs.",
        "city": "Karlstad",
        "prov": "Vu00e4rmland",
        "region": "Karlstads Kommun",
        "latt": "59.3815",
        "longt": "13.50672",
        "address": "415 William Court Apt. 907nReneeville, MA 33162"
    },
    {
        "state": "SE",
        "name": "Stru00f6mby",
        "city": "Stru00f6mby",
        "prov": "Kalmar",
        "region": "Torsu00e5s Kommun",
        "latt": "56.5",
        "longt": "15.9",
        "address": "5564 Bell Path Suite 225nEast Joseph, NM 00823"
    },
    {
        "state": "SE",
        "name": "Bryttbyn",
        "city": "Bryttbyn",
        "prov": "Uppsala",
        "region": "u00d6sthammars Kommun",
        "latt": "60.23333",
        "longt": "17.85",
        "address": "USNS MartineznFPO AA 87239"
    },
    {
        "state": "SE",
        "name": "Hu00e4ttstau00e5sen",
        "city": "Kolsva",
        "prov": "Vu00e4stmanland",
        "region": "Ku00f6pings Kommun",
        "latt": "59.6",
        "longt": "15.91667",
        "address": "31110 Jimenez TerracenAnnaside, MN 63564"
    },
    {
        "state": "SE",
        "name": "Ku00e4ringtru00e4sket",
        "city": "Gransju00f6riset",
        "prov": "Vu00e4sterbotten",
        "region": "Vilhelmina Kommun",
        "latt": "64.48333",
        "longt": "17.58333",
        "address": "9813 James Ridge Apt. 464nJoneston, TN 56925"
    },
    {
        "state": "SE",
        "name": "Sku00e5pesundet",
        "city": "Myggenu00e4s",
        "prov": "Vu00e4stra Gu00f6taland",
        "region": "Orust",
        "latt": "58.09158",
        "longt": "11.70422",
        "address": "7911 Virginia Ridge Suite 907nLake Ryanside, WV 00987"
    },
    {
        "state": "SE",
        "name": "Dansens hus",
        "city": "Stockholm",
        "prov": "Stockholm",
        "region": "Stockholms Kommun",
        "latt": "59.33622",
        "longt": "18.05637",
        "address": "2644 Ross Knoll Suite 749nTurnerchester, IL 32190"
    },
    {
        "state": "SE",
        "name": "Vinterviken",
        "city": "Vaesteras",
        "prov": "Vu00e4stmanland",
        "region": null,
        "latt": "59.56667",
        "longt": "16.6",
        "address": "532 Joseph Road Suite 461nNorth Kara, CO 46157"
    },
    {
        "state": "SE",
        "name": "Haganu00e4s",
        "city": "Haganas",
        "prov": "Dalarna",
        "region": "Hedemora Kommun",
        "latt": "60.35",
        "longt": "16.05",
        "address": "1972 Terrell DrivenEast Laura, WV 02068"
    },
    {
        "state": "SE",
        "name": "u00d6rsju00f6bergsbu00e4ck",
        "city": "Bu00e5rberget",
        "prov": "Vu00e4rmland",
        "region": "Malung-Su00e4lens kommun",
        "latt": "60.73333",
        "longt": "13.1",
        "address": "Unit 7168 Box 1792nDPO AP 22844"
    },
    {
        "state": "SE",
        "name": "Sorru00f6d",
        "city": "Ljungbyhed",
        "prov": "Sku00e5ne",
        "region": "Klippans Kommun",
        "latt": "56.1",
        "longt": "13.26667",
        "address": "26163 Price Turnpike Suite 951nBethburgh, NY 02412"
    },
    {
        "state": "SE",
        "name": "Sku00e5pesundet",
        "city": "Myggenu00e4s",
        "prov": "Vu00e4stra Gu00f6taland",
        "region": "Orust",
        "latt": "58.09158",
        "longt": "11.70422",
        "address": "2363 Jeremy JunctionsnEast Erinton, ID 75163"
    },
    {
        "state": "SE",
        "name": "Nu00e4s",
        "city": "Nas",
        "prov": "Vu00e4rmland",
        "region": "Arvika Kommun",
        "latt": "59.66667",
        "longt": "12.78333",
        "address": "7392 Williams LandnNorth Jenniferstad, IN 26159"
    },
    {
        "state": "SE",
        "name": "Nebotru00e4sket",
        "city": "Sodra Abyn",
        "prov": "Vu00e4sterbotten",
        "region": "Skellefteu00e5 Kommun",
        "latt": "64.56667",
        "longt": "20.58333",
        "address": "4146 Clements Union Suite 508nEast Kristopher, NE 09782"
    },
    {
        "state": "SE",
        "name": "Gu00f6teborgs stad",
        "city": "Goeteborg",
        "prov": "Vu00e4stra Gu00f6taland",
        "region": "Gu00f6teborgs stad",
        "latt": "57.72288",
        "longt": "11.94577",
        "address": "6687 Joseph HavennMarquezmouth, DC 81586"
    },
    {
        "state": "SE",
        "name": "Spannarps Kyrka",
        "city": "Tvu00e5u00e5ker",
        "prov": "Halland",
        "region": "Varbergs Kommun",
        "latt": "57.07592",
        "longt": "12.3732",
        "address": "44411 Obrien Drive Apt. 367nEllischester, OH 67784"
    },
    {
        "state": "SE",
        "name": "Bankekinds Kyrka",
        "city": "Bankekind",
        "prov": "u00d6stergu00f6tland",
        "region": "Linku00f6pings Kommun",
        "latt": "58.37608",
        "longt": "15.82041",
        "address": "58752 Walker Landing Apt. 671nMichaelburgh, WY 92058"
    },
    {
        "state": "SE",
        "name": "Gru00e4smark/Uddheden",
        "city": "Graesmark/Uddheden",
        "prov": "Vu00e4rmland",
        "region": "Sunne Kommun",
        "latt": "59.95202",
        "longt": "12.90765",
        "address": "3188 Oneill IslenCabreraville, DC 03977"
    },
    {
        "state": "SE",
        "name": "Stor-Danasju00f6n",
        "city": "Abborrberg",
        "prov": "Vu00e4sterbotten",
        "region": "Storumans Kommun",
        "latt": "65.51667",
        "longt": "16.51667",
        "address": "1374 Angela Pine Apt. 906nWest Kristenhaven, NE 53702"
    },
    {
        "state": "SE",
        "name": "Lund",
        "city": "Brunflo",
        "prov": "Ju00e4mtland",
        "region": "u00d6stersunds Kommun",
        "latt": "63.1",
        "longt": "14.78333",
        "address": "324 Dodson Land Suite 280nSanchezside, CO 55368"
    },
    {
        "state": "SE",
        "name": "Lagered",
        "city": "Knaered",
        "prov": "Halland",
        "region": "Laholms Kommun",
        "latt": "56.51667",
        "longt": "13.33333",
        "address": "209 Karen Spurs Apt. 927nMeadowsstad, NV 24142"
    },
    {
        "state": "SE",
        "name": "Othemars",
        "city": "Slite",
        "prov": "Gotland",
        "region": "Gotland",
        "latt": "57.73915",
        "longt": "18.72539",
        "address": "PSC 3672, Box 5192nAPO AE 26513"
    },
    {
        "state": "SE",
        "name": "u00c4lmaren",
        "city": "u00c4lmarsrum",
        "prov": "Kalmar",
        "region": "Vu00e4sterviks Kommun",
        "latt": "57.815",
        "longt": "16.3458",
        "address": "469 Lucas Villages Suite 244nSullivanton, AZ 61822"
    },
    {
        "state": "SE",
        "name": "Skravelbu00e4ck",
        "city": "Hemmesmark",
        "prov": "Vu00e4sterbotten",
        "region": "Umeu00e5 Kommun",
        "latt": "64.1",
        "longt": "20.28333",
        "address": "6025 Barron Underpass Apt. 554nRioschester, MI 37470"
    },
    {
        "state": "SE",
        "name": "Fornabo",
        "city": "u00c4spered",
        "prov": "Vu00e4stra Gu00f6taland",
        "region": "Ulricehamns Kommun",
        "latt": "57.75",
        "longt": "13.26667",
        "address": "24775 Wyatt CliffnLake Joshua, LA 68151"
    },
    {
        "state": "SE",
        "name": "Ockesju00f6n",
        "city": "Ytterocke",
        "prov": "Ju00e4mtland",
        "region": "u00c5re kommun",
        "latt": "63.27756",
        "longt": "13.78965",
        "address": "1743 Christensen Underpass Suite 752nEast Alyssamouth, RI 15145"
    },
    {
        "state": "SE",
        "name": "Su00f6vdeborg",
        "city": "Sju00f6bo",
        "prov": "Sku00e5ne",
        "region": "Sju00f6bo Kommun",
        "latt": "55.58333",
        "longt": "13.7",
        "address": "8141 Salas Spur Apt. 300nMichaelstad, KY 40139"
    },
    {
        "state": "SE",
        "name": "Valu00e5ker",
        "city": "Vagnhu00e4rad",
        "prov": "Stockholm",
        "region": "Su00f6dertu00e4lje Kommun",
        "latt": "58.99155",
        "longt": "17.57409",
        "address": "776 Ortiz Vista Suite 832nSheilaport, AZ 57416"
    },
    {
        "state": "SE",
        "name": "Stru00e4ngu00f6arna",
        "city": "Ku00f6pmanholmen",
        "prov": "Vu00e4sternorrland",
        "region": "u00d6rnsku00f6ldsviks Kommun",
        "latt": "63.11667",
        "longt": "18.61667",
        "address": "6990 Melanie VistanSmithbury, CA 79873"
    },
    {
        "state": "SE",
        "name": "Binklinge",
        "city": "Vrena",
        "prov": "Su00f6dermanland",
        "region": "Nyku00f6pings Kommun",
        "latt": "58.88333",
        "longt": "16.65",
        "address": "3701 Austin Square Apt. 628nNorth Wanda, CO 98600"
    },
    {
        "state": "SE",
        "name": "Maunuju00e4rvi",
        "city": "Svappavaara",
        "prov": "Norrbotten",
        "region": "Kiruna Kommun",
        "latt": "67.69032",
        "longt": "21.12246",
        "address": "59200 Summers Pike Suite 352nThomasside, CO 69712"
    },
    {
        "state": "SE",
        "name": "Vittju00e4rvstru00e4sk",
        "city": "Vittju00e4rv",
        "prov": "Norrbotten",
        "region": "Bodens Kommun",
        "latt": "65.85",
        "longt": "21.58333",
        "address": "919 Horne SpurnSouth Kristen, LA 58558"
    },
    {
        "state": "SE",
        "name": "Satter",
        "city": "Satter",
        "prov": "Norrbotten",
        "region": "Gu00e4llivare kommun",
        "latt": "66.9",
        "longt": "21.93333",
        "address": "247 Galloway Common Suite 746nEast David, NM 19512"
    },
    {
        "state": "SE",
        "name": "Ljusta",
        "city": "Sundsvall",
        "prov": "Vu00e4sternorrland",
        "region": "Sundsvalls Kommun",
        "latt": "62.44347",
        "longt": "17.34424",
        "address": "12945 David ClubnLeahmouth, AK 48839"
    },
    {
        "state": "SE",
        "name": "Vu00e4jern",
        "city": "Kungshamn",
        "prov": "Vu00e4stra Gu00f6taland",
        "region": "Sotenu00e4s Kommun",
        "latt": "58.38333",
        "longt": "11.26667",
        "address": "731 Lewis Tunnel Suite 422nEast Michelle, CT 20904"
    },
    {
        "state": "SE",
        "name": "Su00f6derhamns Kommun",
        "city": "Soderala",
        "prov": "Gu00e4vleborg",
        "region": "Su00f6derhamns Kommun",
        "latt": "61.25371",
        "longt": "16.94879",
        "address": "106 Jordan MountainnTimothyport, NE 12530"
    },
    {
        "state": "SE",
        "name": "Solberg",
        "city": "Solberg",
        "prov": "Vu00e4sternorrland",
        "region": "Hu00e4rnu00f6sands Kommun",
        "latt": "62.65",
        "longt": "17.65",
        "address": "8993 Elizabeth Inlet Apt. 254nLake Josephside, CO 12870"
    },
    {
        "state": "SE",
        "name": "Renfors",
        "city": "Renfors",
        "prov": "Vu00e4sterbotten",
        "region": "Norsju00f6 Kommun",
        "latt": "64.9",
        "longt": "20.13333",
        "address": "1794 Pope Ranch Suite 428nWest Juliatown, KY 60095"
    },
    {
        "state": "SE",
        "name": "u00d6sterlings",
        "city": "Stu00e5nga",
        "prov": "Gotland",
        "region": "Gotland",
        "latt": "57.26807",
        "longt": "18.5039",
        "address": "7206 Hernandez Land Suite 353nPort Derekland, ID 03793"
    },
    {
        "state": "SE",
        "name": "Mora-Noret",
        "city": "Mora",
        "prov": "Dalarna",
        "region": "Mora Kommun",
        "latt": "61.00393",
        "longt": "14.58332",
        "address": "459 Austin VistanNancyborough, AR 27112"
    },
    {
        "state": "SE",
        "name": "Uppran",
        "city": "Uppran",
        "prov": "Vu00e4rmland",
        "region": "u00c5rju00e4ngs Kommun",
        "latt": "59.46667",
        "longt": "11.83333",
        "address": "1475 Nicole UnionnSouth Jonathan, HI 96108"
    },
    {
        "state": "SE",
        "name": "Bredu00f6gern",
        "city": "Skeppsvik",
        "prov": "Vu00e4sterbotten",
        "region": null,
        "latt": "63.8",
        "longt": "20.61667",
        "address": "5219 Anderson PrairienWest Robert, WY 43202"
    },
    {
        "state": "SE",
        "name": "Hu00e4llforsen",
        "city": "Lycksele",
        "prov": "Vu00e4sterbotten",
        "region": "Lycksele kommun",
        "latt": "64.58333",
        "longt": "18.68333",
        "address": "102 Bates Station Suite 589nRichardmouth, UT 00818"
    },
    {
        "state": "SE",
        "name": "Lysingsbadets Golfklubb",
        "city": "Vu00e4stervik",
        "prov": "Kalmar",
        "region": "Vu00e4sterviks Kommun",
        "latt": "57.73491",
        "longt": "16.66403",
        "address": "4778 Megan Ways Apt. 687nEsparzaton, CO 97041"
    },
    {
        "state": "SE",
        "name": "Stru00e5hu00e5gna",
        "city": "Slagavallen",
        "prov": "Ju00e4mtland",
        "region": "Hu00e4rjedalens kommun",
        "latt": "62.16667",
        "longt": "13.06667",
        "address": "08131 Roberts CentersnLake Jeffrey, WA 22575"
    },
    {
        "state": "SE",
        "name": "u00d6stra Fru00f6lunda",
        "city": "u00d6stra Fru00f6lunda",
        "prov": "Vu00e4stra Gu00f6taland",
        "region": "Svenljunga Kommun",
        "latt": "57.34155",
        "longt": "13.02919",
        "address": "6689 Juan Tunnel Apt. 158nJulietown, NE 83882"
    },
    {
        "state": "SE",
        "name": "Gu00f6teborgs stad",
        "city": "Goeteborg",
        "prov": "Vu00e4stra Gu00f6taland",
        "region": "Gu00f6teborgs stad",
        "latt": "57.72288",
        "longt": "11.94577",
        "address": "USCGC GonzalesnFPO AE 50684"
    },
    {
        "state": "SE",
        "name": "Harrikberget",
        "city": "Gardsju00f6nu00e4s",
        "prov": "Vu00e4sterbotten",
        "region": "Storumans Kommun",
        "latt": "65.4",
        "longt": "16.36667",
        "address": "66617 Lawrence Motorway Apt. 558nFigueroaside, MS 80488"
    },
    {
        "state": "SE",
        "name": "Ru00f6lsa",
        "city": "Tidan",
        "prov": "Vu00e4stra Gu00f6taland",
        "region": "Tu00f6reboda Kommun",
        "latt": "58.61667",
        "longt": "13.98333",
        "address": "2682 Lewis Orchard Suite 963nEast Julia, OR 64289"
    },
    {
        "state": "SE",
        "name": "Kvissleby",
        "city": "Kvissleby",
        "prov": "Vu00e4sternorrland",
        "region": "Sundsvalls Kommun",
        "latt": "62.29361",
        "longt": "17.375",
        "address": "19512 Stone BurgnBurnsview, ME 55158"
    },
    {
        "state": "SE",
        "name": "Mu00e5lilla",
        "city": "Malilla",
        "prov": "Kalmar",
        "region": "Hultsfreds Kommun",
        "latt": "57.38773",
        "longt": "15.80675",
        "address": "278 Joshua ViewsnLisaview, ME 98763"
    },
    {
        "state": "SE",
        "name": "Norrbou00e5n",
        "city": "Grangu00e4rde",
        "prov": "Dalarna",
        "region": "Ludvika Kommun",
        "latt": "60.26667",
        "longt": "14.95",
        "address": "4180 Potts RapidsnNorth Pamela, NM 17454"
    },
    {
        "state": "SE",
        "name": "Binklinge",
        "city": "Vrena",
        "prov": "Su00f6dermanland",
        "region": "Nyku00f6pings Kommun",
        "latt": "58.88333",
        "longt": "16.65",
        "address": "424 Juarez Lane Suite 041nLake Joyshire, TN 33919"
    },
    {
        "state": "SE",
        "name": "Sund",
        "city": "Revsund",
        "prov": "Ju00e4mtland",
        "region": "Bru00e4cke Kommun",
        "latt": "62.9",
        "longt": "15.116667",
        "address": "8308 Kim FerrynKrystalview, ND 20606"
    },
    {
        "state": "SE",
        "name": "Tungsberg",
        "city": "Finsthu00f6gst",
        "prov": "Gu00e4vleborg",
        "region": null,
        "latt": "61.28333",
        "longt": "15.53333",
        "address": "709 Bryan RadialnNew Edward, LA 22011"
    },
    {
        "state": "SE",
        "name": "Diskarve",
        "city": "Roma",
        "prov": "Gotland",
        "region": "Gotland",
        "latt": "57.53818",
        "longt": "18.43517",
        "address": "3191 Nguyen Curve Apt. 741nNew Darren, CT 34949"
    },
    {
        "state": "SE",
        "name": "Hedvik",
        "city": "Hedvik",
        "prov": "Vu00e4sterbotten",
        "region": "Lycksele kommun",
        "latt": "64.75",
        "longt": "18.13333",
        "address": "30894 Austin Plains Apt. 360nRobersonmouth, AK 23486"
    },
    {
        "state": "SE",
        "name": "Stora Bredu00e4ng",
        "city": "Norra Bju00f6rke",
        "prov": "Vu00e4stra Gu00f6taland",
        "region": "Trollhu00e4ttan",
        "latt": "58.26667",
        "longt": "12.48333",
        "address": "02979 Thomas Street Apt. 550nSouth Robertton, KS 27461"
    },
    {
        "state": "SE",
        "name": "Karlstads domkyrkofu00f6rs.",
        "city": "Karlstad",
        "prov": "Vu00e4rmland",
        "region": "Karlstads Kommun",
        "latt": "59.3815",
        "longt": "13.50672",
        "address": "243 April Cape Suite 572nWallacefort, WV 70752"
    },
    {
        "state": "SE",
        "name": "Heby",
        "city": "Heby",
        "prov": "Uppsala",
        "region": "Heby kommun",
        "latt": "59.93815",
        "longt": "16.86217",
        "address": "16297 Hernandez CirclenWest Paul, SC 85047"
    },
    {
        "state": "SE",
        "name": "Ekesku00e4rsgrund",
        "city": "Karlskrona",
        "prov": "Blekinge",
        "region": "Karlskrona Kommun",
        "latt": "56.13333",
        "longt": "15.49167",
        "address": "PSC 4306, Box 6970nAPO AA 04086"
    },
    {
        "state": "SE",
        "name": "Erstaviksbadet station",
        "city": "Boo",
        "prov": "Stockholm",
        "region": "Nacka Kommun",
        "latt": "59.27296",
        "longt": "18.28512",
        "address": "089 Edward MountainnNorth Jennifer, NY 65514"
    },
    {
        "state": "SE",
        "name": "Ru00f6nne",
        "city": "Ronne",
        "prov": "u00d6rebro",
        "region": "Askersunds Kommun",
        "latt": "58.93333",
        "longt": "15.01667",
        "address": "168 Ward CovesnSouth Pamela, NY 84171"
    },
    {
        "state": "SE",
        "name": "Du00e5dran",
        "city": "Dadran",
        "prov": "Dalarna",
        "region": "Ru00e4ttviks Kommun",
        "latt": "60.94425",
        "longt": "15.53935",
        "address": "04254 Ponce CovenWilliamstown, MD 64795"
    },
    {
        "state": "SE",
        "name": "Tyren",
        "city": "Tyrsberget",
        "prov": "Dalarna",
        "region": "Gagnefs Kommun",
        "latt": "60.36667",
        "longt": "14.73333",
        "address": "5555 Walter DrivenPort Pennyburgh, MS 46168"
    },
    {
        "state": "SE",
        "name": "u00d6stra Svu00e4fu00e5n",
        "city": "Sjulsu00e5sen",
        "prov": "Ju00e4mtland",
        "region": "Stru00f6msunds kommun",
        "latt": "64.4",
        "longt": "14.78333",
        "address": "3513 Sierra PlainsnHallfort, MT 21424"
    },
    {
        "state": "SE",
        "name": "Misterfall",
        "city": "Lidhult",
        "prov": "u00d6stergu00f6tland",
        "region": "Kinda Kommun",
        "latt": "57.98333",
        "longt": "15.46667",
        "address": "0329 Nicholas Crossroad Apt. 760nYatesshire, LA 41544"
    },
    {
        "state": "SE",
        "name": "Spannarps Kyrka",
        "city": "Tvu00e5u00e5ker",
        "prov": "Halland",
        "region": "Varbergs Kommun",
        "latt": "57.07592",
        "longt": "12.3732",
        "address": "PSC 3534, Box 6485nAPO AA 66236"
    },
    {
        "state": "SE",
        "name": "Ku00e4llstorp",
        "city": "Kaellstorp",
        "prov": "Halland",
        "region": "Varbergs Kommun",
        "latt": "57.26667",
        "longt": "12.18333",
        "address": "2354 Scott ThroughwaynPort Christophertown, PA 81532"
    },
    {
        "state": "SE",
        "name": "Nu00e4u00e4s",
        "city": "Grabo",
        "prov": "Vu00e4stra Gu00f6taland",
        "region": "Lerums Kommun",
        "latt": "57.81002",
        "longt": "12.39713",
        "address": "PSC 6100, Box 2006nAPO AA 97454"
    },
    {
        "state": "SE",
        "name": "Hu00e4ttstau00e5sen",
        "city": "Kolsva",
        "prov": "Vu00e4stmanland",
        "region": "Ku00f6pings Kommun",
        "latt": "59.6",
        "longt": "15.91667",
        "address": "533 Crystal MeadownPierceberg, CO 15502"
    },
    {
        "state": "SE",
        "name": "u00d6stra Boda",
        "city": "Ostra Boda",
        "prov": "u00d6rebro",
        "region": "Lindesbergs Kommun",
        "latt": "59.58333",
        "longt": "15.48333",
        "address": "Unit 7896 Box 6895nDPO AP 10624"
    },
    {
        "state": "SE",
        "name": "Stru00e5hu00e5gna",
        "city": "Slagavallen",
        "prov": "Ju00e4mtland",
        "region": "Hu00e4rjedalens kommun",
        "latt": "62.16667",
        "longt": "13.06667",
        "address": "93599 Matthew Orchard Apt. 817nPort Patricia, TX 25269"
    },
    {
        "state": "SE",
        "name": "Norrsu00e5nna",
        "city": "Berghemmet",
        "prov": "Ju00f6nku00f6ping",
        "region": "Eksju00f6 Kommun",
        "latt": "57.6",
        "longt": "15.25",
        "address": "235 Austin RownChristinaside, DE 07465"
    },
    {
        "state": "SE",
        "name": "Su00e4byviken",
        "city": "Langvik",
        "prov": "Stockholm",
        "region": "Vu00e4rmdu00f6 Kommun",
        "latt": "59.25",
        "longt": "18.51667",
        "address": "9260 Daniel Brook Apt. 614nJenniferberg, OH 53369"
    },
    {
        "state": "SE",
        "name": "Skru00e4mbohult",
        "city": "Skruv",
        "prov": "Kronoberg",
        "region": "Lessebo Kommun",
        "latt": "56.68333",
        "longt": "15.38333",
        "address": "91614 Huffman KnollnHolmesland, WI 81272"
    },
    {
        "state": "SE",
        "name": "Valfju00e4ll",
        "city": "Hunnebostrand",
        "prov": "Vu00e4stra Gu00f6taland",
        "region": "Sotenu00e4s Kommun",
        "latt": "58.46111",
        "longt": "11.30833",
        "address": "Unit 7899 Box 9680nDPO AE 58852"
    },
    {
        "state": "SE",
        "name": "Bergvik",
        "city": "Bergvik",
        "prov": "Gu00e4vleborg",
        "region": "Su00f6derhamns Kommun",
        "latt": "61.26121",
        "longt": "16.81891",
        "address": "016 Austin Neck Suite 670nBeardmouth, MD 41087"
    },
    {
        "state": "SE",
        "name": "Slutarp",
        "city": "Kinnarp",
        "prov": "Vu00e4stra Gu00f6taland",
        "region": "Falku00f6pings Kommun",
        "latt": "58.08333",
        "longt": "13.51667",
        "address": "378 Lawson Fords Apt. 635nWest James, UT 54404"
    },
    {
        "state": "SE",
        "name": "Nu00e4s",
        "city": "Nas",
        "prov": "Vu00e4rmland",
        "region": "Arvika Kommun",
        "latt": "59.66667",
        "longt": "12.78333",
        "address": "PSC 5577, Box 6854nAPO AP 55129"
    },
    {
        "state": "SE",
        "name": "Hagestaborg",
        "city": "Lu00f6derup",
        "prov": "Sku00e5ne",
        "region": "Ystads Kommun",
        "latt": "55.4",
        "longt": "14.13333",
        "address": "22094 Todd DrivenCalhounstad, CA 57260"
    },
    {
        "state": "SE",
        "name": "Bleckaren",
        "city": "Su00e5ghamn",
        "prov": "Uppsala",
        "region": "Tierps kommun",
        "latt": "60.61667",
        "longt": "17.71667",
        "address": "7007 Farrell PlacenSouth Dannymouth, WY 01598"
    },
    {
        "state": "SE",
        "name": "Attmarby",
        "city": "Matfors",
        "prov": "Vu00e4sternorrland",
        "region": "Sundsvalls Kommun",
        "latt": "62.31291",
        "longt": "17.05027",
        "address": "7517 Miller ForksnJonathanview, KY 25544"
    },
    {
        "state": "SE",
        "name": "Vinterviken",
        "city": "Vaesteras",
        "prov": "Vu00e4stmanland",
        "region": null,
        "latt": "59.56667",
        "longt": "16.6",
        "address": "17737 Kevin Brook Apt. 782nSharonberg, AK 65384"
    },
    {
        "state": "SE",
        "name": "Sunnesju00f6",
        "city": "u00d6deshu00f6g",
        "prov": "u00d6stergu00f6tland",
        "region": "u00d6deshu00f6gs Kommun",
        "latt": "58.18333",
        "longt": "14.66667",
        "address": "63564 Holt Passage Suite 029nWest Mary, WI 94819"
    },
    {
        "state": "SE",
        "name": "Ku00e4lleskruv",
        "city": "Ku00e4lleskruv",
        "prov": "Kronoberg",
        "region": "Lessebo Kommun",
        "latt": "56.81667",
        "longt": "15.38333",
        "address": "370 Ernest Orchard Apt. 904nLake Amanda, KY 19202"
    },
    {
        "state": "SE",
        "name": "Boru00e5s",
        "city": "Boras",
        "prov": "Vu00e4stra Gu00f6taland",
        "region": "Boru00e5s",
        "latt": "57.72101",
        "longt": "12.9401",
        "address": "747 Gene Streets Apt. 327nSouth Kathleen, ID 28479"
    },
    {
        "state": "SE",
        "name": "Nissafors",
        "city": "Nissafors",
        "prov": "Ju00f6nku00f6ping",
        "region": "Gnosju00f6 Kommun",
        "latt": "57.4089",
        "longt": "13.63727",
        "address": "57423 Wendy Island Suite 127nCastilloberg, NE 35796"
    },
    {
        "state": "SE",
        "name": "Villsberga",
        "city": "Biskopskulla",
        "prov": "Uppsala",
        "region": "Enku00f6pings Kommun",
        "latt": "59.71667",
        "longt": "17.21667",
        "address": "5010 Robert StationnHernandezfort, ID 68277"
    },
    {
        "state": "SE",
        "name": "Klubbstenarna",
        "city": "Bu00f6nan",
        "prov": "Gu00e4vleborg",
        "region": "Gu00e4vle Kommun",
        "latt": "60.79167",
        "longt": "17.4",
        "address": "655 Michael ForgesnJenniferport, VT 13812"
    },
    {
        "state": "SE",
        "name": "Ru00f6nne",
        "city": "Ronne",
        "prov": "u00d6rebro",
        "region": "Askersunds Kommun",
        "latt": "58.93333",
        "longt": "15.01667",
        "address": "02282 Sean Ford Suite 542nLake Lauren, WY 05528"
    },
    {
        "state": "SE",
        "name": "Tuddetorp",
        "city": "Nu00e4vekvarn",
        "prov": "Su00f6dermanland",
        "region": "Nyku00f6pings Kommun",
        "latt": "58.63333",
        "longt": "16.86667",
        "address": "45312 Schmidt GreennPort Dennis, MT 02168"
    },
    {
        "state": "SE",
        "name": "Nu00e4s",
        "city": "Nas",
        "prov": "Vu00e4rmland",
        "region": "Arvika Kommun",
        "latt": "59.66667",
        "longt": "12.78333",
        "address": "995 Whitaker Loaf Suite 521nPacechester, MI 03098"
    },
    {
        "state": "SE",
        "name": "Vassu00e5jve",
        "city": "Lu00e5ktatju00e5kka",
        "prov": "Norrbotten",
        "region": "Kiruna Kommun",
        "latt": "68.384473",
        "longt": "18.2668",
        "address": "1404 Farmer DrivenNew Amyberg, SC 55258"
    },
    {
        "state": "SE",
        "name": "Lagered",
        "city": "Knaered",
        "prov": "Halland",
        "region": "Laholms Kommun",
        "latt": "56.51667",
        "longt": "13.33333",
        "address": "1900 Julie RownJoseview, SD 66859"
    },
    {
        "state": "SE",
        "name": "Vittsju00f6bo",
        "city": "Vittsju00f6",
        "prov": "Gu00e4vleborg",
        "region": "Bollnu00e4s Kommun",
        "latt": "61.11667",
        "longt": "16.08333",
        "address": "3533 Robert VistanNicholasmouth, ME 99589"
    },
    {
        "state": "SE",
        "name": "u00d6rsu00e5sen",
        "city": "u00d6rsu00e5sen",
        "prov": "Dalarna",
        "region": "Malung-Su00e4lens kommun",
        "latt": "60.64972",
        "longt": "13.86667",
        "address": "5719 Phillips RuenBakerberg, DC 87683"
    },
    {
        "state": "SE",
        "name": "Ullsju00f6berget",
        "city": "Ullsju00f6berg",
        "prov": "Vu00e4sterbotten",
        "region": "Dorotea Kommun",
        "latt": "64.23333",
        "longt": "16.65",
        "address": "54830 Brian Field Suite 430nSouth Michealbury, MO 56578"
    },
    {
        "state": "SE",
        "name": "u00d6stra Fru00f6lunda",
        "city": "u00d6stra Fru00f6lunda",
        "prov": "Vu00e4stra Gu00f6taland",
        "region": "Svenljunga Kommun",
        "latt": "57.34155",
        "longt": "13.02919",
        "address": "6760 Katherine DividenSouth Brandonbury, FL 17784"
    },
    {
        "state": "SE",
        "name": "Hu00e4nsu00e4tter",
        "city": "Hansatter",
        "prov": "Gu00e4vleborg",
        "region": "Bollnu00e4s Kommun",
        "latt": "61.53333",
        "longt": "16.38333",
        "address": "Unit 7200 Box 9776nDPO AP 23359"
    },
    {
        "state": "SE",
        "name": "Hu00e4stgrundet",
        "city": "Gryt",
        "prov": "u00d6stergu00f6tland",
        "region": "Valdemarsviks Kommun",
        "latt": "58.2",
        "longt": "16.866667",
        "address": "9910 Thomas ClubnWest Seanchester, WV 85853"
    },
    {
        "state": "SE",
        "name": "Galtern",
        "city": "Kungsu00f6r",
        "prov": "Vu00e4stmanland",
        "region": "Kungsu00f6rs kommun",
        "latt": "59.45",
        "longt": "16.15",
        "address": "65015 Hernandez Mill Apt. 692nNorth Scott, NM 57322"
    },
    {
        "state": "SE",
        "name": "Kyrkebykile",
        "city": "Stenungsund",
        "prov": "Vu00e4stra Gu00f6taland",
        "region": "Stenungsunds Kommun",
        "latt": "58",
        "longt": "11.816667",
        "address": "2177 John Station Suite 146nSouth Danielport, ID 68805"
    },
    {
        "state": "SE",
        "name": "Tengenestorp",
        "city": "Gru00e4storp",
        "prov": "Vu00e4stra Gu00f6taland",
        "region": "Gru00e4storps Kommun",
        "latt": "58.31667",
        "longt": "12.65",
        "address": "9730 Mathews Forges Suite 961nCopelandton, MN 94515"
    },
    {
        "state": "SE",
        "name": "Djuramu00e5sa",
        "city": "Hittarp",
        "prov": "Sku00e5ne",
        "region": "Helsingborg",
        "latt": "56.13333",
        "longt": "12.63333",
        "address": "246 Ortega Club Apt. 999nCummingstown, KS 93929"
    },
    {
        "state": "SE",
        "name": "Ku00e4fsju00f6",
        "city": "Hillerstorp",
        "prov": "Ju00f6nku00f6ping",
        "region": "Gnosju00f6 Kommun",
        "latt": "57.316667",
        "longt": "13.916667",
        "address": "92853 Bradley Green Suite 949nSouth Bridgethaven, NV 76777"
    },
    {
        "state": "SE",
        "name": "Du00f6nstaudden",
        "city": "Ku00e5stau00e4nget",
        "prov": "Vu00e4sternorrland",
        "region": "Kramfors Kommun",
        "latt": "62.875",
        "longt": "18.29167",
        "address": "29628 Elizabeth Islands Apt. 692nWest Pamelaborough, RI 93191"
    },
    {
        "state": "SE",
        "name": "Ru00f6rbu00e4cksnu00e4s",
        "city": "Roerbaecksnaes",
        "prov": "Dalarna",
        "region": "Malung-Su00e4lens kommun",
        "latt": "61.13429",
        "longt": "12.80937",
        "address": "645 Martin Branch Suite 214nSouth Kevin, MI 09105"
    },
    {
        "state": "SE",
        "name": "Dansens hus",
        "city": "Stockholm",
        "prov": "Stockholm",
        "region": "Stockholms Kommun",
        "latt": "59.33622",
        "longt": "18.05637",
        "address": "6573 Michael RanchnWest Anthonyfurt, WA 63060"
    },
    {
        "state": "SE",
        "name": "Obbelsfju00e4rden",
        "city": "Rundvik",
        "prov": "Vu00e4sterbotten",
        "region": "Nordmalings Kommun",
        "latt": "63.525",
        "longt": "19.43333",
        "address": "76831 Rodriguez FieldsnElliottville, WY 27068"
    },
    {
        "state": "SE",
        "name": "Videlund",
        "city": "Videlund",
        "prov": "Vu00e4sterbotten",
        "region": "Vindelns Kommun",
        "latt": "64.3",
        "longt": "19.16667",
        "address": "Unit 8488 Box 4069nDPO AP 46052"
    },
    {
        "state": "SE",
        "name": "u00c5keru00f6fju00e4rden",
        "city": "Edsviken",
        "prov": "Stockholm",
        "region": "Norrtu00e4lje Kommun",
        "latt": "59.73333",
        "longt": "18.93333",
        "address": "72337 Joseph Freeway Suite 221nVincentburgh, MN 37356"
    },
    {
        "state": "SE",
        "name": "u00d6vre u00c4mten",
        "city": "Kulltorp",
        "prov": "Kalmar",
        "region": "Vu00e4sterviks Kommun",
        "latt": "57.75",
        "longt": "16.11667",
        "address": "28681 Willis CirclenMillerton, NM 29206"
    },
    {
        "state": "SE",
        "name": "Fju00e4rdingslu00f6v",
        "city": "Trelleborg",
        "prov": "Sku00e5ne",
        "region": "Trelleborgs Kommun",
        "latt": "55.4",
        "longt": "13.21667",
        "address": "4002 Sarah IslandnNew Coleview, WY 47722"
    },
    {
        "state": "SE",
        "name": "Binklinge",
        "city": "Vrena",
        "prov": "Su00f6dermanland",
        "region": "Nyku00f6pings Kommun",
        "latt": "58.88333",
        "longt": "16.65",
        "address": "01447 Sarah Rapid Apt. 314nThomasside, NJ 86805"
    },
    {
        "state": "SE",
        "name": "Skjutsebosju00f6n",
        "city": "Ingelsbo",
        "prov": "Ju00f6nku00f6ping",
        "region": "Tranemo Kommun",
        "latt": "57.41667",
        "longt": "13.51667",
        "address": "6244 Norris Freeway Apt. 563nMooremouth, IL 39657"
    },
    {
        "state": "SE",
        "name": "Juovojoki",
        "city": "Raunavaara",
        "prov": "Norrbotten",
        "region": "u00d6vertorneu00e5 Kommun",
        "latt": "66.53333",
        "longt": "23.58333",
        "address": "894 Gomez ValleysnWest Douglas, IN 51428"
    },
    {
        "state": "SE",
        "name": "Blu00e5vikstrand",
        "city": "Su00f6derfors",
        "prov": "Vu00e4sterbotten",
        "region": "Lycksele kommun",
        "latt": "64.85",
        "longt": "18.06667",
        "address": "82290 Eric VistanTarachester, IL 81591"
    },
    {
        "state": "SE",
        "name": "u00d6stra Vu00e4ssby",
        "city": "Mellerud",
        "prov": "Vu00e4stra Gu00f6taland",
        "region": "Melleruds Kommun",
        "latt": "58.71667",
        "longt": "12.45",
        "address": "8845 Green SquaresnMichaelport, OR 65818"
    },
    {
        "state": "SE",
        "name": "Stru00e4ngnu00e4s",
        "city": "Straengnaes",
        "prov": "Su00f6dermanland",
        "region": "Stru00e4ngnu00e4s Kommun",
        "latt": "59.37741",
        "longt": "17.03119",
        "address": "43413 Robert SquaresnWest Melvinstad, KY 30571"
    },
    {
        "state": "SE",
        "name": "Nattberget",
        "city": "Vistbu00e4cken",
        "prov": "Norrbotten",
        "region": "u00c4lvsbyns Kommun",
        "latt": "65.7",
        "longt": "20.4",
        "address": "3678 Reilly Ports Suite 693nUnderwoodmouth, WI 04552"
    },
    {
        "state": "SE",
        "name": "Elinslund",
        "city": "Vaden",
        "prov": "Uppsala",
        "region": "u00d6sthammars Kommun",
        "latt": "60.23333",
        "longt": "18.6",
        "address": "826 Adams Ferry Suite 121nKelliefurt, NC 83128"
    },
    {
        "state": "SE",
        "name": "Furingstads Kyrka",
        "city": "Ljunga",
        "prov": "u00d6stergu00f6tland",
        "region": "Norrku00f6pings Kommun",
        "latt": "58.55543",
        "longt": "16.34448",
        "address": "4703 Pruitt Harbor Apt. 759nScottview, NV 89164"
    },
    {
        "state": "SE",
        "name": "u00d6vertorneu00e5",
        "city": "OEvertornea",
        "prov": "Norrbotten",
        "region": "u00d6vertorneu00e5 Kommun",
        "latt": "66.39025",
        "longt": "23.65709",
        "address": "1684 Leah Extension Suite 830nSouth Dawntown, NV 34966"
    },
    {
        "state": "SE",
        "name": "Hju00e4rtsu00f6la",
        "city": "Bodafors",
        "prov": "Ju00f6nku00f6ping",
        "region": "Nu00e4ssju00f6 Kommun",
        "latt": "57.53333",
        "longt": "14.63333",
        "address": "9720 Gibson Summit Suite 270nLake Christine, NM 56907"
    },
    {
        "state": "SE",
        "name": "u00c5svedal",
        "city": "Valdemarsvik",
        "prov": "u00d6stergu00f6tland",
        "region": "Valdemarsviks Kommun",
        "latt": "58.21667",
        "longt": "16.65",
        "address": "460 Reyes Prairie Apt. 998nNew Jamie, IL 23797"
    },
    {
        "state": "SE",
        "name": "Ljusaberg",
        "city": "Nybro",
        "prov": "Kalmar",
        "region": "Nybro Kommun",
        "latt": "56.8",
        "longt": "15.83333",
        "address": "162 April LandnLaurenberg, AR 13259"
    },
    {
        "state": "SE",
        "name": "u00d6steralnu00e4s",
        "city": "u00d6steralnu00e4s",
        "prov": "Vu00e4sternorrland",
        "region": "u00d6rnsku00f6ldsviks Kommun",
        "latt": "63.31087",
        "longt": "18.5711",
        "address": "73058 Campbell TrailnJeremiahborough, WV 59388"
    },
    {
        "state": "SE",
        "name": "Flahult",
        "city": "Flahult",
        "prov": "Kronoberg",
        "region": "Ljungby Kommun",
        "latt": "56.96667",
        "longt": "13.81667",
        "address": "19381 Miranda HarbornLake Richardhaven, AL 71855"
    },
    {
        "state": "SE",
        "name": "Fornabo",
        "city": "u00c4spered",
        "prov": "Vu00e4stra Gu00f6taland",
        "region": "Ulricehamns Kommun",
        "latt": "57.75",
        "longt": "13.26667",
        "address": "USNS EvansnFPO AE 46737"
    },
    {
        "state": "SE",
        "name": "Tengenestorp",
        "city": "Gru00e4storp",
        "prov": "Vu00e4stra Gu00f6taland",
        "region": "Gru00e4storps Kommun",
        "latt": "58.31667",
        "longt": "12.65",
        "address": "436 Molly Knoll Apt. 456nLittleview, KS 83543"
    },
    {
        "state": "SE",
        "name": "Idekulla",
        "city": "Idekulla",
        "prov": "Ju00f6nku00f6ping",
        "region": "Eksju00f6 Kommun",
        "latt": "57.6",
        "longt": "15.35",
        "address": "8505 Prince LoafnHeathermouth, WI 45209"
    },
    {
        "state": "SE",
        "name": "Kvissleby",
        "city": "Kvissleby",
        "prov": "Vu00e4sternorrland",
        "region": "Sundsvalls Kommun",
        "latt": "62.29361",
        "longt": "17.375",
        "address": "5739 Sean Forge Suite 743nEvansport, SC 69169"
    },
    {
        "state": "SE",
        "name": "u00d6vre u00c4mten",
        "city": "Kulltorp",
        "prov": "Kalmar",
        "region": "Vu00e4sterviks Kommun",
        "latt": "57.75",
        "longt": "16.11667",
        "address": "Unit 1182 Box 7607nDPO AE 83723"
    },
    {
        "state": "SE",
        "name": "Fredsnu00e4s",
        "city": "Landsbro",
        "prov": "Ju00f6nku00f6ping",
        "region": "Vetlanda kommun",
        "latt": "57.41667",
        "longt": "14.9",
        "address": "65078 Mitchell Extension Apt. 221nNew Helen, KS 35967"
    },
    {
        "state": "SE",
        "name": "Hu00e4llforsen",
        "city": "Lycksele",
        "prov": "Vu00e4sterbotten",
        "region": "Lycksele kommun",
        "latt": "64.58333",
        "longt": "18.68333",
        "address": "3293 Bradley StreamnSouth Garrettchester, OR 75026"
    },
    {
        "state": "SE",
        "name": "Smedjebacken",
        "city": "Smedjebacken",
        "prov": "Dalarna",
        "region": "Smedjebackens Kommun",
        "latt": "60.14181",
        "longt": "15.41416",
        "address": "21659 Hayes Oval Suite 645nCoopershire, OR 62731"
    },
    {
        "state": "SE",
        "name": "Hu00e4stgrundet",
        "city": "Gryt",
        "prov": "u00d6stergu00f6tland",
        "region": "Valdemarsviks Kommun",
        "latt": "58.2",
        "longt": "16.866667",
        "address": "Unit 0745 Box 6817nDPO AE 95281"
    },
    {
        "state": "SE",
        "name": "Hu00e4ttstau00e5sen",
        "city": "Kolsva",
        "prov": "Vu00e4stmanland",
        "region": "Ku00f6pings Kommun",
        "latt": "59.6",
        "longt": "15.91667",
        "address": "004 Mary Streets Apt. 762nPort Leechester, LA 94501"
    },
    {
        "state": "SE",
        "name": "Su00e4byviken",
        "city": "Langvik",
        "prov": "Stockholm",
        "region": "Vu00e4rmdu00f6 Kommun",
        "latt": "59.25",
        "longt": "18.51667",
        "address": "416 John Lake Suite 272nEast Janetbury, SD 96039"
    },
    {
        "state": "SE",
        "name": "Sandhemssju00f6n",
        "city": "Sandhem",
        "prov": "Vu00e4stra Gu00f6taland",
        "region": "Mullsju00f6 kommun",
        "latt": "58",
        "longt": "13.78333",
        "address": "685 Kerr Village Suite 210nSouth Kathrynview, NE 20475"
    },
    {
        "state": "SE",
        "name": "Bryggareberget",
        "city": "Karlskrona",
        "prov": "Blekinge",
        "region": "Karlskrona Kommun",
        "latt": "56.1717",
        "longt": "15.60144",
        "address": "3981 Wallace Ranch Apt. 274nMichelleview, PA 52462"
    },
    {
        "state": "SE",
        "name": "Stru00e4ngu00f6arna",
        "city": "Ku00f6pmanholmen",
        "prov": "Vu00e4sternorrland",
        "region": "u00d6rnsku00f6ldsviks Kommun",
        "latt": "63.11667",
        "longt": "18.61667",
        "address": "532 Richard ParksnEast Bonnieville, ME 83998"
    },
    {
        "state": "SE",
        "name": "Su00f6du00e5kra",
        "city": "Jonstorp",
        "prov": "Sku00e5ne",
        "region": "Hu00f6ganu00e4s Kommun",
        "latt": "56.25",
        "longt": "12.65",
        "address": "59907 Allen Lake Apt. 284nLake Troy, NJ 52869"
    },
    {
        "state": "SE",
        "name": "Viskasju00f6n",
        "city": "Fredrika",
        "prov": "Vu00e4sterbotten",
        "region": "u00c5sele Kommun",
        "latt": "64.06667",
        "longt": "18.46667",
        "address": "147 Thompson Locks Apt. 055nPort Marthaville, VA 25681"
    },
    {
        "state": "SE",
        "name": "Ekesku00e4rsgrund",
        "city": "Karlskrona",
        "prov": "Blekinge",
        "region": "Karlskrona Kommun",
        "latt": "56.13333",
        "longt": "15.49167",
        "address": "PSC 3489, Box 0587nAPO AP 07821"
    },
    {
        "state": "SE",
        "name": "Gu00f6teborgs stad",
        "city": "Goeteborg",
        "prov": "Vu00e4stra Gu00f6taland",
        "region": "Gu00f6teborgs stad",
        "latt": "57.72288",
        "longt": "11.94577",
        "address": "24798 Rebecca StreamnSouth Jacobton, NM 01035"
    },
    {
        "state": "SE",
        "name": "Nimmern",
        "city": "Fulmestad",
        "prov": "u00d6stergu00f6tland",
        "region": "Kinda Kommun",
        "latt": "58.05",
        "longt": "15.78333",
        "address": "8160 Terri PointsnAustinbury, VA 31218"
    },
    {
        "state": "SE",
        "name": "Silarp",
        "city": "Dalum",
        "prov": "Vu00e4stra Gu00f6taland",
        "region": "Ulricehamns Kommun",
        "latt": "57.9",
        "longt": "13.43333",
        "address": "675 Jennifer RoadnPetersenmouth, TX 63433"
    },
    {
        "state": "SE",
        "name": "Hu00e4llefors-Hjulsju00f6",
        "city": "Haellefors",
        "prov": "u00d6rebro",
        "region": "Hu00e4llefors Kommun",
        "latt": "59.78312",
        "longt": "14.50753",
        "address": "930 Christopher Mews Apt. 444nNew Justinside, ND 70171"
    },
    {
        "state": "SE",
        "name": "Varmsvattsberget",
        "city": "Osterbacka",
        "prov": "Vu00e4sterbotten",
        "region": "Umeu00e5 Kommun",
        "latt": "64.08333",
        "longt": "20.08333",
        "address": "44664 Rebecca Corner Suite 138nNew Christina, PA 51903"
    },
    {
        "state": "SE",
        "name": "Hu00f6gtju00e4len",
        "city": "Bru00e4nnbacka",
        "prov": "Vu00e4sterbotten",
        "region": "Skellefteu00e5 Kommun",
        "latt": "65",
        "longt": "20.51667",
        "address": "471 Ramirez Mountains Suite 860nMeganmouth, WA 98072"
    },
    {
        "state": "SE",
        "name": "Valfju00e4ll",
        "city": "Hunnebostrand",
        "prov": "Vu00e4stra Gu00f6taland",
        "region": "Sotenu00e4s Kommun",
        "latt": "58.46111",
        "longt": "11.30833",
        "address": "49116 Michael Shores Apt. 168nDarleneburgh, WI 09392"
    },
    {
        "state": "SE",
        "name": "Ku00e4llstorp",
        "city": "Kaellstorp",
        "prov": "Halland",
        "region": "Varbergs Kommun",
        "latt": "57.26667",
        "longt": "12.18333",
        "address": "682 Jonathan Highway Apt. 609nKennethville, MO 23189"
    },
    {
        "state": "SE",
        "name": "Klippan",
        "city": "Kaellby",
        "prov": "Vu00e4stra Gu00f6taland",
        "region": "Gu00f6tene Kommun",
        "latt": "58.55",
        "longt": "13.31667",
        "address": "6449 Mckenzie ValleynWilliamsport, AZ 95174"
    },
    {
        "state": "SE",
        "name": "Saltvik",
        "city": "Grebbestad",
        "prov": "Vu00e4stra Gu00f6taland",
        "region": "Tanums Kommun",
        "latt": "58.71667",
        "longt": "11.20833",
        "address": "1862 Joseph Extensions Suite 269nPort Deanna, OH 95283"
    },
    {
        "state": "SE",
        "name": "Dansens hus",
        "city": "Stockholm",
        "prov": "Stockholm",
        "region": "Stockholms Kommun",
        "latt": "59.33622",
        "longt": "18.05637",
        "address": "3247 Keith Cove Apt. 849nPerezton, IL 95996"
    },
    {
        "state": "SE",
        "name": "u00c4rentuna",
        "city": "Gamla Uppsala",
        "prov": "Uppsala",
        "region": "Uppsala Kommun",
        "latt": "59.95",
        "longt": "17.6",
        "address": "061 Hernandez HighwaynPort Rachel, DE 20752"
    },
    {
        "state": "SE",
        "name": "u00c4lmten",
        "city": "Fagerhult",
        "prov": "Kalmar",
        "region": "Hu00f6gsby Kommun",
        "latt": "57.15",
        "longt": "15.7",
        "address": "9314 Kevin Divide Suite 681nThomasview, TN 63007"
    },
    {
        "state": "SE",
        "name": "Dansens hus",
        "city": "Stockholm",
        "prov": "Stockholm",
        "region": "Stockholms Kommun",
        "latt": "59.33622",
        "longt": "18.05637",
        "address": "85974 Salazar VillagenEast Anthony, MS 62477"
    },
    {
        "state": "SE",
        "name": "Yxgrundet",
        "city": "Bureu00e5",
        "prov": "Vu00e4sterbotten",
        "region": "Skellefteu00e5 Kommun",
        "latt": "64.61667",
        "longt": "21.26667",
        "address": "379 Keller Ville Apt. 670nEast Elizabethchester, NE 64294"
    },
    {
        "state": "SE",
        "name": "Dala-Ju00e4rna",
        "city": "Jaerna",
        "prov": "Dalarna",
        "region": "Vansbro Kommun",
        "latt": "60.55",
        "longt": "14.35",
        "address": "136 Thomas InletnWest Brendanmouth, VA 58491"
    },
    {
        "state": "SE",
        "name": "Sjunnen",
        "city": "Vetlanda",
        "prov": "Ju00f6nku00f6ping",
        "region": "Vetlanda kommun",
        "latt": "57.433333",
        "longt": "15.166667",
        "address": "009 Haley Haven Suite 280nWest Sarahchester, MS 10492"
    },
    {
        "state": "SE",
        "name": "Hu00e5kanbo",
        "city": "Hu00e5kanbo",
        "prov": "Gu00e4vleborg",
        "region": "Su00f6derhamns Kommun",
        "latt": "61.13333",
        "longt": "16.65",
        "address": "65804 Maynard TurnpikenOlsonshire, ND 59622"
    },
    {
        "state": "SE",
        "name": "u00c4lmaren",
        "city": "u00c4lmarsrum",
        "prov": "Kalmar",
        "region": "Vu00e4sterviks Kommun",
        "latt": "57.815",
        "longt": "16.3458",
        "address": "PSC 0641, Box 9203nAPO AA 18041"
    },
    {
        "state": "SE",
        "name": "u00d6rminge",
        "city": "Linghem",
        "prov": "u00d6stergu00f6tland",
        "region": "Linku00f6pings Kommun",
        "latt": "58.4",
        "longt": "15.76667",
        "address": "7179 Bates SquaresnCoxville, NJ 10849"
    },
    {
        "state": "SE",
        "name": "Frogesta",
        "city": "Frogesta",
        "prov": "u00d6rebro",
        "region": "Kumla Kommun",
        "latt": "59.1633",
        "longt": "15.30799",
        "address": "843 Callahan UnionsnAllentown, WV 39774"
    },
    {
        "state": "SE",
        "name": "Ljungbyu00e5n",
        "city": "Smedby",
        "prov": "Kalmar",
        "region": "Kalmar Kommun",
        "latt": "56.63306",
        "longt": "16.23306",
        "address": "Unit 4972 Box 9986nDPO AP 57002"
    },
    {
        "state": "SE",
        "name": "Pellekula",
        "city": "Brosunden",
        "prov": "Vu00e4stra Gu00f6taland",
        "region": "Karlsborgs Kommun",
        "latt": "58.6",
        "longt": "14.33333",
        "address": "2269 Duran Plains Apt. 677nSouth Hannahfurt, LA 60705"
    },
    {
        "state": "SE",
        "name": "Berg",
        "city": "Berg",
        "prov": "Vu00e4rmland",
        "region": "Su00e4ffle Kommun",
        "latt": "58.98333",
        "longt": "13.13333",
        "address": "8418 Smith WaynDianestad, NC 28840"
    },
    {
        "state": "SE",
        "name": "Piilivarto",
        "city": "Vettasju00e4rvi",
        "prov": "Norrbotten",
        "region": "Gu00e4llivare kommun",
        "latt": "67.35",
        "longt": "21.7",
        "address": "974 Colon PlainsnCarolberg, NV 09814"
    },
    {
        "state": "SE",
        "name": "Lakabu00e4cken",
        "city": "Granviken",
        "prov": "Norrbotten",
        "region": "u00d6verkalix Kommun",
        "latt": "66.65",
        "longt": "22.6",
        "address": "177 Deborah Villages Apt. 223nEast Jenniferside, PA 47268"
    },
    {
        "state": "SE",
        "name": "Trotvallen",
        "city": "Alsju00f6arna",
        "prov": "Gu00e4vleborg",
        "region": "Ljusdals Kommun",
        "latt": "62.05",
        "longt": "15.96667",
        "address": "5397 Kristen TrailnBoydberg, AR 04672"
    },
    {
        "state": "SE",
        "name": "Holm socken",
        "city": "Bjork",
        "prov": "Uppsala",
        "region": "Enku00f6pings Kommun",
        "latt": "59.72033",
        "longt": "17.49815",
        "address": "55040 Johnson EstatenStewartstad, MO 88846"
    },
    {
        "state": "SE",
        "name": "Dalsu00e4ng",
        "city": "Dalsu00e4ng",
        "prov": "Gu00e4vleborg",
        "region": "Sandvikens Kommun",
        "latt": "60.65",
        "longt": "16.66667",
        "address": "548 Johnson Square Suite 822nHunttown, NE 53948"
    },
    {
        "state": "SE",
        "name": "Binklinge",
        "city": "Vrena",
        "prov": "Su00f6dermanland",
        "region": "Nyku00f6pings Kommun",
        "latt": "58.88333",
        "longt": "16.65",
        "address": "003 Hill PortnButlerstad, CO 43484"
    },
    {
        "state": "SE",
        "name": "Tovatorp",
        "city": "Sku00f6vde",
        "prov": "Vu00e4stra Gu00f6taland",
        "region": "Sku00f6vde Kommun",
        "latt": "58.45",
        "longt": "13.91667",
        "address": "3988 Trevor TrailnHooperland, RI 84147"
    },
    {
        "state": "SE",
        "name": "Kungsgu00e5rdsstrands Varv",
        "city": "Nyland",
        "prov": "Vu00e4sternorrland",
        "region": "Kramfors Kommun",
        "latt": "63.008",
        "longt": "17.82644",
        "address": "58497 Lauren Lights Apt. 188nNew Joan, PA 89199"
    },
    {
        "state": "SE",
        "name": "Vu00e4nnberga",
        "city": "Eslu00f6v",
        "prov": "Sku00e5ne",
        "region": "Eslu00f6vs Kommun",
        "latt": "55.85",
        "longt": "13.4",
        "address": "9619 Salazar MillnJustinbury, IL 68686"
    },
    {
        "state": "SE",
        "name": "Handu00f6ls Kapell",
        "city": "Handu00f6l",
        "prov": "Ju00e4mtland",
        "region": "u00c5re kommun",
        "latt": "63.26008",
        "longt": "12.43278",
        "address": "6183 Andrews Skyway Suite 212nCookfort, ND 29947"
    },
    {
        "state": "SE",
        "name": "Norra Lingan",
        "city": "Enviken",
        "prov": "Dalarna",
        "region": "Falu kommun",
        "latt": "60.8",
        "longt": "15.81667",
        "address": "271 Wright PlainsnKimberlyburgh, IA 66329"
    },
    {
        "state": "SE",
        "name": "Norrby",
        "city": "Tierp",
        "prov": "Uppsala",
        "region": "Tierps kommun",
        "latt": "60.38333",
        "longt": "17.56667",
        "address": "187 Phillip PlainsnWest Andrea, CT 65397"
    },
    {
        "state": "SE",
        "name": "Hju00e4rtsu00f6la",
        "city": "Bodafors",
        "prov": "Ju00f6nku00f6ping",
        "region": "Nu00e4ssju00f6 Kommun",
        "latt": "57.53333",
        "longt": "14.63333",
        "address": "PSC 3141, Box 3764nAPO AP 46153"
    },
    {
        "state": "SE",
        "name": "Kyrkebykile",
        "city": "Stenungsund",
        "prov": "Vu00e4stra Gu00f6taland",
        "region": "Stenungsunds Kommun",
        "latt": "58",
        "longt": "11.816667",
        "address": "6175 Anthony EstatesnNorth Stephanieshire, VT 15556"
    },
    {
        "state": "SE",
        "name": "Norra Lingan",
        "city": "Enviken",
        "prov": "Dalarna",
        "region": "Falu kommun",
        "latt": "60.8",
        "longt": "15.81667",
        "address": "944 Angela Lodge Suite 050nBowersland, NV 15877"
    },
    {
        "state": "SE",
        "name": "u00d6stra Fru00f6lunda",
        "city": "u00d6stra Fru00f6lunda",
        "prov": "Vu00e4stra Gu00f6taland",
        "region": "Svenljunga Kommun",
        "latt": "57.34155",
        "longt": "13.02919",
        "address": "7047 Fowler Plain Apt. 304nSouth Bettyton, AK 88878"
    },
    {
        "state": "SE",
        "name": "Su00f6derbu00e4ck",
        "city": "Su00f6derbu00e4ck",
        "prov": "Vu00e4sterbotten",
        "region": "Robertsfors Kommun",
        "latt": "64.3",
        "longt": "20.8",
        "address": "262 Nicole Trail Apt. 994nBrookeland, AK 70677"
    },
    {
        "state": "SE",
        "name": "Sjunnen",
        "city": "Vetlanda",
        "prov": "Ju00f6nku00f6ping",
        "region": "Vetlanda kommun",
        "latt": "57.433333",
        "longt": "15.166667",
        "address": "PSC 7297, Box 0387nAPO AP 75643"
    },
    {
        "state": "SE",
        "name": "Sillhu00f6vdingen",
        "city": "Holmsjoe",
        "prov": "Blekinge",
        "region": "Karlskrona Kommun",
        "latt": "56.41667",
        "longt": "15.55",
        "address": "09922 Butler BranchnWest Laurenchester, NM 74586"
    },
    {
        "state": "SE",
        "name": "Lirudsvu00e5len",
        "city": "Torsby",
        "prov": "Vu00e4rmland",
        "region": "Torsby Kommun",
        "latt": "60.13333",
        "longt": "13.05",
        "address": "USS WilsonnFPO AE 39485"
    },
    {
        "state": "SE",
        "name": "Torrioja",
        "city": "Torrivaara",
        "prov": "Norrbotten",
        "region": "Gu00e4llivare kommun",
        "latt": "66.7",
        "longt": "21.8",
        "address": "8270 Brittany Mill Suite 044nWest Derrickport, SD 91623"
    },
    {
        "state": "SE",
        "name": "Sku00e4ggaredsju00f6n",
        "city": "Viskafors",
        "prov": "Vu00e4stra Gu00f6taland",
        "region": "Boru00e5s",
        "latt": "57.65",
        "longt": "12.81667",
        "address": "26929 Obrien CornersnTurnershire, MA 30001"
    },
    {
        "state": "SE",
        "name": "Vu00e4sterlu00f6sa",
        "city": "Vasterlosa",
        "prov": "u00d6stergu00f6tland",
        "region": "Finspu00e5ngs Kommun",
        "latt": "58.8",
        "longt": "15.53333",
        "address": "90127 Sarah Oval Apt. 637nEthanshire, MN 52534"
    },
    {
        "state": "SE",
        "name": "u00d6vra Sandby",
        "city": "u00d6vra Sandby",
        "prov": "Kalmar",
        "region": "Borgholms Kommun",
        "latt": "56.83333",
        "longt": "16.76667",
        "address": "5569 Mack TrafficwaynAndersonfurt, NV 42205"
    },
    {
        "state": "SE",
        "name": "Hu00e5knabo",
        "city": "Hu00e5knabo",
        "prov": "Kalmar",
        "region": "Kalmar Kommun",
        "latt": "56.48333",
        "longt": "16.05",
        "address": "5636 King MountnNorth Alyssa, RI 67497"
    },
    {
        "state": "SE",
        "name": "Broestorp",
        "city": "Hittarp",
        "prov": "Sku00e5ne",
        "region": "u00d6stra Gu00f6inge Kommun",
        "latt": "56.25",
        "longt": "14.15",
        "address": "888 Danielle TrailnLake Philip, WA 50732"
    },
    {
        "state": "SE",
        "name": "Vu00e4sterlu00f6sa",
        "city": "Vasterlosa",
        "prov": "u00d6stergu00f6tland",
        "region": "Finspu00e5ngs Kommun",
        "latt": "58.8",
        "longt": "15.53333",
        "address": "7897 Torres StreetnSouth Ashley, FL 57605"
    },
    {
        "state": "SE",
        "name": "Skomsarby",
        "city": "Torsu00e5ng",
        "prov": "Dalarna",
        "region": "Borlu00e4nge Kommun",
        "latt": "60.4627",
        "longt": "15.54381",
        "address": "40684 Quinn Lakes Apt. 878nEast Phillipland, CT 85419"
    },
    {
        "state": "SE",
        "name": "Kvenneberga",
        "city": "Alvesta",
        "prov": "Kronoberg",
        "region": "Alvesta Kommun",
        "latt": "56.95",
        "longt": "14.51667",
        "address": "77310 Kenneth CirclesnLake Elizabethshire, AR 04289"
    },
    {
        "state": "SE",
        "name": "Limu00e4ngen",
        "city": "Ru00e5by-Ru00f6nu00f6",
        "prov": "Su00f6dermanland",
        "region": "Nyku00f6pings Kommun",
        "latt": "58.85",
        "longt": "16.9",
        "address": "80888 Ronald OverpassnTammyfurt, OR 75609"
    },
    {
        "state": "SE",
        "name": "Vu00e4ngeln",
        "city": "Tju00e4rnnu00e4set",
        "prov": "Ju00e4mtland",
        "region": "Stru00f6msunds kommun",
        "latt": "63.71667",
        "longt": "16.23333",
        "address": "969 Zachary Place Suite 338nJamesbury, WV 74353"
    },
    {
        "state": "SE",
        "name": "Kvenneberga",
        "city": "Alvesta",
        "prov": "Kronoberg",
        "region": "Alvesta Kommun",
        "latt": "56.95",
        "longt": "14.51667",
        "address": "520 Vickie Course Apt. 990nNorth Katherine, AZ 17479"
    },
    {
        "state": "SE",
        "name": "Hu00e4nsu00e4tter",
        "city": "Hansatter",
        "prov": "Gu00e4vleborg",
        "region": "Bollnu00e4s Kommun",
        "latt": "61.53333",
        "longt": "16.38333",
        "address": "82374 Ruiz Mountain Suite 360nWilsonhaven, UT 62373"
    },
    {
        "state": "SE",
        "name": "Skjovklitten",
        "city": "Vimo",
        "prov": "Dalarna",
        "region": "Mora Kommun",
        "latt": "60.86667",
        "longt": "14.28333",
        "address": "65565 Anderson Shores Suite 873nWest Ellenshire, VA 64689"
    },
    {
        "state": "SE",
        "name": "Buvalla",
        "city": "Limedsforsen",
        "prov": "Dalarna",
        "region": "Malung-Su00e4lens kommun",
        "latt": "60.88333",
        "longt": "13.38333",
        "address": "317 Smith Plaza Apt. 858nKristinland, WY 35513"
    },
    {
        "state": "SE",
        "name": "Fu00e5gelbu00e4ck",
        "city": "Transtrand",
        "prov": "Dalarna",
        "region": "Malung-Su00e4lens kommun",
        "latt": "61.1",
        "longt": "13.33333",
        "address": "265 Eric TerracenEast Patrick, MT 92127"
    },
    {
        "state": "SE",
        "name": "Erstaviksbadet station",
        "city": "Boo",
        "prov": "Stockholm",
        "region": "Nacka Kommun",
        "latt": "59.27296",
        "longt": "18.28512",
        "address": "9932 Jennifer PassnYoungfurt, AZ 20948"
    },
    {
        "state": "SE",
        "name": "Granholmen",
        "city": "Norrfjaerden",
        "prov": "Norrbotten",
        "region": "Piteu00e5 Kommun",
        "latt": "65.41667",
        "longt": "21.56667",
        "address": "52441 Sharon CenternJamesberg, IA 46667"
    },
    {
        "state": "SE",
        "name": "Kvedesta",
        "city": "Su00f6dertu00e4lje",
        "prov": "Stockholm",
        "region": "Su00f6dertu00e4lje Kommun",
        "latt": "59.15",
        "longt": "17.61667",
        "address": "807 Dawn HillnAmymouth, CT 40209"
    },
    {
        "state": "SE",
        "name": "Nyu00e4ngesbacken",
        "city": "Gammelstad",
        "prov": "Norrbotten",
        "region": "Luleu00e5 kommun",
        "latt": "65.65",
        "longt": "21.96667",
        "address": "88223 Katherine Station Suite 566nRussellview, AL 05978"
    },
    {
        "state": "SE",
        "name": "Vinterviken",
        "city": "Vaesteras",
        "prov": "Vu00e4stmanland",
        "region": null,
        "latt": "59.56667",
        "longt": "16.6",
        "address": "959 Michael Station Suite 835nPort Tyler, KY 32336"
    },
    {
        "state": "SE",
        "name": "Blu00e5sut",
        "city": "Vaenersborg",
        "prov": "Vu00e4stra Gu00f6taland",
        "region": "Vu00e4nersborgs Kommun",
        "latt": "58.37845",
        "longt": "12.29782",
        "address": "987 Lucas SpursnEast Makaylachester, IL 75165"
    },
    {
        "state": "SE",
        "name": "Lindgrensgrundet",
        "city": "Renholmen",
        "prov": "Vu00e4sterbotten",
        "region": "Skellefteu00e5 Kommun",
        "latt": "65",
        "longt": "21.43333",
        "address": "4793 David CornersnWheelerville, SC 58490"
    },
    {
        "state": "SE",
        "name": "Renfors",
        "city": "Renfors",
        "prov": "Vu00e4sterbotten",
        "region": "Norsju00f6 Kommun",
        "latt": "64.9",
        "longt": "20.13333",
        "address": "2899 Scott Lane Apt. 029nNew Dawn, AZ 92809"
    },
    {
        "state": "SE",
        "name": "Sku00f6nvik",
        "city": "OEsthammar",
        "prov": "Uppsala",
        "region": "u00d6sthammars Kommun",
        "latt": "60.3",
        "longt": "18.33333",
        "address": "18533 Cooper Spur Apt. 316nAshleyland, KS 82933"
    },