[
    {
        "state": "UA",
        "name": "Zhukov",
        "city": "Zhukov",
        "prov": "Ternopil",
        "region": null,
        "latt": "49.51656",
        "longt": "24.93905",
        "address": "20927 James PlazanPort Samantha, RI 85448"
    },
    {
        "state": "UA",
        "name": "Perelysyanka",
        "city": "Perelysyanka",
        "prov": "Rivne",
        "region": null,
        "latt": "50.96852",
        "longt": "26.05432",
        "address": "098 William Wall Apt. 793nDennisfort, NJ 90060"
    },
    {
        "state": "UA",
        "name": "Dobrik",
        "city": "Serednye Vodyane",
        "prov": "Transcarpathia",
        "region": null,
        "latt": "48.0127",
        "longt": "23.90146",
        "address": "98699 Ramos PortsnNew Brenda, WA 78626"
    },
    {
        "state": "UA",
        "name": "Yavtukhi",
        "city": "Yavtukhi",
        "prov": "Khmelnytskyi",
        "region": null,
        "latt": "49.1095",
        "longt": "27.47854",
        "address": "Unit 8804 Box 3174nDPO AA 13928"
    },
    {
        "state": "UA",
        "name": "Chevonyy Kut",
        "city": "Chevonyi Kut",
        "prov": "Vinnyts'ka",
        "region": null,
        "latt": "48.62224",
        "longt": "29.90035",
        "address": "962 Farrell TrailnPort Nicole, SD 57579"
    },
    {
        "state": "UA",
        "name": "Gora Malyy Agarmysh",
        "city": "Stary Krym",
        "prov": "Republic of Crimea",
        "region": "Gorodskoy okrug Sudak",
        "latt": "45.042045",
        "longt": "35.021545",
        "address": "806 Joanna Drive Apt. 764nSouth Robertfort, NH 49822"
    },
    {
        "state": "UA",
        "name": "Dvirkivshchyna",
        "city": "Dvirkivshchyna",
        "prov": "Kyiv",
        "region": null,
        "latt": "50.25549",
        "longt": "31.87959",
        "address": "4044 Hardin SquarenEast Chadton, MT 23076"
    },
    {
        "state": "UA",
        "name": "Plu2019okhiv",
        "city": "Plu2019okhiv",
        "prov": "Chernihiv",
        "region": null,
        "latt": "51.53652",
        "longt": "30.90738",
        "address": "USCGC BarreranFPO AA 63275"
    },
    {
        "state": "UA",
        "name": "Novoselytsya",
        "city": "Novoselytsya",
        "prov": "Chernivtsi Oblast'",
        "region": null,
        "latt": "48.21931",
        "longt": "26.26531",
        "address": "2573 Adams Neck Suite 237nPort Jesseton, AK 77794"
    },
    {
        "state": "UA",
        "name": "Kommuna Priklad",
        "city": "Kommuna Priklad",
        "prov": "Odessa",
        "region": null,
        "latt": "47.416667",
        "longt": "29.783333",
        "address": "0786 Davila RadialnSmithfurt, WI 72017"
    },
    {
        "state": "UA",
        "name": "Slipushynsu2019ke",
        "city": "Novofedorivka",
        "prov": "Kherson",
        "region": null,
        "latt": "46.20021",
        "longt": "32.39225",
        "address": "Unit 9107 Box 9633nDPO AA 17883"
    },
    {
        "state": "UA",
        "name": "Torhovyshche",
        "city": "Torhovyshche",
        "prov": "Volyn",
        "region": null,
        "latt": "51.17171",
        "longt": "24.39344",
        "address": "PSC 2426, Box 7829nAPO AP 41867"
    },
    {
        "state": "UA",
        "name": "Baklanove",
        "city": "Kruty",
        "prov": "Chernihiv",
        "region": null,
        "latt": "51.055735",
        "longt": "32.04852",
        "address": "838 Amy MillnMichellefort, VA 15398"
    },
    {
        "state": "UA",
        "name": "Shevchenkivka",
        "city": "Shevchenkivka",
        "prov": "Sumy",
        "region": null,
        "latt": "50.99258",
        "longt": "34.44035",
        "address": "03773 Scott CrescentnAnitatown, WV 35589"
    },
    {
        "state": "UA",
        "name": "Gavrilovka",
        "city": "Gavrilovka",
        "prov": "Khmelnytskyi",
        "region": null,
        "latt": "49.76819",
        "longt": "26.37557",
        "address": "090 Jimenez Drive Suite 569nEast Anaside, OH 06755"
    },
    {
        "state": "UA",
        "name": "Rozaleyevka",
        "city": "Rozaliivka",
        "prov": "Kyiv",
        "region": null,
        "latt": "49.8978",
        "longt": "30.54066",
        "address": "360 Leonard HillsnMariahaven, RI 41885"
    },
    {
        "state": "UA",
        "name": "Zasadky",
        "city": "Murovane",
        "prov": "Lviv",
        "region": null,
        "latt": "49.51579",
        "longt": "22.97437",
        "address": "401 Ryan SkywaynHeidiview, NC 16543"
    },
    {
        "state": "UA",
        "name": "Luchanky",
        "city": "Luchanky",
        "prov": "Zhytomyr",
        "region": null,
        "latt": "51.551045",
        "longt": "28.463562",
        "address": "7332 Brown Dam Suite 396nPort Desireestad, MA 82901"
    },
    {
        "state": "UA",
        "name": "Khyzhnyakove",
        "city": "Khyzhnyakove",
        "prov": "Kharkiv",
        "region": null,
        "latt": "50.31197",
        "longt": "37.46027",
        "address": "228 Jose GlennWest Kathytown, OK 06627"
    },
    {
        "state": "UA",
        "name": "Stantsiya Bandurka",
        "city": "Lysa Hora",
        "prov": "Mykolaiv",
        "region": null,
        "latt": "48.12441",
        "longt": "31.03335",
        "address": "8236 Oneill Hills Suite 788nMooreport, IN 53932"
    },
    {
        "state": "UA",
        "name": "Torchyn",
        "city": "Torchyn",
        "prov": "Vinnyts'ka",
        "region": null,
        "latt": "49.69338",
        "longt": "27.93252",
        "address": "PSC 4559, Box 1465nAPO AP 57049"
    },
    {
        "state": "UA",
        "name": "Hamivka",
        "city": "Hamivka",
        "prov": "Zaporizhia",
        "region": null,
        "latt": "46.68106",
        "longt": "35.64675",
        "address": "065 Joshua TracknNew Jose, DC 07761"
    },
    {
        "state": "UA",
        "name": "Verkhnya Ozeryana",
        "city": "Merefa",
        "prov": "Kharkiv",
        "region": null,
        "latt": "49.83066",
        "longt": "36.0012",
        "address": "415 Jennifer Terrace Suite 134nLake Sandrastad, RI 37569"
    },
    {
        "state": "UA",
        "name": "Ozero Yahodynsu2019ke",
        "city": "Rymachi",
        "prov": "Volyn",
        "region": null,
        "latt": "51.190808",
        "longt": "23.895113",
        "address": "775 Nicholas KeysnLake Rebeccatown, DC 52460"
    },
    {
        "state": "UA",
        "name": "Zdovbytsya",
        "city": "Zdolbuniv",
        "prov": "Rivne",
        "region": null,
        "latt": "50.49607",
        "longt": "26.24111",
        "address": "376 Mitchell MeadowsnNorth Benjamin, NY 21449"
    },
    {
        "state": "RU",
        "name": "Pryamoye",
        "city": "Pryamoye",
        "prov": "Republic of Crimea",
        "region": "Krasnohvardiiske Raion",
        "latt": "45.31488",
        "longt": "34.02468",
        "address": "24060 Wells ManorsnMaryton, PA 50340"
    },
    {
        "state": "UA",
        "name": "Zabolottsi",
        "city": "Blahodatne",
        "prov": "Volyn",
        "region": null,
        "latt": "50.6317",
        "longt": "24.27185",
        "address": "6972 Parker Burgs Apt. 695nNew Lindafort, AK 15953"
    },
    {
        "state": "UA",
        "name": "Ubezhishche",
        "city": "Yenakiyeve",
        "prov": "Donetsk",
        "region": null,
        "latt": "48.24111",
        "longt": "38.30806",
        "address": "725 Newton FerrynPort Laurenland, ID 98125"
    },
    {
        "state": "RU",
        "name": "Lebedyni Ostrovyfilial Krymsu2019koho Zapovidnyka",
        "city": "Kumovo",
        "prov": "Republic of Crimea",
        "region": "Razdolu2019nenskiy rayon",
        "latt": "45.87353",
        "longt": "33.55187",
        "address": "19699 Julie PlainsnSarahstad, TX 88914"
    },
    {
        "state": "UA",
        "name": "Novyi Mir",
        "city": "Rodnikovo",
        "prov": "Republic of Crimea",
        "region": "Simferopol Raion",
        "latt": "45.05575",
        "longt": "33.94251",
        "address": "371 Newman Port Suite 271nNorth Destinystad, MD 79174"
    },
    {
        "state": "UA",
        "name": "Novozhukiv",
        "city": "Novozhukiv",
        "prov": "Rivne",
        "region": null,
        "latt": "50.65985",
        "longt": "25.94976",
        "address": "2948 Sanchez MountainsnPort Christina, VA 39160"
    },
    {
        "state": "UA",
        "name": "Herasymivka",
        "city": "Herasymivka",
        "prov": "Poltava",
        "region": null,
        "latt": "49.4924",
        "longt": "33.18079",
        "address": "4140 Tony Island Suite 085nWest Jennifer, MD 70825"
    },
    {
        "state": "UA",
        "name": "Devu2019yanosto Pu2019yatyy Kvartal",
        "city": "Kryvyi Rih",
        "prov": "Dnipropetrovsk",
        "region": null,
        "latt": "47.9113",
        "longt": "33.39396",
        "address": "17812 Sarah Summit Apt. 175nStevenberg, MT 21360"
    },
    {
        "state": "UA",
        "name": "Yastremskaya",
        "city": "Stepanovka",
        "prov": "Odessa",
        "region": null,
        "latt": "47.15",
        "longt": "30.566667",
        "address": "1475 Love Courts Suite 934nSouth Coryland, AR 40039"
    },
    {
        "state": "UA",
        "name": "Novosu00eblovka",
        "city": "Novoselovka",
        "prov": "Mykolaiv",
        "region": null,
        "latt": "47.8206",
        "longt": "31.33285",
        "address": "72136 Hughes Loaf Suite 089nEast Jennifer, SD 68846"
    },
    {
        "state": "UA",
        "name": "Berezansu2019kyy Lyman",
        "city": "Yizhytsu2019ke",
        "prov": "Mykolaiv",
        "region": null,
        "latt": "46.74356",
        "longt": "31.52996",
        "address": "31333 Guerra Passage Apt. 227nDawsonberg, MN 66601"
    },
    {
        "state": "UA",
        "name": "Zagortse",
        "city": "Pidhirtsi",
        "prov": "Lviv",
        "region": null,
        "latt": "49.95881",
        "longt": "24.97621",
        "address": "96531 Taylor Road Suite 071nSouth Robert, SC 20889"
    },
    {
        "state": "UA",
        "name": "Vasilu2019yev",
        "city": "Kadubivtsi",
        "prov": "Chernivtsi Oblast'",
        "region": null,
        "latt": "48.6058",
        "longt": "25.843245",
        "address": "7854 Cordova Parkways Suite 350nEast Madisonfort, NY 91075"
    },
    {
        "state": "UA",
        "name": "Vypovziv",
        "city": "Desna",
        "prov": "Chernihiv",
        "region": null,
        "latt": "50.93543",
        "longt": "30.79314",
        "address": "6276 Williams LandnLake Terri, NY 25219"
    },
    {
        "state": "UA",
        "name": "Olviopol",
        "city": "Pervomaysu2019k",
        "prov": "Mykolaiv",
        "region": null,
        "latt": "48.05284",
        "longt": "30.86128",
        "address": "90173 Christopher TunnelnLake Shellyberg, TX 43682"
    },
    {
        "state": "UA",
        "name": "Herusivka",
        "city": "Herusivka",
        "prov": "Poltava",
        "region": null,
        "latt": "49.65919",
        "longt": "33.75978",
        "address": "61744 Horton Ridges Suite 528nNew Stephen, MI 98154"
    },
    {
        "state": "UA",
        "name": "Kopiykove",
        "city": "Zatyshshya",
        "prov": "Odessa",
        "region": null,
        "latt": "47.33951",
        "longt": "29.91258",
        "address": "419 Stephanie WallnNew Morgan, IN 13073"
    },
    {
        "state": "UA",
        "name": "Vradiyevskiy Rayon",
        "city": "Filimonovka",
        "prov": "Mykolaiv",
        "region": "Vradiyivsu2019kyy Rayon",
        "latt": "47.763146",
        "longt": "30.584587",
        "address": "9586 Freeman ForksnNorth Larry, WI 50302"
    },
    {
        "state": "UA",
        "name": "Shishkovtse",
        "city": "Shishkovtse",
        "prov": "Lviv",
        "region": null,
        "latt": "49.89093",
        "longt": "25.25716",
        "address": "Unit 1966 Box 2768nDPO AP 82898"
    },
    {
        "state": "UA",
        "name": "Annovka Trebinova",
        "city": "Anno-Trebinovka",
        "prov": "Kirovohrad",
        "region": null,
        "latt": "47.874048",
        "longt": "32.417476",
        "address": "2618 Christy SpurnNorth Danielletown, AK 78632"
    },
    {
        "state": "UA",
        "name": "Botfalva",
        "city": "Uzhgorod",
        "prov": "Transcarpathia",
        "region": "Uzhhorod Raion",
        "latt": "48.58004",
        "longt": "22.20721",
        "address": "087 Alec TrailnLake Maryborough, ND 07415"
    },
    {
        "state": "UA",
        "name": "Stantsiya Pirogovka",
        "city": "Pyrohivka",
        "prov": "Chernihiv",
        "region": null,
        "latt": "51.91717",
        "longt": "33.27642",
        "address": "281 Huerta KnollnPowellborough, WY 91963"
    },
    {
        "state": "UA",
        "name": "Dorozhishche",
        "city": "Kovalivka",
        "prov": "Zhytomyr",
        "region": null,
        "latt": "51.09967",
        "longt": "27.544602",
        "address": "8406 Jeremy ShoalsnSouth Micheal, MN 88999"
    },
    {
        "state": "UA",
        "name": "Voroshilovo",
        "city": "Voroshilovo",
        "prov": "Odesa",
        "region": null,
        "latt": "47.21667",
        "longt": "30.23333",
        "address": "148 Leslie Stream Apt. 385nLindseyton, AR 73874"
    },
    {
        "state": "UA",
        "name": "Stantsiya Zimna Voda Rudno",
        "city": "Rudne",
        "prov": "Lviv",
        "region": null,
        "latt": "49.834208",
        "longt": "23.878322",
        "address": "PSC 1847, Box 0047nAPO AE 62985"
    },
    {
        "state": "UA",
        "name": "Lisna Polyana",
        "city": "Markivka",
        "prov": "Luhansk",
        "region": null,
        "latt": "49.5242",
        "longt": "39.47234",
        "address": "48384 Maria Vista Apt. 571nPort James, RI 09707"
    },
    {
        "state": "UA",
        "name": "Magosheshti",
        "city": "Magosheshti",
        "prov": "Chernivtsi Oblast'",
        "region": null,
        "latt": "48.11667",
        "longt": "26.11667",
        "address": "534 Desiree Trafficway Suite 822nSouth Bryanborough, NE 16626"
    },
    {
        "state": "UA",
        "name": "Myrne",
        "city": "Bobrovytsya",
        "prov": "Chernihiv",
        "region": null,
        "latt": "50.70182",
        "longt": "31.42596",
        "address": "2011 Peters LightsnMeganmouth, UT 90870"
    },
    {
        "state": "UA",
        "name": "Hamivka",
        "city": "Hamivka",
        "prov": "Zaporizhia",
        "region": null,
        "latt": "46.68106",
        "longt": "35.64675",
        "address": "643 Ashley Plain Suite 175nSalazarfort, OH 65539"
    },
    {
        "state": "UA",
        "name": "Shevchenko",
        "city": "Shevchenko",
        "prov": "Mykolaiv",
        "region": null,
        "latt": "47.57351",
        "longt": "31.64736",
        "address": "Unit 8777 Box 6336nDPO AA 58914"
    },
    {
        "state": "UA",
        "name": "Ioniche",
        "city": "Rava-Rusu2019ka",
        "prov": "Lviv",
        "region": null,
        "latt": "50.20562",
        "longt": "23.62195",
        "address": "85802 Bishop BranchnTaylorborough, NY 57692"
    },
    {
        "state": "UA",
        "name": "Nakonechnoye",
        "city": "Yavoriv",
        "prov": "Lviv",
        "region": null,
        "latt": "49.93333",
        "longt": "23.31667",
        "address": "62585 Vaughn Trace Apt. 722nKatelynberg, DC 22794"
    },
    {
        "state": "UA",
        "name": "Pylyayi",
        "city": "Pylyayi",
        "prov": "Khmelnytskyi",
        "region": null,
        "latt": "50.06814",
        "longt": "27.02746",
        "address": "09288 Thomas Stream Suite 506nAllenmouth, WV 85146"
    },
    {
        "state": "UA",
        "name": "Velyki Bubny",
        "city": "Velyki Bubny",
        "prov": "Sumy",
        "region": null,
        "latt": "50.84555",
        "longt": "33.26485",
        "address": "815 Amy Highway Apt. 795nEast Kathyhaven, WA 86821"
    },
    {
        "state": "UA",
        "name": "Budylok",
        "city": "Budylok",
        "prov": "Sumy",
        "region": null,
        "latt": "50.86694",
        "longt": "34.18278",
        "address": "940 Marquez LodgenTurnerville, NY 01673"
    },
    {
        "state": "UA",
        "name": "Khutor Vesu00eblyy",
        "city": "Kuchurhan",
        "prov": "Odesa",
        "region": null,
        "latt": "47.18333",
        "longt": "29.83333",
        "address": "7277 April DalenNew Lauren, CO 43796"
    },
    {
        "state": "UA",
        "name": "Lyashkivtsi",
        "city": "Lyashkivtsi",
        "prov": "Chernihiv",
        "region": null,
        "latt": "51.69802",
        "longt": "32.6743",
        "address": "2221 Shannon Causeway Apt. 274nEast Melindaville, WY 05837"
    },
    {
        "state": "UA",
        "name": "Berdychivsu2019ka Misu2019krada",
        "city": "Berdychiv",
        "prov": "Zhytomyr",
        "region": "Berdychivsu2019ka Misu2019krada",
        "latt": "49.89675",
        "longt": "28.59722",
        "address": "59452 Melissa WaynMargaretmouth, MA 50087"
    },
    {
        "state": "UA",
        "name": "Batu2019ky",
        "city": "Batu2019ky",
        "prov": "Poltava",
        "region": null,
        "latt": "50.027",
        "longt": "34.56903",
        "address": "136 Angela Vista Suite 746nNew Bobbyport, CT 80022"
    },
    {
        "state": "UA",
        "name": "Hryntsiv Rih",
        "city": "Hryntsiv Rih",
        "prov": "Kharkiv",
        "region": null,
        "latt": "49.91954",
        "longt": "35.61339",
        "address": "788 Christopher Port Apt. 975nWrightview, NJ 74313"
    },
    {
        "state": "UA",
        "name": "Hranivka",
        "city": "Hranivka",
        "prov": "Rivne",
        "region": null,
        "latt": "50.24855",
        "longt": "25.51543",
        "address": "814 Giles Mount Suite 840nLindafort, OH 17033"
    },
    {
        "state": "UA",
        "name": "Dobropillia Raion",
        "city": "Bilyts'ke",
        "prov": "Donetsk",
        "region": "Dobropillia Raion",
        "latt": "48.41667",
        "longt": "37.16667",
        "address": "99886 Jackson TracenNew Richardfort, VA 11189"
    },
    {
        "state": "UA",
        "name": "Kalantayivka",
        "city": "Kalantayivka",
        "prov": "Odessa",
        "region": null,
        "latt": "46.7208",
        "longt": "30.27977",
        "address": "17845 Meadows Spur Suite 394nNorth Megan, VT 32062"
    },
    {
        "state": "UA",
        "name": "Shevchenko",
        "city": "Bobrovytsya",
        "prov": "Chernihiv",
        "region": null,
        "latt": "50.75954",
        "longt": "31.37043",
        "address": "215 Cynthia EstatesnRodriguezland, WA 65849"
    },
    {
        "state": "UA",
        "name": "Buda-Radynsu2019ka",
        "city": "Buda-Radynsu2019ka",
        "prov": "Kyiv",
        "region": null,
        "latt": "51.18333",
        "longt": "29.680725",
        "address": "0822 Joseph ClubnPort Vanessa, KS 41341"
    },
    {
        "state": "UA",
        "name": "Surmiche",
        "city": "Dubno",
        "prov": "Rivne",
        "region": null,
        "latt": "50.41667",
        "longt": "25.76667",
        "address": "48016 Victoria Views Apt. 580nLyonsborough, VT 62762"
    },
    {
        "state": "UA",
        "name": "Kvasnyy",
        "city": "Bohdan",
        "prov": "Transcarpathia",
        "region": null,
        "latt": "48.0407",
        "longt": "24.34155",
        "address": "4142 Anderson Court Suite 557nThomasfort, TN 19937"
    },
    {
        "state": "UA",
        "name": "Vasilu2019yev",
        "city": "Kadubivtsi",
        "prov": "Chernivtsi Oblast'",
        "region": null,
        "latt": "48.6058",
        "longt": "25.843245",
        "address": "873 Vincent Locks Apt. 370nRobertmouth, UT 39826"
    },
    {
        "state": "UA",
        "name": "Vorsivka",
        "city": "Vorsivka",
        "prov": "Zhytomyr",
        "region": null,
        "latt": "50.69456",
        "longt": "29.24926",
        "address": "38060 Marsh Port Apt. 497nGordonhaven, KS 45207"
    },
    {
        "state": "UA",
        "name": "Zdovbytsya",
        "city": "Zdolbuniv",
        "prov": "Rivne",
        "region": null,
        "latt": "50.49607",
        "longt": "26.24111",
        "address": "621 Ryan InletnLake Victorton, AL 08515"
    },
    {
        "state": "UA",
        "name": "Sozanu2019",
        "city": "Staryy Sambir",
        "prov": "Lviv",
        "region": null,
        "latt": "49.43861",
        "longt": "23.03569",
        "address": "203 Wright RoadnJaclynborough, MN 72326"
    },
    {
        "state": "UA",
        "name": "Horbani",
        "city": "Kharkiv",
        "prov": "Kharkiv",
        "region": null,
        "latt": "49.94083",
        "longt": "36.33183",
        "address": "95151 Ashley PlainsnPopeview, AK 96768"
    },
    {
        "state": "UA",
        "name": "Lyashkivtsi",
        "city": "Lyashkivtsi",
        "prov": "Chernihiv",
        "region": null,
        "latt": "51.69802",
        "longt": "32.6743",
        "address": "9527 Ronald Forest Apt. 754nFitzgeraldbury, FL 62399"
    },
    {
        "state": "UA",
        "name": "Danylivka",
        "city": "Danylivka",
        "prov": "Luhansk",
        "region": null,
        "latt": "49.12077",
        "longt": "39.62051",
        "address": "0923 Reed Trail Apt. 393nEast Joseph, FL 71178"
    },
    {
        "state": "UA",
        "name": "Novokhatky",
        "city": "Bykivka",
        "prov": "Zhytomyr",
        "region": null,
        "latt": "50.29248",
        "longt": "28.05704",
        "address": "23401 Woodard JunctionsnEast Reneefort, AL 44110"
    },
    {
        "state": "UA",
        "name": "Herasymivka",
        "city": "Herasymivka",
        "prov": "Poltava",
        "region": null,
        "latt": "49.4924",
        "longt": "33.18079",
        "address": "74781 Nathan RivernWest Jeffreymouth, WA 30518"
    },
    {
        "state": "UA",
        "name": "Stari Kuty",
        "city": "Stari Kuty",
        "prov": "Ivano-Frankivsk",
        "region": null,
        "latt": "48.27093",
        "longt": "25.17293",
        "address": "727 Martinez Flat Apt. 013nSouth Lydia, WI 61710"
    },
    {
        "state": "UA",
        "name": "Torchyn",
        "city": "Torchyn",
        "prov": "Vinnyts'ka",
        "region": null,
        "latt": "49.69338",
        "longt": "27.93252",
        "address": "729 Jaclyn FieldnLake Stephanie, MI 06289"
    },
    {
        "state": "UA",
        "name": "Novomoskovsu2019ke",
        "city": "Novomoskovs'ke",
        "prov": "Poltava",
        "region": null,
        "latt": "49.46253",
        "longt": "33.25004",
        "address": "963 Kevin FordsnGoodmanport, CT 48557"
    },
    {
        "state": "UA",
        "name": "Solonytsu2019ka",
        "city": "Lubny",
        "prov": "Poltava",
        "region": null,
        "latt": "49.98266",
        "longt": "33.04213",
        "address": "305 Jim MeadowsnAmyhaven, WY 99065"
    },
    {
        "state": "UA",
        "name": "Partyzansu2019ke",
        "city": "Partyzans'ke",
        "prov": "Rivne",
        "region": null,
        "latt": "51.6759",
        "longt": "26.54322",
        "address": "558 Crystal SummitnAmandaview, VT 02039"
    },
    {
        "state": "UA",
        "name": "Sonyne",
        "city": "Sonyne",
        "prov": "Kirovohrad",
        "region": null,
        "latt": "48.68051",
        "longt": "33.29655",
        "address": "108 Monica Mission Apt. 505nElizabethmouth, OK 02778"
    },
    {
        "state": "UA",
        "name": "Pogorile",
        "city": "Stanytsya Luhansu2019ka",
        "prov": "Luhansk",
        "region": null,
        "latt": "48.653889",
        "longt": "39.532222",
        "address": "USNV VargasnFPO AA 13079"
    },
    {
        "state": "UA",
        "name": "Mynu2019kivtsi",
        "city": "Mynu2019kivtsi",
        "prov": "Khmelnytskyi",
        "region": null,
        "latt": "50.3179",
        "longt": "26.9925",
        "address": "4114 Walter Path Apt. 401nPort Virginiaview, VA 17793"
    },
    {
        "state": "UA",
        "name": "Vorsivka",
        "city": "Vorsivka",
        "prov": "Zhytomyr",
        "region": null,
        "latt": "50.69456",
        "longt": "29.24926",
        "address": "33709 Arroyo Estate Apt. 691nSouth Christine, AK 53258"
    },
    {
        "state": "UA",
        "name": "Budylok",
        "city": "Budylok",
        "prov": "Sumy",
        "region": null,
        "latt": "50.86694",
        "longt": "34.18278",
        "address": "Unit 2202 Box 6299nDPO AE 90114"
    },
    {
        "state": "UA",
        "name": "Olenevskoye sel'skoye poselenye",
        "city": "Olenevka",
        "prov": "Republic of Crimea",
        "region": "Chernomorskiy rayon",
        "latt": "45.3756",
        "longt": "32.53369",
        "address": "89320 Dawn Circles Suite 135nConleyport, NV 09499"
    },
    {
        "state": "UA",
        "name": "Kovalevskiye",
        "city": "Khutora Kovalevskiye",
        "prov": "Chernihiv",
        "region": null,
        "latt": "51.783333",
        "longt": "31.45",
        "address": "28500 King PinenBauermouth, CT 48164"
    },
    {
        "state": "UA",
        "name": "Tverdokhleb",
        "city": "Tverdokhleb",
        "prov": "Poltava",
        "region": null,
        "latt": "49.3",
        "longt": "33.21667",
        "address": "USCGC DennisnFPO AE 04473"
    },
    {
        "state": "UA",
        "name": "Zhovtnevyy Rayon",
        "city": "Luhansk",
        "prov": "Luhansk",
        "region": null,
        "latt": "48.56667",
        "longt": "39.33333",
        "address": "069 Joshua Overpass Apt. 499nLake Amber, KY 43716"
    },
    {
        "state": "UA",
        "name": "Tsekynivka",
        "city": "Tsekynivka",
        "prov": "Vinnyts'ka",
        "region": null,
        "latt": "48.16194",
        "longt": "28.31167",
        "address": "12317 Cruz Loaf Apt. 700nWest Glendaton, NV 43513"
    },
    {
        "state": "UA",
        "name": "Spokoystviye",
        "city": "Sofiyivka",
        "prov": "Dnipropetrovsk",
        "region": null,
        "latt": "48.09732",
        "longt": "33.83543",
        "address": "91152 Lisa RownZavalashire, WA 98451"
    },
    {
        "state": "UA",
        "name": "Muzhikov",
        "city": "Bereznyky",
        "prov": "Transcarpathia",
        "region": null,
        "latt": "48.51118",
        "longt": "23.22501",
        "address": "50503 Meghan Manor Suite 524nCynthiahaven, DE 45419"
    },
    {
        "state": "UA",
        "name": "Ivashkovka",
        "city": "Ivashkovka",
        "prov": "Kharkiv",
        "region": null,
        "latt": "49.225",
        "longt": "36.24306",
        "address": "078 Dylan Drive Apt. 825nEast Morganland, MT 59156"
    },
    {
        "state": "UA",
        "name": "Ostrozu2019ka Misu2019krada",
        "city": "Ostroh",
        "prov": "Rivne",
        "region": "Ostrozu2019ka Misu2019krada",
        "latt": "50.32726",
        "longt": "26.51765",
        "address": "407 Shelby Gardens Apt. 798nNorth Angelmouth, MT 39648"
    },
    {
        "state": "UA",
        "name": "Stavyshche",
        "city": "Roskoshnyy",
        "prov": "Kyiv",
        "region": null,
        "latt": "49.39124",
        "longt": "30.19022",
        "address": "83206 Rachel UnderpassnGomezside, MI 24801"
    },
    {
        "state": "UA",
        "name": "Sirna",
        "city": "Rozhyshche",
        "prov": "Volyn",
        "region": null,
        "latt": "50.84552",
        "longt": "25.25582",
        "address": "68331 Riley Plaza Apt. 222nPort Michael, NV 86913"
    },
    {
        "state": "UA",
        "name": "Ladyzhinskiye Khutora",
        "city": "Ladyzhinskiye Khutora",
        "prov": "Vinnyts'ka",
        "region": null,
        "latt": "48.67486",
        "longt": "29.34028",
        "address": "24670 Lee RestnEast Melissa, MA 91206"
    },
    {
        "state": "UA",
        "name": "Voroshilovo",
        "city": "Voroshilovo",
        "prov": "Odesa",
        "region": null,
        "latt": "47.21667",
        "longt": "30.23333",
        "address": "7636 Wheeler BrooknSparksberg, UT 55397"
    },
    {
        "state": "UA",
        "name": "Bovbasivka",
        "city": "Bovbasivka",
        "prov": "Poltava",
        "region": null,
        "latt": "49.65391",
        "longt": "33.30199",
        "address": "4523 Riley Street Apt. 627nHarryview, TN 46375"
    },
    {
        "state": "UA",
        "name": "Shapovalivka",
        "city": "Slatyne",
        "prov": "Kharkiv",
        "region": null,
        "latt": "50.24556",
        "longt": "36.14374",
        "address": "0580 Roberts Stravenue Apt. 969nNorth Stephanie, AK 22680"
    },
    {
        "state": "UA",
        "name": "Novoselytsya",
        "city": "Novoselytsya",
        "prov": "Chernivtsi Oblast'",
        "region": null,
        "latt": "48.21931",
        "longt": "26.26531",
        "address": "PSC 2402, Box 9707nAPO AA 89753"
    },
    {
        "state": "UA",
        "name": "Kryukivshchyna",
        "city": "Vyshneve",
        "prov": "Kyiv",
        "region": null,
        "latt": "50.36986",
        "longt": "30.36686",
        "address": "PSC 0860, Box 2261nAPO AA 40329"
    },
    {
        "state": "UA",
        "name": "Novo-Ustinovka",
        "city": "Novo-Ustinovka",
        "prov": "Kirovohrad",
        "region": null,
        "latt": "47.95063",
        "longt": "32.67456",
        "address": "6456 Williams Islands Apt. 403nKellyberg, MS 12433"
    },
    {
        "state": "UA",
        "name": "Herasymivka",
        "city": "Herasymivka",
        "prov": "Poltava",
        "region": null,
        "latt": "49.4924",
        "longt": "33.18079",
        "address": "0188 Sandra Plaza Suite 442nSouth Travis, NV 03731"
    },
    {
        "state": "UA",
        "name": "Myrove",
        "city": "Tomakivka",
        "prov": "Dnipropetrovsk",
        "region": null,
        "latt": "47.770614",
        "longt": "34.732756",
        "address": "24023 Kayla Well Apt. 016nSouth Ruthfurt, KY 81429"
    },
    {
        "state": "UA",
        "name": "Pryvilu2019ne",
        "city": "Novobohdanivka",
        "prov": "Zaporizhia",
        "region": null,
        "latt": "47.11472",
        "longt": "35.35194",
        "address": "415 Morales Springs Apt. 731nNorth Amberbury, CT 47016"
    },
    {
        "state": "UA",
        "name": "Novo-Vybrevo",
        "city": "Novo-Vybrevo",
        "prov": "Donetsk",
        "region": "Volnovakha Raion",
        "latt": "47.194802",
        "longt": "37.847389",
        "address": "863 Anderson Keys Suite 951nPerezfurt, DE 04675"
    },
    {
        "state": "UA",
        "name": "Natsionalu2019nyy Park Homilu2019shansu2019ki Lisy",
        "city": "Koropove",
        "prov": "Kharkiv",
        "region": null,
        "latt": "49.57589",
        "longt": "36.3079",
        "address": "52336 Lindsay Trail Apt. 389nPort Jamie, OK 27870"
    },
    {
        "state": "UA",
        "name": "Malomykhaylivka",
        "city": "Malomykhaylivka",
        "prov": "Dnipropetrovsk",
        "region": null,
        "latt": "48.08644",
        "longt": "36.4155",
        "address": "49608 Simpson JunctionsnWest Adam, CT 95394"
    },
    {
        "state": "UA",
        "name": "Khlopkiv",
        "city": "Baryshivka",
        "prov": "Kyiv",
        "region": null,
        "latt": "50.38068",
        "longt": "31.35808",
        "address": "695 Lewis Road Suite 014nWest Heather, NC 97543"
    },
    {
        "state": "UA",
        "name": "Leliv",
        "city": "Kryva Hora",
        "prov": "Kyiv",
        "region": null,
        "latt": "51.3149",
        "longt": "30.17926",
        "address": "Unit 5602 Box 4950nDPO AE 49936"
    },
    {
        "state": "UA",
        "name": "Donetsko-Pridneprovskiy Ekonomicheskiy Rayon",
        "city": "Solonytsivka",
        "prov": "Kharkiv",
        "region": null,
        "latt": "50",
        "longt": "36",
        "address": "5291 Melissa HillsnEast Pennymouth, IA 13461"
    },
    {
        "state": "UA",
        "name": "Andriyivsu2019ke",
        "city": "Andriyivsu2019ke",
        "prov": "Zaporizhia",
        "region": null,
        "latt": "47.35444",
        "longt": "36.0682",
        "address": "2786 Castillo RoadsnNew Hunter, NC 70825"
    },
    {
        "state": "UA",
        "name": "Ostriv Striletsu2019kyy",
        "city": "Kremenchuk",
        "prov": "Poltava",
        "region": "Kremenchugskiy Rayon",
        "latt": "49.03138",
        "longt": "33.49774",
        "address": "76801 Gabriella VillagenEast Matthewville, ND 21674"
    },
    {
        "state": "UA",
        "name": "Mykhaylivka",
        "city": "Mykhaylivka",
        "prov": "Vinnyts'ka",
        "region": null,
        "latt": "48.80678",
        "longt": "28.29542",
        "address": "612 Newton RoadnJoshualand, ID 69101"
    },
    {
        "state": "UA",
        "name": "Radyansu2019ke",
        "city": "Radyans'ke",
        "prov": "Chernihiv",
        "region": null,
        "latt": "51.93324",
        "longt": "31.72451",
        "address": "7524 Wells ViewnPattersonmouth, WI 03663"
    },
    {
        "state": "UA",
        "name": "Bitumnoye",
        "city": "Gresovskiy",
        "prov": "Republic of Crimea",
        "region": "Gorodskoy okrug Simferopol",
        "latt": "45.01937",
        "longt": "34.04509",
        "address": "647 Freeman Way Suite 146nSouth Teresabury, SD 53966"
    },
    {
        "state": "UA",
        "name": "Bublikov",
        "city": "Bublikov",
        "prov": "Sumy",
        "region": null,
        "latt": "50.33333",
        "longt": "34.75",
        "address": "97814 Carlson IslandsnOlivershire, MO 29082"
    },
    {
        "state": "UA",
        "name": "Kalistrovo",
        "city": "Nay-Karasrue",
        "prov": "Mykolaiv",
        "region": null,
        "latt": "47.383333",
        "longt": "32.316667",
        "address": "6847 Lee CrossroadnNew Michael, IL 10009"
    },
    {
        "state": "UA",
        "name": "Horobtsi",
        "city": "Horobtsi",
        "prov": "Poltava",
        "region": null,
        "latt": "49.40101",
        "longt": "34.15681",
        "address": "06427 Kimberly GrovenRobertmouth, TX 21229"
    },
    {
        "state": "UA",
        "name": "Romanivka",
        "city": "Romanivka",
        "prov": "Zhytomyr",
        "region": null,
        "latt": "50.08518",
        "longt": "27.97534",
        "address": "8895 Matthew CapenLake Brandonborough, HI 34195"
    },
    {
        "state": "UA",
        "name": "Volove",
        "city": "Bibrka",
        "prov": "Lviv",
        "region": null,
        "latt": "49.66855",
        "longt": "24.31007",
        "address": "Unit 6078 Box 1844nDPO AE 09220"
    },
    {
        "state": "UA",
        "name": "Gigant",
        "city": "Dobropillya",
        "prov": "Donetsk",
        "region": null,
        "latt": "48.46667",
        "longt": "37.1",
        "address": "180 Cardenas Centers Suite 892nKatherineside, MA 22828"
    },
    {
        "state": "UA",
        "name": "Mlyny",
        "city": "Lokhvytsya",
        "prov": "Poltava",
        "region": null,
        "latt": "50.38544",
        "longt": "33.31081",
        "address": "781 Rodriguez ShoresnNorth Amy, NE 29050"
    },
    {
        "state": "UA",
        "name": "Tomashivka",
        "city": "Tomashivka",
        "prov": "Kyiv",
        "region": null,
        "latt": "50.19472",
        "longt": "29.82752",
        "address": "1400 Brenda LakenNorth Judith, KY 93437"
    },
    {
        "state": "UA",
        "name": "Plu2019okhiv",
        "city": "Plu2019okhiv",
        "prov": "Chernihiv",
        "region": null,
        "latt": "51.53652",
        "longt": "30.90738",
        "address": "70452 Hines RidgenMichellemouth, ME 27314"
    },
    {
        "state": "UA",
        "name": "Bilotserkivsu2019ka Misu2019krada",
        "city": "Bila Tserkva",
        "prov": "Kyiv",
        "region": "Bilotserkivsu2019ka Misu2019krada",
        "latt": "49.80421",
        "longt": "30.11988",
        "address": "558 Natasha WalknEast Brenda, NY 61436"
    },
    {
        "state": "UA",
        "name": "Yastremskaya",
        "city": "Stepanovka",
        "prov": "Odessa",
        "region": null,
        "latt": "47.15",
        "longt": "30.566667",
        "address": "PSC 8151, Box 3251nAPO AP 17699"
    },
    {
        "state": "UA",
        "name": "Petrivka",
        "city": "Petrivka",
        "prov": "Donetsk",
        "region": "Volnovakha Raion",
        "latt": "47.4802",
        "longt": "37.44058",
        "address": "37018 Wright DrivesnBrookemouth, CO 15572"
    },
    {
        "state": "UA",
        "name": "Ustechko",
        "city": "Ustechko",
        "prov": "Ivano-Frankivsk",
        "region": null,
        "latt": "48.77493",
        "longt": "25.59759",
        "address": "893 Rhonda Trail Apt. 383nNew Debbieview, WI 69615"
    },
    {
        "state": "UA",
        "name": "Shevchenko",
        "city": "Bobrovytsya",
        "prov": "Chernihiv",
        "region": null,
        "latt": "50.75954",
        "longt": "31.37043",
        "address": "5295 Young PortnStephensonfurt, CA 98496"
    },
    {
        "state": "UA",
        "name": "Bernashivka",
        "city": "Novodnistrovsu2019k",
        "prov": "Chernivtsi Oblast'",
        "region": "Novodnistrovsu2019ka Misu2019krada",
        "latt": "48.57545",
        "longt": "27.48051",
        "address": "89948 Nguyen PinesnNorth Samuelborough, AZ 30621"
    },
    {
        "state": "UA",
        "name": "Bohdano-Verbky",
        "city": "Petropavlivka",
        "prov": "Dnipropetrovsk",
        "region": null,
        "latt": "48.5073",
        "longt": "36.36221",
        "address": "7020 Nelson Fields Suite 734nGarciabury, WI 08120"
    },
    {
        "state": "UA",
        "name": "Verbolozy",
        "city": "Verbolozy",
        "prov": "Vinnyts'ka",
        "region": null,
        "latt": "49.798513",
        "longt": "28.860814",
        "address": "PSC 1247, Box 7058nAPO AA 74563"
    },
    {
        "state": "UA",
        "name": "Svyshnya",
        "city": "Rohoshchi",
        "prov": "Chernihiv",
        "region": null,
        "latt": "51.63392",
        "longt": "31.11808",
        "address": "396 Caitlin Prairie Apt. 057nPort Kimberly, NC 59360"
    },
    {
        "state": "UA",
        "name": "Zhenesh",
        "city": "Yaremche",
        "prov": "Ivano-Frankivsk",
        "region": null,
        "latt": "48.45",
        "longt": "24.55",
        "address": "78082 Cory SquarenJessicabury, MT 91299"
    },
    {
        "state": "UA",
        "name": "Stantsiya Oratov",
        "city": "Skybyn",
        "prov": "Vinnyts'ka",
        "region": null,
        "latt": "49.174985",
        "longt": "29.389998",
        "address": "19896 Nichols IslandnSouth Sethtown, WA 26247"
    },
    {
        "state": "UA",
        "name": "Ruzhinskiy Rayon",
        "city": "Ruzhyn",
        "prov": "Zhytomyr",
        "region": null,
        "latt": "49.66667",
        "longt": "29.25",
        "address": "922 Henry RanchnSouth Michael, KS 54322"
    },
    {
        "state": "UA",
        "name": "Kamenka",
        "city": "Kamenka",
        "prov": "Zhytomyr",
        "region": null,
        "latt": "50.34159",
        "longt": "28.59009",
        "address": "2007 Williams KeysnNorth Samantha, WI 17885"
    },
    {
        "state": "UA",
        "name": "Zupynnyy Punkt Fursove",
        "city": "Novopidhorodne",
        "prov": "Dnipropetrovsk",
        "region": null,
        "latt": "48.24121",
        "longt": "36.87272",
        "address": "06481 Edward PrairienLake Nicholas, FL 82463"
    },
    {
        "state": "UA",
        "name": "Lishchynivka",
        "city": "Kobelyaky",
        "prov": "Poltava",
        "region": null,
        "latt": "49.19784",
        "longt": "34.22683",
        "address": "9347 John RidgesnAshleyland, MD 07098"
    },
    {
        "state": "UA",
        "name": "Nalyvaikivka",
        "city": "Makariv",
        "prov": "Kyiv",
        "region": null,
        "latt": "50.47944",
        "longt": "29.73528",
        "address": "25236 Martin PointsnMichelleview, MD 33491"
    },
    {
        "state": "UA",
        "name": "Luka",
        "city": "Luka",
        "prov": "Ternopil",
        "region": null,
        "latt": "49.0198",
        "longt": "24.98329",
        "address": "5255 Gibbs Fords Apt. 786nWest Ashleyborough, AK 49069"
    },
    {
        "state": "UA",
        "name": "Ostrivshyna",
        "city": "Blyznyuky",
        "prov": "Kharkiv",
        "region": null,
        "latt": "48.86705",
        "longt": "36.63959",
        "address": "3948 Perez Park Suite 743nFraziershire, CO 63676"
    },
    {
        "state": "UA",
        "name": "Yasnopillya",
        "city": "Yasnopillya",
        "prov": "Odessa",
        "region": null,
        "latt": "47.35563",
        "longt": "30.81622",
        "address": "5329 John Walk Suite 794nJasonchester, AL 46663"
    },
    {
        "state": "UA",
        "name": "Tymkove",
        "city": "Slobidka",
        "prov": "Odessa",
        "region": null,
        "latt": "47.87476",
        "longt": "29.28155",
        "address": "0091 Katie CirclesnSouth Mirandaland, NM 31718"
    },
    {
        "state": "UA",
        "name": "Yasynuvatsu2019ka Misu2019krada",
        "city": "Yasynuvata",
        "prov": "Donetsk",
        "region": "Yasynuvatsu2019ka Misu2019krada",
        "latt": "48.1284",
        "longt": "37.85919",
        "address": "547 Holly Wells Apt. 351nSouth Michael, MO 84938"
    },
    {
        "state": "UA",
        "name": "Poltava Air Base",
        "city": "Poltava",
        "prov": "Poltava",
        "region": null,
        "latt": "49.6265",
        "longt": "34.49432",
        "address": "7017 Proctor LightnRyanfurt, IL 55818"
    },
    {
        "state": "UA",
        "name": "Terny",
        "city": "Terny",
        "prov": "Sumy",
        "region": null,
        "latt": "50.98916",
        "longt": "33.9707",
        "address": "227 William SquarenSchwartzmouth, NJ 80439"
    },
    {
        "state": "UA",
        "name": "Kivertsovskiy Rayon",
        "city": "Chovnytsya",
        "prov": "Volyn",
        "region": null,
        "latt": "50.91667",
        "longt": "25.5",
        "address": "6391 Ashley Coves Suite 740nJamesburgh, NJ 17389"
    },
    {
        "state": "UA",
        "name": "Sedlyshche",
        "city": "Sedlyshche",
        "prov": "Volyn",
        "region": null,
        "latt": "51.66594",
        "longt": "25.37337",
        "address": "74483 Moore WalknAlexismouth, NY 51671"
    },
    {
        "state": "UA",
        "name": "Lishchynivka",
        "city": "Kobelyaky",
        "prov": "Poltava",
        "region": null,
        "latt": "49.19784",
        "longt": "34.22683",
        "address": "630 Sharon CovenNew Crystal, OK 47154"
    },
    {
        "state": "UA",
        "name": "Oliynykove",
        "city": "Oliynykove",
        "prov": "Kharkiv",
        "region": null,
        "latt": "50.26689",
        "longt": "36.48294",
        "address": "5737 Sarah CirclesnLake Jessica, CT 98635"
    },
    {
        "state": "UA",
        "name": "Sadky",
        "city": "Sadky",
        "prov": "Zhytomyr",
        "region": null,
        "latt": "50.84729",
        "longt": "27.73081",
        "address": "Unit 0950 Box 6799nDPO AA 45591"
    },
    {
        "state": "UA",
        "name": "Oleksandrivka",
        "city": "Oleksandrivka",
        "prov": "Rivne",
        "region": null,
        "latt": "51.00904",
        "longt": "26.44598",
        "address": "1504 Cruz Island Apt. 345nLeeburgh, WI 27031"
    },
    {
        "state": "UA",
        "name": "Donetsko-Pridneprovskiy Ekonomicheskiy Rayon",
        "city": "Solonytsivka",
        "prov": "Kharkiv",
        "region": null,
        "latt": "50",
        "longt": "36",
        "address": "Unit 3123 Box 5989nDPO AE 82400"
    },
    {
        "state": "UA",
        "name": "Kopiykove",
        "city": "Zatyshshya",
        "prov": "Odessa",
        "region": null,
        "latt": "47.33951",
        "longt": "29.91258",
        "address": "433 Isaac VillagenNorth Jessicafurt, FL 48896"
    },
    {
        "state": "UA",
        "name": "Ivanovka",
        "city": "Ivanovka",
        "prov": "Kherson",
        "region": null,
        "latt": "46.6",
        "longt": "33.95",
        "address": "5582 Erin Extension Suite 388nPort Yvette, VT 32380"
    },
    {
        "state": "UA",
        "name": "Stari Kuty",
        "city": "Stari Kuty",
        "prov": "Ivano-Frankivsk",
        "region": null,
        "latt": "48.27093",
        "longt": "25.17293",
        "address": "USS LopeznFPO AA 05253"
    },
    {
        "state": "UA",
        "name": "Malynivka",
        "city": "Malynivka",
        "prov": "Dnipropetrovsk",
        "region": null,
        "latt": "47.74581",
        "longt": "33.08125",
        "address": "960 Sydney Course Suite 935nWoodside, PA 10642"
    },
    {
        "state": "UA",
        "name": "Orikhovets",
        "city": "Orikhovets",
        "prov": "Kyiv",
        "region": null,
        "latt": "49.59173",
        "longt": "29.62196",
        "address": "294 Armstrong OverpassnArmstrongville, MS 59830"
    },
    {
        "state": "UA",
        "name": "Shishkino",
        "city": "Shishkino",
        "prov": "Republic of Crimea",
        "region": "Sakskiy rayon",
        "latt": "45.31195",
        "longt": "33.20566",
        "address": "52288 Wilkerson ThroughwaynRobertsbury, SC 67841"
    },
    {
        "state": "UA",
        "name": "Bucha",
        "city": "Horenka",
        "prov": "Kyiv",
        "region": null,
        "latt": "50.58333",
        "longt": "30.36667",
        "address": "308 Frey Lodge Suite 552nMarkchester, MS 75357"
    },
    {
        "state": "UA",
        "name": "u041bu0438u043cu0430u043du0441u044cu043au0435",
        "city": "Lymansu2019ke",
        "prov": "Zaporizhia",
        "region": null,
        "latt": "46.429698",
        "longt": "35.300661",
        "address": "875 David Avenue Suite 310nNorth Emily, SD 61211"
    },
    {
        "state": "UA",
        "name": "Pody",
        "city": "Novopokrovka",
        "prov": "Kharkiv",
        "region": null,
        "latt": "49.82609",
        "longt": "36.5644",
        "address": "064 Hunt MountainsnPort Lauren, MT 35061"
    },
    {
        "state": "UA",
        "name": "Muzhikov",
        "city": "Bereznyky",
        "prov": "Transcarpathia",
        "region": null,
        "latt": "48.51118",
        "longt": "23.22501",
        "address": "USS TurnernFPO AA 22198"
    },
    {
        "state": "UA",
        "name": "Yelizavetovka",
        "city": "Yelizavetovka",
        "prov": "Donetsk",
        "region": null,
        "latt": "48.72515",
        "longt": "37.1701",
        "address": "0082 Russell WaynCooperborough, IA 53853"
    },
    {
        "state": "UA",
        "name": "Sozanu2019",
        "city": "Staryy Sambir",
        "prov": "Lviv",
        "region": null,
        "latt": "49.43861",
        "longt": "23.03569",
        "address": "07517 Jacobs Fork Suite 230nEast Timothyshire, VT 44709"
    },
    {
        "state": "UA",
        "name": "Berehove",
        "city": "Berehove",
        "prov": "Luhansk",
        "region": null,
        "latt": "48.57785",
        "longt": "39.63161",
        "address": "USS TaylornFPO AA 81278"
    },
    {
        "state": "UA",
        "name": "Novo-Andreyevka",
        "city": "Novo-Andreyevka",
        "prov": "Mykolaiv",
        "region": null,
        "latt": "47.31262",
        "longt": "31.6278",
        "address": "8111 Patricia UnderpassnNorth Marisa, AL 16777"
    },
    {
        "state": "UA",
        "name": "Korostyatyn",
        "city": "Hoshcha",
        "prov": "Rivne",
        "region": null,
        "latt": "50.666667",
        "longt": "26.683333",
        "address": "7632 Jill ViewnAlexandrafort, VA 79991"
    },
    {
        "state": "UA",
        "name": "Shevchenko",
        "city": "Bobrovytsya",
        "prov": "Chernihiv",
        "region": null,
        "latt": "50.75954",
        "longt": "31.37043",
        "address": "4528 Arroyo Parkway Suite 961nJasonside, KY 15940"
    },
    {
        "state": "UA",
        "name": "Zdovbytsya",
        "city": "Zdolbuniv",
        "prov": "Rivne",
        "region": null,
        "latt": "50.49607",
        "longt": "26.24111",
        "address": "997 Andrew CampnWest Jackborough, NH 07369"
    },
    {
        "state": "UA",
        "name": "Frolovka",
        "city": "Frolovka",
        "prov": "Kyiv",
        "region": null,
        "latt": "49.72608",
        "longt": "30.78892",
        "address": "67331 Veronica Fall Suite 063nEast Kyle, WY 06175"
    },
    {
        "state": "UA",
        "name": "Torchyn",
        "city": "Torchyn",
        "prov": "Vinnyts'ka",
        "region": null,
        "latt": "49.69338",
        "longt": "27.93252",
        "address": "21719 Thompson RidgesnJenniferfort, AK 41253"
    },
    {
        "state": "UA",
        "name": "Rozaleyevka",
        "city": "Rozaliivka",
        "prov": "Kyiv",
        "region": null,
        "latt": "49.8978",
        "longt": "30.54066",
        "address": "176 Michael Alley Suite 163nSouth Johntown, CO 89644"
    },
    {
        "state": "UA",
        "name": "Ulyanivsu2019ke",
        "city": "Ulyanivsu2019ke",
        "prov": "Chernihiv",
        "region": null,
        "latt": "52.31477",
        "longt": "32.44004",
        "address": "Unit 1971 Box 3016nDPO AE 08800"
    },
    {
        "state": "UA",
        "name": "Stantsiya Holovanivsu2019k",
        "city": "Rozhoshenskoye",
        "prov": "Kirovohrad",
        "region": null,
        "latt": "48.36005",
        "longt": "30.39686",
        "address": "1677 Holt FreewaynPort Kellyfort, CT 36491"
    },
    {
        "state": "UA",
        "name": "Novobogdanovka",
        "city": "Novobogdanovka",
        "prov": "Mykolaiv",
        "region": null,
        "latt": "46.87192",
        "longt": "31.96285",
        "address": "89704 Lee Greens Apt. 431nEast Emilyfurt, LA 89597"
    },
    {
        "state": "UA",
        "name": "Sirna",
        "city": "Rozhyshche",
        "prov": "Volyn",
        "region": null,
        "latt": "50.84552",
        "longt": "25.25582",
        "address": "454 Adrian BranchnWest Amandaport, NH 67865"
    },
    {
        "state": "UA",
        "name": "Sonyachne",
        "city": "Sonyachne",
        "prov": "Poltava",
        "region": null,
        "latt": "49.57555",
        "longt": "34.99233",
        "address": "1466 Torres Lock Apt. 689nRaymondchester, IN 10754"
    },
    {
        "state": "UA",
        "name": "Kotlyareve",
        "city": "Shevchenkove",
        "prov": "Mykolaiv",
        "region": null,
        "latt": "46.88586",
        "longt": "32.21949",
        "address": "75719 Stewart RidgenWest Alyssa, NC 55101"
    },
    {
        "state": "UA",
        "name": "Sonyachne",
        "city": "Sonyachne",
        "prov": "Poltava",
        "region": null,
        "latt": "49.57555",
        "longt": "34.99233",
        "address": "6965 Joseph TunnelnNew Wayne, DE 37481"
    },
    {
        "state": "RU",
        "name": "Khmelu2019nitskoye",
        "city": "Oktyabru2019skoye",
        "prov": "Republic of Crimea",
        "region": "Krasnohvardiiske Raion",
        "latt": "45.331445",
        "longt": "34.110811",
        "address": "8605 Smith BrooknHernandezside, MS 91316"
    },
    {
        "state": "UA",
        "name": "Stantsiya Kherson-Port",
        "city": "Kherson",
        "prov": "Kherson",
        "region": null,
        "latt": "46.62657",
        "longt": "32.61802",
        "address": "834 Chambers Causeway Suite 404nTylerburgh, OR 10324"
    },
    {
        "state": "UA",
        "name": "Birky",
        "city": "Birky",
        "prov": "Sumy",
        "region": null,
        "latt": "50.49971",
        "longt": "34.04439",
        "address": "8172 Anthony Rapids Suite 269nHarrystad, AZ 17655"
    },
    {
        "state": "UA",
        "name": "Pytomnyk",
        "city": "Konotop",
        "prov": "Sumy",
        "region": null,
        "latt": "51.24044",
        "longt": "33.16305",
        "address": "Unit 0339 Box 2669nDPO AP 28197"
    },
    {
        "state": "UA",
        "name": "Bohodarivka",
        "city": "Bohodarivka",
        "prov": "Poltava",
        "region": null,
        "latt": "50.04719",
        "longt": "32.76546",
        "address": "772 Alyssa CrossingnReidland, WA 39793"
    },
    {
        "state": "UA",
        "name": "Parkova railway station",
        "city": "Dnipro",
        "prov": "Dnipropetrovsk",
        "region": "Dniprovsu2019ka Misu2019ka Rada",
        "latt": "48.4702",
        "longt": "35.03138",
        "address": "98738 Diana MountnWilliamsstad, ID 35545"
    },
    {
        "state": "UA",
        "name": "Novo-Andreyevka",
        "city": "Novo-Andreyevka",
        "prov": "Mykolaiv",
        "region": null,
        "latt": "47.31262",
        "longt": "31.6278",
        "address": "4497 Nelson Dam Apt. 223nChrisstad, MT 51284"
    },
    {
        "state": "UA",
        "name": "Vyzhivka",
        "city": "Ratne",
        "prov": "Volyn",
        "region": null,
        "latt": "51.68642",
        "longt": "24.59321",
        "address": "2063 Juarez ForksnDiazhaven, SD 63929"
    },
    {
        "state": "UA",
        "name": "Pyshchykove",
        "city": "Putyvlu2019",
        "prov": "Sumy",
        "region": null,
        "latt": "51.37574",
        "longt": "33.87216",
        "address": "781 Jared RidgenLopeztown, MD 65147"
    },
    {
        "state": "UA",
        "name": "Dzvinogorod an der Strypa",
        "city": "Buchach",
        "prov": "Ternopil",
        "region": null,
        "latt": "49.08333",
        "longt": "25.4",
        "address": "7477 Wendy Corner Suite 342nHickmanmouth, KS 46699"
    },
    {
        "state": "UA",
        "name": "Stantsiya Kirovohrad",
        "city": "Kropyvnytskyi",
        "prov": "Kirovohrad",
        "region": "Kirovohradsu2019ka Misu2019krada",
        "latt": "48.52611",
        "longt": "32.25944",
        "address": "894 Alexander Island Apt. 070nHallshire, WI 67928"
    },
    {
        "state": "UA",
        "name": "Pisochne",
        "city": "Pisochne",
        "prov": "Lviv",
        "region": null,
        "latt": "50.63311",
        "longt": "24.11483",
        "address": "5767 Johnson SpringsnMartinshire, NH 23199"
    },
    {
        "state": "UA",
        "name": "Kseniyeve",
        "city": "Chornomorsu2019k",
        "prov": "Odessa",
        "region": "Chornomorsk Municipality",
        "latt": "46.36257",
        "longt": "30.62386",
        "address": "16285 Herrera Drive Apt. 686nSouth James, NV 08794"
    },
    {
        "state": "UA",
        "name": "Dmytrashkivka",
        "city": "Dmytrashkivka",
        "prov": "Vinnyts'ka",
        "region": null,
        "latt": "48.1989",
        "longt": "28.77372",
        "address": "9588 Ingram Port Apt. 689nLake William, DC 69058"
    },
    {
        "state": "UA",
        "name": "Torhovyshche",
        "city": "Torhovyshche",
        "prov": "Volyn",
        "region": null,
        "latt": "51.17171",
        "longt": "24.39344",
        "address": "736 Hammond Tunnel Apt. 253nSchultzton, PA 84426"
    },
    {
        "state": "UA",
        "name": "Novomoskovsu2019ke",
        "city": "Novomoskovs'ke",
        "prov": "Poltava",
        "region": null,
        "latt": "49.46253",
        "longt": "33.25004",
        "address": "7413 Miller Vista Apt. 505nMonicaton, CO 35520"
    },
    {
        "state": "UA",
        "name": "Boberka",
        "city": "Boberka",
        "prov": "Lviv",
        "region": null,
        "latt": "49.20582",
        "longt": "22.79362",
        "address": "0086 Samantha Mission Suite 753nPort Andremouth, PA 71500"
    },
    {
        "state": "UA",
        "name": "Pidruddya",
        "city": "Ovruch",
        "prov": "Zhytomyr",
        "region": null,
        "latt": "51.31192",
        "longt": "28.83095",
        "address": "80393 Shannon Fords Apt. 327nAndersonton, DE 45706"
    },
    {
        "state": "UA",
        "name": "Stantsiya Lyublinets-Volynskiy",
        "city": "Kovel",
        "prov": "Volyn",
        "region": null,
        "latt": "51.17925",
        "longt": "24.61939",
        "address": "1170 Rebecca DrivesnNorth Tina, SD 59997"
    },
    {
        "state": "UA",
        "name": "Zagortse",
        "city": "Pidhirtsi",
        "prov": "Lviv",
        "region": null,
        "latt": "49.95881",
        "longt": "24.97621",
        "address": "279 Hall ParknLake Tim, ME 08078"
    },
    {
        "state": "UA",
        "name": "Bernashivka",
        "city": "Novodnistrovsu2019k",
        "prov": "Chernivtsi Oblast'",
        "region": "Novodnistrovsu2019ka Misu2019krada",
        "latt": "48.57545",
        "longt": "27.48051",
        "address": "52777 Megan Springs Suite 252nJamesmouth, KS 03194"
    },
    {
        "state": "UA",
        "name": "Berezansu2019kyy Lyman",
        "city": "Yizhytsu2019ke",
        "prov": "Mykolaiv",
        "region": null,
        "latt": "46.74356",
        "longt": "31.52996",
        "address": "Unit 9195 Box 3017nDPO AP 15596"
    },
    {
        "state": "UA",
        "name": "Botfalva",
        "city": "Uzhgorod",
        "prov": "Transcarpathia",
        "region": "Uzhhorod Raion",
        "latt": "48.58004",
        "longt": "22.20721",
        "address": "54776 Snyder Keys Apt. 496nJulietown, MT 93846"
    },
    {
        "state": "UA",
        "name": "Senu2019ok",
        "city": "Senu2019ok",
        "prov": "Kharkiv",
        "region": null,
        "latt": "49.58676",
        "longt": "37.52188",
        "address": "9428 Andrew GreensnDouglasmouth, IA 77450"
    },
    {
        "state": "UA",
        "name": "Chystopillya",
        "city": "Chystopillya",
        "prov": "Zaporizhia",
        "region": null,
        "latt": "47.3706",
        "longt": "35.6655",
        "address": "858 Michael Stream Suite 806nPort Joseberg, OK 91082"
    },
    {
        "state": "UA",
        "name": "Lychakivs'kyi rayon",
        "city": "Lviv",
        "prov": "Lviv",
        "region": null,
        "latt": "49.84285",
        "longt": "24.04804",
        "address": "6828 Clark LightsnDawnside, SD 92832"
    },
    {
        "state": "UA",
        "name": "Rotok",
        "city": "Bila Tserkva",
        "prov": "Kyiv",
        "region": null,
        "latt": "49.78707",
        "longt": "30.15227",
        "address": "512 Roy Lakes Apt. 335nDennismouth, OH 07253"
    },
    {
        "state": "UA",
        "name": "Derekivshchyna",
        "city": "Lokhvytsya",
        "prov": "Poltava",
        "region": null,
        "latt": "50.39753",
        "longt": "33.21169",
        "address": "50951 Williams RapidsnMelissafort, HI 70087"
    },
    {
        "state": "UA",
        "name": "Torchyn",
        "city": "Torchyn",
        "prov": "Vinnyts'ka",
        "region": null,
        "latt": "49.69338",
        "longt": "27.93252",
        "address": "785 Stout BurgnKimberlyton, OR 99446"
    },
    {
        "state": "UA",
        "name": "Kalenivka",
        "city": "Kalenivka",
        "prov": "Vinnyts'ka",
        "region": null,
        "latt": "49.23093",
        "longt": "29.66807",
        "address": "5344 Todd MeadowsnNorth Anna, DC 74807"
    },
    {
        "state": "UA",
        "name": "Velikiy Zhvanchik",
        "city": "Velikiy Zhvanchik",
        "prov": "Khmelnytskyi",
        "region": null,
        "latt": "48.76177",
        "longt": "26.96486",
        "address": "815 David PassnMarkfurt, ME 12615"
    },
    {
        "state": "UA",
        "name": "Zatis Vtoroy",
        "city": "Zatis Vtoroy",
        "prov": "Kherson",
        "region": null,
        "latt": "46.54539",
        "longt": "34.30001",
        "address": "9078 Frazier Fields Apt. 705nShawnbury, OK 52674"
    },
    {
        "state": "UA",
        "name": "Novokholmsu2019ke",
        "city": "Novokholmsu2019ke",
        "prov": "Odessa",
        "region": null,
        "latt": "45.78848",
        "longt": "29.18887",
        "address": "744 Angela Court Apt. 147nLaurashire, MT 30746"
    },
    {
        "state": "UA",
        "name": "Burche",
        "city": "Komarno",
        "prov": "Lviv",
        "region": null,
        "latt": "49.68889",
        "longt": "23.73224",
        "address": "149 Roberts Wells Suite 761nTerriville, AR 37474"
    },
    {
        "state": "UA",
        "name": "Naumivka",
        "city": "Naumivka",
        "prov": "Chernihiv",
        "region": null,
        "latt": "51.84116",
        "longt": "32.18462",
        "address": "4162 Collins IslandnSouth Joshuatown, CA 04612"
    },
    {
        "state": "UA",
        "name": "Vuhledarsu2019ka Misu2019krada",
        "city": "Vuhledar",
        "prov": "Donetsk",
        "region": "Vuhledarsu2019ka Misu2019krada",
        "latt": "47.77524",
        "longt": "37.25492",
        "address": "37879 Adams TunnelnKrystalburgh, CA 71747"
    },
    {
        "state": "UA",
        "name": "Topoleve",
        "city": "Hrebinka",
        "prov": "Poltava",
        "region": null,
        "latt": "50.1266",
        "longt": "32.48391",
        "address": "5417 Raymond Forges Suite 256nPort Rachael, NE 08968"
    },
    {
        "state": "UA",
        "name": "Hubychi",
        "city": "Drohobych",
        "prov": "Lviv",
        "region": null,
        "latt": "49.315203",
        "longt": "23.452275",
        "address": "226 Angela UnionnJoshuabury, RI 91120"
    },
    {
        "state": "UA",
        "name": "Hryntsiv Rih",
        "city": "Hryntsiv Rih",
        "prov": "Kharkiv",
        "region": null,
        "latt": "49.91954",
        "longt": "35.61339",
        "address": "95083 Kelly Haven Apt. 231nSimston, ID 14357"
    },
    {
        "state": "UA",
        "name": "Herasymivka",
        "city": "Herasymivka",
        "prov": "Poltava",
        "region": null,
        "latt": "49.4924",
        "longt": "33.18079",
        "address": "69438 Peters Hollow Suite 008nPetershire, OR 31977"
    },
    {
        "state": "UA",
        "name": "Kamennopolu2019",
        "city": "Kamennopolu2019",
        "prov": "Mykolaiv",
        "region": null,
        "latt": "47.9622",
        "longt": "31.5951",
        "address": "7363 Thompson KnollnNew Kelseyton, ME 41330"
    },
    {
        "state": "UA",
        "name": "Derekivshchyna",
        "city": "Lokhvytsya",
        "prov": "Poltava",
        "region": null,
        "latt": "50.39753",
        "longt": "33.21169",
        "address": "60855 Brad ValleysnMonicatown, OR 51353"
    },
    {
        "state": "UA",
        "name": "Novokhatky",
        "city": "Bykivka",
        "prov": "Zhytomyr",
        "region": null,
        "latt": "50.29248",
        "longt": "28.05704",
        "address": "92622 Baker Parks Apt. 613nLake Johnville, DC 70600"
    },
    {
        "state": "UA",
        "name": "Tvorynychi",
        "city": "Lokachi",
        "prov": "Volyn",
        "region": null,
        "latt": "50.71328",
        "longt": "24.69195",
        "address": "08476 Gibson PathnNorth Laura, MD 42745"
    },
    {
        "state": "UA",
        "name": "Yastrebna",
        "city": "Yastrebna",
        "prov": "Vinnyts'ka",
        "region": null,
        "latt": "48.57601",
        "longt": "27.63796",
        "address": "0735 Ruiz Gateway Apt. 903nLake Lindaberg, GA 17067"
    },
    {
        "state": "UA",
        "name": "Korostiv",
        "city": "Skole",
        "prov": "Lviv",
        "region": null,
        "latt": "49.01703",
        "longt": "23.42442",
        "address": "PSC 3536, Box 9239nAPO AA 21654"
    },
    {
        "state": "UA",
        "name": "Mylivka",
        "city": "Mylivka",
        "prov": "Kharkiv",
        "region": null,
        "latt": "48.79018",
        "longt": "36.33873",
        "address": "5616 Brown BurgnMichaelfurt, ID 51330"
    },
    {
        "state": "UA",
        "name": "Drahivka",
        "city": "Tsarychanka",
        "prov": "Dnipropetrovsk",
        "region": null,
        "latt": "48.92992",
        "longt": "34.52189",
        "address": "55424 Lauren ParksnWest Johnville, DE 79070"
    },
    {
        "state": "UA",
        "name": "Kosareve",
        "city": "Kosareve",
        "prov": "Odessa",
        "region": null,
        "latt": "47.76389",
        "longt": "29.26528",
        "address": "17942 Foley WaysnDonnaville, RI 25468"
    },
    {
        "state": "UA",
        "name": "Druzhne",
        "city": "Druzhne",
        "prov": "Zhytomyr",
        "region": "Malyn Raion",
        "latt": "50.86762",
        "longt": "29.27476",
        "address": "58687 Brittany RanchnLake Christina, NJ 91841"
    },
    {
        "state": "UA",
        "name": "Myrne",
        "city": "Sorokyne",
        "prov": "Luhansk",
        "region": null,
        "latt": "48.28542",
        "longt": "39.64963",
        "address": "502 Loretta MountainnWest Maryshire, PA 96455"
    },
    {
        "state": "UA",
        "name": "Kryukivshchyna",
        "city": "Vyshneve",
        "prov": "Kyiv",
        "region": null,
        "latt": "50.36986",
        "longt": "30.36686",
        "address": "Unit 3908 Box 2159nDPO AE 21932"
    },
    {
        "state": "UA",
        "name": "Staromykolayivsu2019ka Doroha",
        "city": "Kryzhanivka",
        "prov": "Odessa",
        "region": null,
        "latt": "46.56506",
        "longt": "30.78888",
        "address": "2589 Dickson Falls Apt. 266nLake Jerome, CT 23450"
    },
    {
        "state": "UA",
        "name": "Vradiyevskiy Rayon",
        "city": "Filimonovka",
        "prov": "Mykolaiv",
        "region": "Vradiyivsu2019kyy Rayon",
        "latt": "47.763146",
        "longt": "30.584587",
        "address": "4465 Thompson TurnpikenBellstad, VT 64301"
    },
    {
        "state": "UA",
        "name": "Anetovka",
        "city": "Anetovka",
        "prov": "Mykolaiv",
        "region": null,
        "latt": "47.70717",
        "longt": "31.12649",
        "address": "2643 Murphy Way Suite 445nLake Albertview, IA 22411"
    },
    {
        "state": "UA",
        "name": "Zhavynka",
        "city": "Chernihiv",
        "prov": "Chernihiv",
        "region": null,
        "latt": "51.44363",
        "longt": "31.24936",
        "address": "262 Cheryl MountainnLake Meagan, SD 65695"
    },
    {
        "state": "UA",
        "name": "Dzvinogorod an der Strypa",
        "city": "Buchach",
        "prov": "Ternopil",
        "region": null,
        "latt": "49.08333",
        "longt": "25.4",
        "address": "79610 Young Spurs Apt. 315nPort Christina, MT 16290"
    },
    {
        "state": "UA",
        "name": "Mlyny",
        "city": "Lokhvytsya",
        "prov": "Poltava",
        "region": null,
        "latt": "50.38544",
        "longt": "33.31081",
        "address": "66704 Steven Turnpike Suite 420nMartineztown, MO 21662"
    },
    {
        "state": "UA",
        "name": "Bychkovtsy",
        "city": "Bychkovtsy",
        "prov": "Ternopil",
        "region": null,
        "latt": "49.09855",
        "longt": "25.71325",
        "address": "888 Kevin Harbors Apt. 273nLake Robert, NY 30478"
    },
    {
        "state": "UA",
        "name": "Yelizavetovka",
        "city": "Yelizavetovka",
        "prov": "Donetsk",
        "region": null,
        "latt": "48.72515",
        "longt": "37.1701",
        "address": "676 Hinton LandingnNorth Emilyburgh, HI 12755"
    },
    {
        "state": "UA",
        "name": "Vyzhivka",
        "city": "Ratne",
        "prov": "Volyn",
        "region": null,
        "latt": "51.68642",
        "longt": "24.59321",
        "address": "Unit 4125 Box 2197nDPO AP 67497"
    },
    {
        "state": "UA",
        "name": "Yasynuvatsu2019ka Misu2019krada",
        "city": "Yasynuvata",
        "prov": "Donetsk",
        "region": "Yasynuvatsu2019ka Misu2019krada",
        "latt": "48.1284",
        "longt": "37.85919",
        "address": "66895 Michelle Rapid Apt. 247nNew Dawnberg, AZ 01806"
    },
    {
        "state": "UA",
        "name": "Lyashkivtsi",
        "city": "Lyashkivtsi",
        "prov": "Chernihiv",
        "region": null,
        "latt": "51.69802",
        "longt": "32.6743",
        "address": "70955 Sydney River Suite 104nMicheleberg, FL 61970"
    },
    {
        "state": "UA",
        "name": "Ostriv Stambulu2019su2019kyy",
        "city": "Vylkove",
        "prov": "Odessa",
        "region": null,
        "latt": "45.3574",
        "longt": "29.65835",
        "address": "221 Camacho Stream Apt. 106nPort Jackport, MT 92186"
    },
    {
        "state": "UA",
        "name": "Krasnoye Ozero",
        "city": "Dolyns'ka",
        "prov": "Kirovohrad",
        "region": null,
        "latt": "48.11667",
        "longt": "32.7",
        "address": "5991 Joseph Orchard Apt. 979nJosephport, DC 62631"
    },
    {
        "state": "UA",
        "name": "Sonyachne",
        "city": "Sonyachne",
        "prov": "Poltava",
        "region": null,
        "latt": "49.57555",
        "longt": "34.99233",
        "address": "46759 Jill Courts Apt. 528nWest Kaylaville, VT 71041"
    },
    {
        "state": "UA",
        "name": "Natsionalu2019nyy Park Homilu2019shansu2019ki Lisy",
        "city": "Koropove",
        "prov": "Kharkiv",
        "region": null,
        "latt": "49.57589",
        "longt": "36.3079",
        "address": "9978 Hall TurnpikenKaiserberg, AL 34044"
    },
    {
        "state": "UA",
        "name": "Mykhaylivka",
        "city": "Mykhaylivka",
        "prov": "Vinnyts'ka",
        "region": null,
        "latt": "48.80678",
        "longt": "28.29542",
        "address": "3845 Hailey Plaza Suite 703nPort Danielton, FL 80672"
    },
    {
        "state": "UA",
        "name": "Kalenivka",
        "city": "Kalenivka",
        "prov": "Vinnyts'ka",
        "region": null,
        "latt": "49.23093",
        "longt": "29.66807",
        "address": "8427 Victoria CrossingnEast Anthony, SC 25987"
    },
    {
        "state": "UA",
        "name": "Mayevka",
        "city": "Shalyhyne",
        "prov": "Sumy",
        "region": null,
        "latt": "51.56056",
        "longt": "34.13833",
        "address": "204 Kevin EstatenMarshallview, NH 75692"
    },
    {
        "state": "UA",
        "name": "Smolyazh",
        "city": "Smolyazh",
        "prov": "Chernihiv",
        "region": null,
        "latt": "51.21335",
        "longt": "32.05175",
        "address": "268 Erica GardennPecktown, NY 29003"
    },
    {
        "state": "UA",
        "name": "Hruzu2019ke",
        "city": "Komysh-Zorya",
        "prov": "Zaporizhia",
        "region": null,
        "latt": "47.30826",
        "longt": "36.72899",
        "address": "430 Carolyn LodgenLake Matthewton, MO 66072"
    },
    {
        "state": "UA",
        "name": "Stavychany",
        "city": "Stavychany",
        "prov": "Khmelnytskyi",
        "region": null,
        "latt": "50.51277",
        "longt": "27.17102",
        "address": "84226 Mark Path Suite 652nSusanfort, RI 52417"
    },
    {
        "state": "UA",
        "name": "Tachanka",
        "city": "Kakhovka",
        "prov": "Kherson",
        "region": null,
        "latt": "46.80059",
        "longt": "33.51578",
        "address": "60547 Abbott Causeway Apt. 914nTammyton, MA 35487"
    },
    {
        "state": "UA",
        "name": "Nahirnivka",
        "city": "Vorozhba",
        "prov": "Sumy",
        "region": null,
        "latt": "51.11524",
        "longt": "34.19714",
        "address": "583 Tammy MotorwaynTuckerland, WV 17964"
    },
    {
        "state": "UA",
        "name": "Khromyakov",
        "city": "Olyka",
        "prov": "Volyn",
        "region": null,
        "latt": "50.75028",
        "longt": "25.80709",
        "address": "626 Bryan HarborsnKimberlymouth, MI 16674"
    },
    {
        "state": "UA",
        "name": "Torhovyshche",
        "city": "Torhovyshche",
        "prov": "Volyn",
        "region": null,
        "latt": "51.17171",
        "longt": "24.39344",
        "address": "PSC 8892, Box 8044nAPO AE 40315"
    },
    {
        "state": "UA",
        "name": "Voloshyne",
        "city": "Voloshyne",
        "prov": "Poltava",
        "region": null,
        "latt": "49.1018",
        "longt": "33.65787",
        "address": "48675 Contreras Loop Apt. 731nGarrettfort, SD 85399"
    },
    {
        "state": "UA",
        "name": "Khomivka",
        "city": "Khomivka",
        "prov": "Luhansk",
        "region": null,
        "latt": "49.5022",
        "longt": "38.15282",
        "address": "0840 Williams FordsnWest William, MA 56849"
    },
    {
        "state": "UA",
        "name": "Berdyansu2019k",
        "city": "Berdyansk",
        "prov": "Zaporizhia",
        "region": null,
        "latt": "46.74997",
        "longt": "36.80349",
        "address": "17458 Potter DalenPort John, RI 73346"
    },
    {
        "state": "UA",
        "name": "Aksyutivka",
        "city": "Khorosheve",
        "prov": "Kharkiv",
        "region": null,
        "latt": "49.80569",
        "longt": "36.2045",
        "address": "492 Schultz CampnPerezmouth, VT 18619"
    },
    {
        "state": "UA",
        "name": "Ostrivshyna",
        "city": "Blyznyuky",
        "prov": "Kharkiv",
        "region": null,
        "latt": "48.86705",
        "longt": "36.63959",
        "address": "36712 Yolanda FordnLeeside, IL 27061"
    },
    {
        "state": "UA",
        "name": "Tvorynychi",
        "city": "Lokachi",
        "prov": "Volyn",
        "region": null,
        "latt": "50.71328",
        "longt": "24.69195",
        "address": "90364 Michael KeynWest Elizabethport, MN 28157"
    },
    {
        "state": "UA",
        "name": "Horobtsi",
        "city": "Horobtsi",
        "prov": "Poltava",
        "region": null,
        "latt": "49.40101",
        "longt": "34.15681",
        "address": "8271 Joseph ViewsnMcclainmouth, OH 23213"
    },
    {
        "state": "UA",
        "name": "Mykhaylivka",
        "city": "Mykhaylivka",
        "prov": "Vinnyts'ka",
        "region": null,
        "latt": "48.80678",
        "longt": "28.29542",
        "address": "82896 Phillip Center Apt. 340nNew Connie, MS 39548"
    },
    {
        "state": "UA",
        "name": "Hruzu2019ke",
        "city": "Komysh-Zorya",
        "prov": "Zaporizhia",
        "region": null,
        "latt": "47.30826",
        "longt": "36.72899",
        "address": "USS HammondnFPO AA 49324"
    },
    {
        "state": "UA",
        "name": "Vasilu2019yev",
        "city": "Kadubivtsi",
        "prov": "Chernivtsi Oblast'",
        "region": null,
        "latt": "48.6058",
        "longt": "25.843245",
        "address": "9584 Daniel UnderpassnSouth Brent, TX 51923"
    },
    {
        "state": "UA",
        "name": "Vovchynetsu2019",
        "city": "Ivano-Frankivsk",
        "prov": "Ivano-Frankivsk",
        "region": null,
        "latt": "48.951",
        "longt": "24.75108",
        "address": "Unit 6632 Box 0365nDPO AA 22021"
    },
    {
        "state": "UA",
        "name": "Stantsiya Zimna Voda Rudno",
        "city": "Rudne",
        "prov": "Lviv",
        "region": null,
        "latt": "49.834208",
        "longt": "23.878322",
        "address": "41518 Thomas Stream Apt. 316nNew Stephanie, UT 86234"
    },
    {
        "state": "UA",
        "name": "Vyshneve",
        "city": "Vyshneve",
        "prov": "Kirovohrad",
        "region": null,
        "latt": "48.47779",
        "longt": "31.76175",
        "address": "21864 Ballard Park Apt. 271nNew Christopherton, IN 88233"
    },
    {
        "state": "UA",
        "name": "Staryi Zbarazh",
        "city": "Zbarazh",
        "prov": "Ternopil",
        "region": null,
        "latt": "49.65207",
        "longt": "25.74337",
        "address": "9550 Terrell MeadowsnMikaylashire, DE 50144"
    },
    {
        "state": "UA",
        "name": "Tomashhorod",
        "city": "Tomashhorod",
        "prov": "Rivne",
        "region": null,
        "latt": "51.36975",
        "longt": "27.06831",
        "address": "7389 Bradley WallnWebbberg, WY 53653"
    },
    {
        "state": "UA",
        "name": "Sentianivka",
        "city": "Sentianivka",
        "prov": "Luhansk",
        "region": null,
        "latt": "48.66972",
        "longt": "38.75028",
        "address": "5086 Nguyen ShoresnEast Susanton, IL 74265"
    },
    {
        "state": "UA",
        "name": "Ulyanivsu2019ke",
        "city": "Ulyanivsu2019ke",
        "prov": "Chernihiv",
        "region": null,
        "latt": "52.31477",
        "longt": "32.44004",
        "address": "PSC 8509, Box 7497nAPO AA 45358"
    },
    {
        "state": "UA",
        "name": "Ulyga",
        "city": "Velyka Vulyha",
        "prov": "Vinnyts'ka",
        "region": null,
        "latt": "48.859276",
        "longt": "28.584442",
        "address": "3965 John Viaduct Suite 740nSouth Alicia, UT 12095"
    },
    {
        "state": "UA",
        "name": "Voroshilovo",
        "city": "Voroshilovo",
        "prov": "Odesa",
        "region": null,
        "latt": "47.21667",
        "longt": "30.23333",
        "address": "13184 Ortiz Light Apt. 805nGillborough, MS 65076"
    },
    {
        "state": "UA",
        "name": "Chystopillya",
        "city": "Chystopillya",
        "prov": "Zaporizhia",
        "region": null,
        "latt": "47.3706",
        "longt": "35.6655",
        "address": "971 Watson LightsnClarkbury, MT 81066"
    },
    {
        "state": "UA",
        "name": "Donetsko-Pridneprovskiy Ekonomicheskiy Rayon",
        "city": "Solonytsivka",
        "prov": "Kharkiv",
        "region": null,
        "latt": "50",
        "longt": "36",
        "address": "4547 Parker Plain Apt. 247nLake Andrea, MD 15030"
    },
    {
        "state": "UA",
        "name": "Vorsivka",
        "city": "Vorsivka",
        "prov": "Zhytomyr",
        "region": null,
        "latt": "50.69456",
        "longt": "29.24926",
        "address": "500 Trevino RuenWest Chad, KS 63402"
    },
    {
        "state": "UA",
        "name": "Horbatenko",
        "city": "Starobesheve",
        "prov": "Donetsk",
        "region": null,
        "latt": "47.76097",
        "longt": "38.09892",
        "address": "342 Johnson VistanSmithville, MO 62845"
    },
    {
        "state": "UA",
        "name": "Verbolozy",
        "city": "Verbolozy",
        "prov": "Vinnyts'ka",
        "region": null,
        "latt": "49.798513",
        "longt": "28.860814",
        "address": "922 Huerta GardensnEast Garyhaven, SD 78342"
    },
    {
        "state": "UA",
        "name": "Primorskiy Posad",
        "city": "Prymorsu2019kyy Posad",
        "prov": "Zaporizhia",
        "region": null,
        "latt": "46.611233",
        "longt": "35.734206",
        "address": "4295 George ExpresswaynTinaville, NH 97535"
    },
    {
        "state": "UA",
        "name": "Novosofiyivka",
        "city": "Novosofiyivka",
        "prov": "Dnipropetrovsk",
        "region": null,
        "latt": "47.7987",
        "longt": "34.18795",
        "address": "88131 Mitchell CornersnPort Thomas, MN 35845"
    },
    {
        "state": "UA",
        "name": "Skinoasa",
        "city": "Serpneve",
        "prov": "Odessa",
        "region": null,
        "latt": "46.31784",
        "longt": "29.00938",
        "address": "79990 James Drive Suite 764nCraigview, IN 27008"
    },
    {
        "state": "RU",
        "name": "Khmelu2019nitskoye",
        "city": "Oktyabru2019skoye",
        "prov": "Republic of Crimea",
        "region": "Krasnohvardiiske Raion",
        "latt": "45.331445",
        "longt": "34.110811",
        "address": "1032 Danny Coves Apt. 501nPort Brittanymouth, RI 84190"
    },
    {
        "state": "UA",
        "name": "Gora Ukrid",
        "city": "Verchnia Rozhanka",
        "prov": "Lviv",
        "region": null,
        "latt": "48.73333",
        "longt": "23.43333",
        "address": "469 Tyler CourtnMaciasfurt, AK 03985"
    },
    {
        "state": "UA",
        "name": "Krasnogradskiy Rayon",
        "city": "Krasnohrad",
        "prov": "Kharkiv",
        "region": null,
        "latt": "49.33333",
        "longt": "35.5",
        "address": "159 Cook PlainsnSouth Garyhaven, WY 38403"
    },
    {
        "state": "UA",
        "name": "Surmiche",
        "city": "Dubno",
        "prov": "Rivne",
        "region": null,
        "latt": "50.41667",
        "longt": "25.76667",
        "address": "88586 Mikayla Cove Suite 727nAlbertberg, KS 05302"
    },
    {
        "state": "UA",
        "name": "Hnyla Plotva",
        "city": "Bulhakivka",
        "prov": "Luhansk",
        "region": null,
        "latt": "49.19486",
        "longt": "38.56973",
        "address": "198 Martin CourtnPort Karenburgh, RI 21151"
    },
    {
        "state": "UA",
        "name": "Zalyshky Davnu2019ohretsu2019koho Mista Nikoniy",
        "city": "Ovidiopol",
        "prov": "Odessa",
        "region": "Ovidiopolu2019su2019kyy Rayon",
        "latt": "46.18494",
        "longt": "30.45854",
        "address": "487 Chen MillsnNew Jerrychester, OH 57548"
    },
    {
        "state": "UA",
        "name": "Luka",
        "city": "Luka",
        "prov": "Ternopil",
        "region": null,
        "latt": "49.0198",
        "longt": "24.98329",
        "address": "23316 Taylor LightsnBenjaminburgh, OK 91950"
    },
    {
        "state": "UA",
        "name": "Komyshova Bukhta",
        "city": "Sevastopol",
        "prov": "Sevastopol City",
        "region": "Haharinskyi District",
        "latt": "44.58435",
        "longt": "33.442",
        "address": "03692 Williams Shoals Suite 569nKennethberg, NV 80738"
    },
    {
        "state": "UA",
        "name": "Novoselivka Persha",
        "city": "Novoselivka Persha",
        "prov": "Donetsk",
        "region": null,
        "latt": "48.19606",
        "longt": "37.52963",
        "address": "32062 Kristi SpurnNicolefort, MA 25496"
    },
    {
        "state": "UA",
        "name": "Stantsiya Lyublinets-Volynskiy",
        "city": "Kovel",
        "prov": "Volyn",
        "region": null,
        "latt": "51.17925",
        "longt": "24.61939",
        "address": "PSC 8308, Box 3889nAPO AA 67026"
    },
    {
        "state": "UA",
        "name": "Zarih",
        "city": "Orzhytsya",
        "prov": "Poltava",
        "region": null,
        "latt": "49.81277",
        "longt": "32.66046",
        "address": "845 Michelle Stravenue Apt. 162nHannahland, OH 89714"
    },
    {
        "state": "UA",
        "name": "Voznesensu2019ke",
        "city": "Voznesens'ke",
        "prov": "Dnipropetrovsk",
        "region": null,
        "latt": "48.3441",
        "longt": "36.62947",
        "address": "9898 Jason Shore Suite 241nNew Mariahburgh, IN 39085"
    },
    {
        "state": "UA",
        "name": "Khyzhnyakove",
        "city": "Khyzhnyakove",
        "prov": "Kharkiv",
        "region": null,
        "latt": "50.31197",
        "longt": "37.46027",
        "address": "93523 Daniel Street Suite 314nNorth Brandi, MD 44465"
    },
    {
        "state": "UA",
        "name": "Volove",
        "city": "Bibrka",
        "prov": "Lviv",
        "region": null,
        "latt": "49.66855",
        "longt": "24.31007",
        "address": "15273 Sarah ShoalnWest Paulamouth, IA 41124"
    },
    {
        "state": "UA",
        "name": "Yelyzavetivka",
        "city": "Yelyzavetivka",
        "prov": "Donetsk",
        "region": null,
        "latt": "48.77571",
        "longt": "36.85174",
        "address": "4453 Brittany Isle Apt. 358nChavezburgh, AL 23544"
    },
    {
        "state": "UA",
        "name": "Hlyboke",
        "city": "Hlyboke",
        "prov": "Donetsk",
        "region": null,
        "latt": "46.9972",
        "longt": "37.3964",
        "address": "03315 Thomas WalksnHensleyberg, IN 66196"
    },
    {
        "state": "UA",
        "name": "Sadky",
        "city": "Sadky",
        "prov": "Zhytomyr",
        "region": null,
        "latt": "50.84729",
        "longt": "27.73081",
        "address": "24539 Emily Extension Suite 593nWest William, CA 35644"
    },
    {
        "state": "UA",
        "name": "Karmalitanka",
        "city": "Khotyn",
        "prov": "Khmelnytskyi",
        "region": null,
        "latt": "48.55217",
        "longt": "26.48643",
        "address": "5207 Misty IslenCookberg, AZ 68298"
    },
    {
        "state": "UA",
        "name": "Dzvinogorod an der Strypa",
        "city": "Buchach",
        "prov": "Ternopil",
        "region": null,
        "latt": "49.08333",
        "longt": "25.4",
        "address": "9549 Martinez TracenEast Megan, OH 06403"
    },
    {
        "state": "UA",
        "name": "Velyki Bubny",
        "city": "Velyki Bubny",
        "prov": "Sumy",
        "region": null,
        "latt": "50.84555",
        "longt": "33.26485",
        "address": "4752 Jonathon CourtsnNorth Jerryburgh, AZ 31478"
    },
    {
        "state": "UA",
        "name": "Mykytivka",
        "city": "Mykytivka",
        "prov": "Sumy",
        "region": null,
        "latt": "51.90891",
        "longt": "33.97578",
        "address": "PSC 5567, Box 4669nAPO AA 43405"
    },
    {
        "state": "UA",
        "name": "Tomashivka",
        "city": "Tomashivka",
        "prov": "Kyiv",
        "region": null,
        "latt": "50.19472",
        "longt": "29.82752",
        "address": "179 Donald Ways Suite 314nAndersonport, VT 74069"
    },
    {
        "state": "UA",
        "name": "Koybash",
        "city": "Koybash",
        "prov": "Donetsk",
        "region": null,
        "latt": "47.7199",
        "longt": "36.74467",
        "address": "592 Anderson Views Suite 384nLarsonberg, MO 38727"
    },
    {
        "state": "UA",
        "name": "Dobrik",
        "city": "Serednye Vodyane",
        "prov": "Transcarpathia",
        "region": null,
        "latt": "48.0127",
        "longt": "23.90146",
        "address": "20177 Wilson FieldsnSouth Jessestad, WV 64886"
    },
    {
        "state": "UA",
        "name": "Buyvalove",
        "city": "Krolevetsu2019",
        "prov": "Sumy",
        "region": null,
        "latt": "51.49292",
        "longt": "33.41694",
        "address": "63030 Adams Union Apt. 902nPorterborough, WI 65996"
    },
    {
        "state": "UA",
        "name": "Stantsiya Annovka",
        "city": "Veselynove",
        "prov": "Mykolaiv",
        "region": "Veselynivsu2019kyy Rayon",
        "latt": "47.33111",
        "longt": "31.18535",
        "address": "5130 Soto PortnBrendashire, RI 39074"
    },
    {
        "state": "UA",
        "name": "Dubetsk",
        "city": "Kamin-Kashyrskyi",
        "prov": "Volyn",
        "region": null,
        "latt": "51.58333",
        "longt": "25",
        "address": "408 Maynard Alley Apt. 873nNorth Codyberg, WV 07306"
    },
    {
        "state": "UA",
        "name": "Zhaborichka",
        "city": "Baranivka",
        "prov": "Zhytomyr",
        "region": "Baranivka Raion",
        "latt": "50.28259",
        "longt": "27.68059",
        "address": "72268 Tamara Drive Suite 693nRichmondtown, MO 40023"
    },
    {
        "state": "UA",
        "name": "Skybivka",
        "city": "Skibovka",
        "prov": "Poltava",
        "region": null,
        "latt": "49.855687",
        "longt": "34.998536",
        "address": "2267 Murphy River Suite 792nThompsonville, CT 26516"
    },
    {
        "state": "UA",
        "name": "Lychakivs'kyi rayon",
        "city": "Lviv",
        "prov": "Lviv",
        "region": null,
        "latt": "49.84285",
        "longt": "24.04804",
        "address": "27480 Bishop DrivenLake Tiffanyport, MT 36444"
    },
    {
        "state": "UA",
        "name": "Gigant",
        "city": "Dobropillya",
        "prov": "Donetsk",
        "region": null,
        "latt": "48.46667",
        "longt": "37.1",
        "address": "3937 Theresa ValleynNew Heather, TX 95245"
    },
    {
        "state": "UA",
        "name": "Shakhtar Plaza",
        "city": "Donetsk",
        "prov": "Donetsk",
        "region": null,
        "latt": "48.02198",
        "longt": "37.80483",
        "address": "1175 Wheeler Haven Apt. 111nLake Tammyton, VA 48777"
    },
    {
        "state": "UA",
        "name": "Oleksandropilu2019",
        "city": "Oleksandropilu2019",
        "prov": "Luhansk",
        "region": null,
        "latt": "49.69099",
        "longt": "38.84873",
        "address": "1969 Kirby Crossing Apt. 671nWest Alisonview, DC 21511"
    },
    {
        "state": "UA",
        "name": "Novyy Shcherbak",
        "city": "Novyy Shcherbak",
        "prov": "Donetsk",
        "region": null,
        "latt": "47.21139",
        "longt": "38.18111",
        "address": "20647 Freeman View Suite 873nDeborahburgh, IN 49887"
    },
    {
        "state": "UA",
        "name": "Novaya Yelenovka",
        "city": "Novaya Yelenovka",
        "prov": "Odesa",
        "region": null,
        "latt": "47.37972",
        "longt": "29.50806",
        "address": "028 Christopher Dale Apt. 426nLake Rachelville, CT 82796"
    },
    {
        "state": "UA",
        "name": "Oleksandro-Shulu2019tyne",
        "city": "Oleksandro-Shulu2019tyne",
        "prov": "Donetsk",
        "region": "Kostiantynivka Raion",
        "latt": "48.48492",
        "longt": "37.82421",
        "address": "28127 William Bridge Apt. 335nPort Dannychester, IL 97482"
    },
    {
        "state": "UA",
        "name": "Volosinu2019",
        "city": "Volosinu2019",
        "prov": "Kyiv",
        "region": null,
        "latt": "50.58336",
        "longt": "29.66644",
        "address": "101 Mack LoopnSchroedershire, MN 51763"
    },
    {
        "state": "UA",
        "name": "Ivanivka",
        "city": "Ivanivka",
        "prov": "Sumy",
        "region": null,
        "latt": "50.52638",
        "longt": "33.62201",
        "address": "5761 Patrick VillagesnMartinland, MO 61151"
    },
    {
        "state": "UA",
        "name": "Mlyny",
        "city": "Lokhvytsya",
        "prov": "Poltava",
        "region": null,
        "latt": "50.38544",
        "longt": "33.31081",
        "address": "81818 Dustin Stravenue Suite 836nPort Kaylahaven, KY 84261"
    },
    {
        "state": "UA",
        "name": "Danylivka",
        "city": "Danylivka",
        "prov": "Luhansk",
        "region": null,
        "latt": "49.12077",
        "longt": "39.62051",
        "address": "570 Schneider Bypass Suite 179nNorth Tammyhaven, FL 12417"
    },
    {
        "state": "UA",
        "name": "Lazeshchina",
        "city": "Yasinya",
        "prov": "Transcarpathia",
        "region": null,
        "latt": "48.27203",
        "longt": "24.35892",
        "address": "6960 Villarreal CirclenAlistad, HI 91194"
    },
    {
        "state": "UA",
        "name": "Krasnyy Pid",
        "city": "Krasnyy Pid",
        "prov": "Dnipropetrovsk",
        "region": null,
        "latt": "47.75861",
        "longt": "33.45427",
        "address": "USNV StephensnFPO AE 37164"
    },
    {
        "state": "UA",
        "name": "Ubezhishche",
        "city": "Yenakiyeve",
        "prov": "Donetsk",
        "region": null,
        "latt": "48.24111",
        "longt": "38.30806",
        "address": "0882 Chung MallnRiverastad, KY 65165"
    },
    {
        "state": "UA",
        "name": "Stantsiya Mukacheve",
        "city": "Mukacheve",
        "prov": "Transcarpathia",
        "region": null,
        "latt": "48.426828",
        "longt": "22.712967",
        "address": "50133 Vanessa CrossroadnEast Lisa, OR 36252"
    },
    {
        "state": "UA",
        "name": "Kovalevskiye",
        "city": "Khutora Kovalevskiye",
        "prov": "Chernihiv",
        "region": null,
        "latt": "51.783333",
        "longt": "31.45",
        "address": "421 Benson CrossingnJasminefurt, SD 28429"
    },
    {
        "state": "UA",
        "name": "Arshuky",
        "city": "Arshuky",
        "prov": "Chernihiv",
        "region": null,
        "latt": "52.13694",
        "longt": "33.10605",
        "address": "5286 Scott SquaresnEast William, NM 60298"
    },
    {
        "state": "UA",
        "name": "Ivanovka",
        "city": "Ivanovka",
        "prov": "Mykolaiv",
        "region": null,
        "latt": "46.65227",
        "longt": "31.6694",
        "address": "182 Michael CourtnWest Gregorymouth, UT 15418"
    },
    {
        "state": "UA",
        "name": "Rudnya Frankovka",
        "city": "Rudnya Frankovka",
        "prov": "Zhytomyr",
        "region": null,
        "latt": "51.316667",
        "longt": "28.35",
        "address": "17287 Mcdaniel RoutenPort Jennifer, TX 48120"
    },
    {
        "state": "UA",
        "name": "Botfalva",
        "city": "Uzhgorod",
        "prov": "Transcarpathia",
        "region": "Uzhhorod Raion",
        "latt": "48.58004",
        "longt": "22.20721",
        "address": "083 Moore Club Suite 364nCharlesport, KS 68471"
    },
    {
        "state": "UA",
        "name": "Velikiy Zhvanchik",
        "city": "Velikiy Zhvanchik",
        "prov": "Khmelnytskyi",
        "region": null,
        "latt": "48.76177",
        "longt": "26.96486",
        "address": "PSC 9468, Box 0955nAPO AP 09159"
    },
    {
        "state": "UA",
        "name": "Masalayivka",
        "city": "Sosnytsya",
        "prov": "Chernihiv",
        "region": null,
        "latt": "51.56054",
        "longt": "32.52946",
        "address": "4838 Harris GardennNelsonbury, MS 53498"
    },
    {
        "state": "UA",
        "name": "Bublikov",
        "city": "Bublikov",
        "prov": "Sumy",
        "region": null,
        "latt": "50.33333",
        "longt": "34.75",
        "address": "426 Penny ViaductnNew Alanshire, TX 28912"
    },
    {
        "state": "UA",
        "name": "Ulyga",
        "city": "Velyka Vulyha",
        "prov": "Vinnyts'ka",
        "region": null,
        "latt": "48.859276",
        "longt": "28.584442",
        "address": "99845 Nathan ForgesnNew Jill, MT 36309"
    },
    {
        "state": "UA",
        "name": "Vovchynetsu2019",
        "city": "Ivano-Frankivsk",
        "prov": "Ivano-Frankivsk",
        "region": null,
        "latt": "48.951",
        "longt": "24.75108",
        "address": "8940 Ralph Shoal Apt. 056nCastroton, CT 49235"
    },
    {
        "state": "UA",
        "name": "Bucha",
        "city": "Horenka",
        "prov": "Kyiv",
        "region": null,
        "latt": "50.58333",
        "longt": "30.36667",
        "address": "4414 Ryan Forest Apt. 691nVictoriamouth, GA 62424"
    },
    {
        "state": "UA",
        "name": "Ubezhishche",
        "city": "Yenakiyeve",
        "prov": "Donetsk",
        "region": null,
        "latt": "48.24111",
        "longt": "38.30806",
        "address": "45599 Anderson Drives Suite 674nAustinland, NE 71392"
    },
    {
        "state": "UA",
        "name": "Postolova",
        "city": "Pavlovka",
        "prov": "Vinnyts'ka",
        "region": null,
        "latt": "49.47066",
        "longt": "28.36363",
        "address": "04625 Warren Trail Suite 148nStevenport, MT 44037"
    },
    {
        "state": "UA",
        "name": "Gora Ukrid",
        "city": "Verchnia Rozhanka",
        "prov": "Lviv",
        "region": null,
        "latt": "48.73333",
        "longt": "23.43333",
        "address": "019 Francis Freeway Suite 163nPort Ericberg, MD 36283"
    },
    {
        "state": "UA",
        "name": "Kosareve",
        "city": "Kosareve",
        "prov": "Odessa",
        "region": null,
        "latt": "47.76389",
        "longt": "29.26528",
        "address": "8959 Brown ValleynNew Luke, WI 33224"
    },
    {
        "state": "UA",
        "name": "Sonyachne",
        "city": "Sonyachne",
        "prov": "Poltava",
        "region": null,
        "latt": "49.57555",
        "longt": "34.99233",
        "address": "5307 Trevor RanchnCarneyburgh, ND 83446"
    },
    {
        "state": "UA",
        "name": "Volu2019tyy",
        "city": "Brusyliv",
        "prov": "Zhytomyr",
        "region": "Brusylivsu2019kyy Rayon",
        "latt": "50.242202",
        "longt": "29.440132",
        "address": "75457 Robbins ParkwaysnRobleschester, MS 15640"
    },
    {
        "state": "UA",
        "name": "Malynivka",
        "city": "Malynivka",
        "prov": "Dnipropetrovsk",
        "region": null,
        "latt": "47.74581",
        "longt": "33.08125",
        "address": "48699 Katherine Skyway Suite 252nRobinview, TX 18213"
    },
    {
        "state": "UA",
        "name": "Khlopkiv",
        "city": "Baryshivka",
        "prov": "Kyiv",
        "region": null,
        "latt": "50.38068",
        "longt": "31.35808",
        "address": "378 Emily VistanHugheston, KY 95012"
    },
    {
        "state": "UA",
        "name": "Mys Yevpatoriya",
        "city": "Zaozyornoye",
        "prov": "Republic of Crimea",
        "region": "Gorodskoy okrug Yevpatoriya",
        "latt": "45.148628",
        "longt": "33.283351",
        "address": "52288 Victoria BrooksnWest Markberg, WI 93987"
    },
    {
        "state": "UA",
        "name": "Sirna",
        "city": "Rozhyshche",
        "prov": "Volyn",
        "region": null,
        "latt": "50.84552",
        "longt": "25.25582",
        "address": "839 Smith FallsnJoshuaburgh, AL 32565"
    },
    {
        "state": "UA",
        "name": "Novokhatky",
        "city": "Bykivka",
        "prov": "Zhytomyr",
        "region": null,
        "latt": "50.29248",
        "longt": "28.05704",
        "address": "84974 Latasha Spurs Suite 322nDaniellehaven, OH 42653"
    },
    {
        "state": "UA",
        "name": "Chervone",
        "city": "Chervone",
        "prov": "Chernihiv",
        "region": null,
        "latt": "50.79486",
        "longt": "32.24145",
        "address": "USCGC DavilanFPO AE 00782"
    },
    {
        "state": "UA",
        "name": "Ushkovichi",
        "city": "Peremyshlyany",
        "prov": "Lviv",
        "region": null,
        "latt": "49.6426",
        "longt": "24.54422",
        "address": "936 Greg InletnFreemanshire, PA 31725"
    },
    {
        "state": "UA",
        "name": "Zagortse",
        "city": "Pidhirtsi",
        "prov": "Lviv",
        "region": null,
        "latt": "49.95881",
        "longt": "24.97621",
        "address": "91482 Joel IslandnPort Vincentmouth, ND 42363"
    },
    {
        "state": "UA",
        "name": "Teremkivtsi",
        "city": "Teremkivtsi",
        "prov": "Khmelnytskyi",
        "region": null,
        "latt": "49.04067",
        "longt": "26.34468",
        "address": "6867 Lindsay Mountains Suite 164nLake Haley, IL 88570"
    },