[
    {
        "state": "TN",
        "name": "Ragoubet el Mnitah",
        "city": "Sejenane",
        "prov": "Banzart",
        "region": "Sejnane",
        "latt": "37.0375",
        "longt": "9.236111",
        "address": "390 Mosley WallnRobertsshire, DC 75815"
    },
    {
        "state": "TN",
        "name": "Hanshu012br Semmech",
        "city": "Sidi et Tarhouni",
        "prov": "Bu0101jah",
        "region": "Amdoun",
        "latt": "36.68914",
        "longt": "9.0484",
        "address": "06635 Shelby Station Apt. 322nMatthewsside, ND 35387"
    },
    {
        "state": "TN",
        "name": "El Bouahir",
        "city": "Douar es Sghau00efra",
        "prov": "u015eafu0101qis",
        "region": "Agareb",
        "latt": "34.74889",
        "longt": "10.49667",
        "address": "69112 Hayden Keys Suite 303nNorth Joseph, CT 10366"
    },
    {
        "state": "TN",
        "name": "Zaouu00efet Sidi Mostefa",
        "city": "Kasserine",
        "prov": "Al Qau015frayn",
        "region": "Kasserine Nord",
        "latt": "35.18333",
        "longt": "8.83333",
        "address": "127 Carter Manors Suite 471nCraigview, PA 03611"
    },
    {
        "state": "TN",
        "name": "Dayr al Farnu0101n",
        "city": "Balta",
        "prov": "Jundu016bbah",
        "region": "Balta Bou Aouane",
        "latt": "36.733333",
        "longt": "8.9",
        "address": "75823 Gallagher Gateway Suite 166nWest Tommy, VA 55877"
    },
    {
        "state": "TN",
        "name": "Essoumrane",
        "city": "Tunis",
        "prov": "Tu016bnis",
        "region": null,
        "latt": "36.80021",
        "longt": "10.14464",
        "address": "7898 Sabrina Parkway Suite 919nSouth Oscar, IL 88120"
    },
    {
        "state": "TN",
        "name": "Er-Rbadh",
        "city": "Sfax",
        "prov": "u015eafu0101qis",
        "region": "Sfax Ville",
        "latt": "34.74971",
        "longt": "10.7549",
        "address": "Unit 6587 Box 3745nDPO AE 06841"
    },
    {
        "state": "TN",
        "name": "El Aouina",
        "city": "Douz",
        "prov": "Qibilu012b",
        "region": "Douz Nord",
        "latt": "33.45329",
        "longt": "9.0439",
        "address": "486 Barber TunnelnNathanshire, IL 16715"
    },
    {
        "state": "TN",
        "name": "Kef Zagoujia",
        "city": "Rmel es Safsaf",
        "prov": "Jundu016bbah",
        "region": "Fernana",
        "latt": "36.6975",
        "longt": "8.491389",
        "address": "89618 Baldwin Mission Suite 453nNancyburgh, KS 72067"
    },
    {
        "state": "TN",
        "name": "El Aouina",
        "city": "Douz",
        "prov": "Qibilu012b",
        "region": "Douz Nord",
        "latt": "33.45329",
        "longt": "9.0439",
        "address": "0606 Jacob Neck Suite 878nSouth Darryltown, ME 60527"
    },
    {
        "state": "TN",
        "name": "El Hadloulah",
        "city": "Dar Mannsour Bou Amara",
        "prov": "Kairouan",
        "region": "Nasrallah",
        "latt": "35.22",
        "longt": "9.94333",
        "address": "72159 Alexander ExtensionsnLake Jennifermouth, OR 56749"
    },
    {
        "state": "TN",
        "name": "Dayr al Farnu0101n",
        "city": "Balta",
        "prov": "Jundu016bbah",
        "region": "Balta Bou Aouane",
        "latt": "36.733333",
        "longt": "8.9",
        "address": "93240 Nicole SquaresnPort Juliefort, KY 74313"
    },
    {
        "state": "TN",
        "name": "Au00efn el Barda",
        "city": "Al Matlu012bn",
        "prov": "Banzart",
        "region": "Muu2018tamadu012byat Rau2019s al Jabal",
        "latt": "37.23333",
        "longt": "10.05",
        "address": "24355 Joshua FerrynBryanstad, OR 27816"
    },
    {
        "state": "TN",
        "name": "Rau2019s Degbi Marsa",
        "city": "Dar el Haj Ali",
        "prov": "Nu0101bul",
        "region": "El Haouaria",
        "latt": "36.93333",
        "longt": "10.8",
        "address": "Unit 3358 Box 3732nDPO AA 28292"
    },
    {
        "state": "TN",
        "name": "Zaouu00efet Sidi Mostefa",
        "city": "Kasserine",
        "prov": "Al Qau015frayn",
        "region": "Kasserine Nord",
        "latt": "35.18333",
        "longt": "8.83333",
        "address": "3467 Ruiz KnollnNorth Jeremiah, PA 24946"
    },
    {
        "state": "TN",
        "name": "En-Nakachia",
        "city": "Ain Soltan",
        "prov": "Bu0101jah",
        "region": "Du00e9lu00e9gation de Bu00e9ja Nord",
        "latt": "36.85998",
        "longt": "9.25939",
        "address": "58008 Robert GlensnJorgemouth, IL 04891"
    },
    {
        "state": "TN",
        "name": "Jebel Bou Zekri",
        "city": "Bou Arkoub",
        "prov": "Nu0101bul",
        "region": "Grombalia",
        "latt": "36.53889",
        "longt": "10.47722",
        "address": "89848 Rhodes LocksnNorth Jasmineton, WI 21144"
    },
    {
        "state": "TN",
        "name": "Wu0101du012b al Qaltah",
        "city": "Sahline",
        "prov": "Al Munastu012br",
        "region": "Sahline",
        "latt": "35.75",
        "longt": "10.683333",
        "address": "5282 Bryan Estates Suite 856nWest Vanessa, TN 91661"
    },
    {
        "state": "TN",
        "name": "Guelib el Ali",
        "city": "Sidi Nadji",
        "prov": "Bu0101jah",
        "region": "Nadhour",
        "latt": "36.0625",
        "longt": "9.99306",
        "address": "8363 Anthony PlacenSimpsonmouth, OK 69724"
    },
    {
        "state": "TN",
        "name": "En-Nakachia",
        "city": "Ain Soltan",
        "prov": "Bu0101jah",
        "region": "Du00e9lu00e9gation de Bu00e9ja Nord",
        "latt": "36.85998",
        "longt": "9.25939",
        "address": "4900 Stewart WaysnChristopherburgh, NH 81951"
    },
    {
        "state": "TN",
        "name": "Beni Seggane",
        "city": "Matmata",
        "prov": "Qu0101bis",
        "region": "Nouvelle Matmata",
        "latt": "33.58333",
        "longt": "9.96667",
        "address": "03688 Mcgee OverpassnWest John, NJ 41465"
    },
    {
        "state": "TN",
        "name": "Guelib el Ali",
        "city": "Sidi Nadji",
        "prov": "Bu0101jah",
        "region": "Nadhour",
        "latt": "36.0625",
        "longt": "9.99306",
        "address": "751 Harding SpurnNew Steven, AR 78795"
    },
    {
        "state": "TN",
        "name": "Su012bdu012b at Tekouri",
        "city": "Dar Brahim Ben Kahia",
        "prov": "Al Mahdu012byah",
        "region": "Ouled Chamekh",
        "latt": "35.383333",
        "longt": "10.233333",
        "address": "85843 Heather Circles Apt. 462nFigueroaberg, NY 08704"
    },
    {
        "state": "TN",
        "name": "Essoumrane",
        "city": "Tunis",
        "prov": "Tu016bnis",
        "region": null,
        "latt": "36.80021",
        "longt": "10.14464",
        "address": "32386 Thomas Stravenue Suite 171nBryantport, FL 69177"
    },
    {
        "state": "TN",
        "name": "Su012bdu012b at Tekouri",
        "city": "Dar Brahim Ben Kahia",
        "prov": "Al Mahdu012byah",
        "region": "Ouled Chamekh",
        "latt": "35.383333",
        "longt": "10.233333",
        "address": "24005 Hudson CentersnSouth Justin, WA 25443"
    },
    {
        "state": "TN",
        "name": "El Bouahir",
        "city": "Douar es Sghau00efra",
        "prov": "u015eafu0101qis",
        "region": "Agareb",
        "latt": "34.74889",
        "longt": "10.49667",
        "address": "136 Herrera Alley Apt. 112nNorth Laurie, WY 43244"
    },
    {
        "state": "TN",
        "name": "Oued el Jebess",
        "city": "Haffouz",
        "prov": "Kairouan",
        "region": "Haffouz",
        "latt": "35.615519",
        "longt": "9.656718",
        "address": "2512 Megan Village Apt. 593nNew Adam, KY 28573"
    },
    {
        "state": "TN",
        "name": "Tarhdimess",
        "city": "Houmt El Souk",
        "prov": "Madanu012bn",
        "region": "Muu2018tamadu012byat u1e28awmat as Su016bq",
        "latt": "33.83189",
        "longt": "10.86164",
        "address": "625 Anthony Parkway Suite 329nMartinland, PA 68845"
    },
    {
        "state": "TN",
        "name": "Er-Rbadh",
        "city": "Sfax",
        "prov": "u015eafu0101qis",
        "region": "Sfax Ville",
        "latt": "34.74971",
        "longt": "10.7549",
        "address": "076 Brenda Knoll Apt. 992nHansenville, OK 91125"
    },
    {
        "state": "TN",
        "name": "Wu0101du012b al Qaltah",
        "city": "Sahline",
        "prov": "Al Munastu012br",
        "region": "Sahline",
        "latt": "35.75",
        "longt": "10.683333",
        "address": "392 Lewis RapidsnSouth Hannah, ID 55173"
    },
    {
        "state": "TN",
        "name": "Kef Touila",
        "city": "Dechra el Hedaya",
        "prov": "Kairouan",
        "region": "Hajeb El Ayoun",
        "latt": "35.43944",
        "longt": "9.69",
        "address": "0329 Lisa SummitnBlackwellmouth, IL 99697"
    },
    {
        "state": "TN",
        "name": "Au00efne el Benia",
        "city": "Chaouache",
        "prov": "Bu0101jah",
        "region": "Medjez El Bab",
        "latt": "36.71667",
        "longt": "9.56667",
        "address": "3168 Hughes Trace Suite 196nCarterchester, AR 15682"
    },
    {
        "state": "TN",
        "name": "El Hadloulah",
        "city": "Dar Mannsour Bou Amara",
        "prov": "Kairouan",
        "region": "Nasrallah",
        "latt": "35.22",
        "longt": "9.94333",
        "address": "4321 Taylor SpurnGonzalezmouth, ND 58915"
    },
    {
        "state": "TN",
        "name": "Sidi Naceur",
        "city": "Souassi",
        "prov": "Al Mahdu012byah",
        "region": "Souassi",
        "latt": "35.31883",
        "longt": "10.5979",
        "address": "646 Knapp PassnNew Matthew, LA 37926"
    },
    {
        "state": "TN",
        "name": "Mechta Sfau00efa",
        "city": "Sakiet Sidi Youssef",
        "prov": "Kef",
        "region": "Sakiet Sidi Youssef",
        "latt": "36.26417",
        "longt": "8.3775",
        "address": "806 Schroeder Mission Apt. 016nNorth Melissaborough, WA 80506"
    },
    {
        "state": "TN",
        "name": "El Hdadra",
        "city": "Menzel Kamel",
        "prov": "Al Munastu012br",
        "region": "Jemmal",
        "latt": "35.60428",
        "longt": "10.62581",
        "address": "77250 Torres PassagenNelsonville, AZ 95000"
    },
    {
        "state": "TN",
        "name": "u2018Ayn Moungass",
        "city": "Tabursuq",
        "prov": "Bu0101jah",
        "region": "Teboursouk",
        "latt": "36.49719",
        "longt": "9.25448",
        "address": "6138 Gregory ThroughwaynKennethfurt, TN 72126"
    },
    {
        "state": "TN",
        "name": "Jilmah",
        "city": "Jilma",
        "prov": "Su012bdu012b Bu016b Zayd",
        "region": "Jelma",
        "latt": "35.26667",
        "longt": "9.41667",
        "address": "7275 Gaines Freeway Suite 253nPort Barbara, NV 34658"
    },
    {
        "state": "TN",
        "name": "Djebel el Kfa",
        "city": "Tajerouine",
        "prov": "Kef",
        "region": "Tajerouine",
        "latt": "35.86546",
        "longt": "8.5257",
        "address": "427 Diaz RunnLangbury, OR 22441"
    },
    {
        "state": "TN",
        "name": "Sidi Naceur",
        "city": "Souassi",
        "prov": "Al Mahdu012byah",
        "region": "Souassi",
        "latt": "35.31883",
        "longt": "10.5979",
        "address": "7844 Angela TurnpikenBridgesfurt, NE 19242"
    },
    {
        "state": "TN",
        "name": "Wu0101du012b ad Debab",
        "city": "Dar Abdallah Bel Haj",
        "prov": "Banzart",
        "region": "Ghazala",
        "latt": "37.05",
        "longt": "9.53333",
        "address": "2669 Madden Ports Suite 486nSouth Jason, MT 84076"
    },
    {
        "state": "TN",
        "name": "Oued Kita",
        "city": "Chouigui",
        "prov": "Banzart",
        "region": "El Battane",
        "latt": "36.89139",
        "longt": "9.80556",
        "address": "38940 Scott Parkways Suite 856nCrosstown, TX 73999"
    },
    {
        "state": "TN",
        "name": "Oued el Meksem",
        "city": "Berouari",
        "prov": "Al Qau015frayn",
        "region": "Hassi El Ferid",
        "latt": "34.874489",
        "longt": "8.868157",
        "address": "3977 Harris SpursnGrahamstad, WA 66361"
    },
    {
        "state": "TN",
        "name": "Sidi Ben Rayada",
        "city": "Zouila",
        "prov": "Al Mahdu012byah",
        "region": "Mahdia",
        "latt": "35.483056",
        "longt": "11.055556",
        "address": "438 Laura Overpass Apt. 413nBarbarastad, WI 78892"
    },
    {
        "state": "TN",
        "name": "Sidi Ahmed Tlili",
        "city": "Feriana",
        "prov": "Al Qau015frayn",
        "region": "Feriana",
        "latt": "34.95",
        "longt": "8.55",
        "address": "944 Tara ManornJohnton, MD 08223"
    },
    {
        "state": "TN",
        "name": "Sidi Sahbi",
        "city": "El Harau00efg",
        "prov": "Silyu0101nah",
        "region": "Kesra",
        "latt": "35.77972",
        "longt": "9.245",
        "address": "28684 Bailey ShoresnWest Peterborough, IA 18930"
    },
    {
        "state": "TN",
        "name": "Bir Deghaghra",
        "city": "Kirchaou",
        "prov": "Tataouine",
        "region": "Smar",
        "latt": "33.057778",
        "longt": "10.733611",
        "address": "3307 Rivera IslandsnDaughertyland, AK 59466"
    },
    {
        "state": "TN",
        "name": "Rau2019s Degbi Marsa",
        "city": "Dar el Haj Ali",
        "prov": "Nu0101bul",
        "region": "El Haouaria",
        "latt": "36.93333",
        "longt": "10.8",
        "address": "622 Tyler Vista Suite 432nSouth Shannon, CA 57135"
    },
    {
        "state": "TN",
        "name": "Au00efne el Arjoun",
        "city": "Gassa",
        "prov": "Bu0101jah",
        "region": "Nefza",
        "latt": "37.04972",
        "longt": "9.01639",
        "address": "9695 Brown Centers Apt. 847nNew Elijah, CO 95997"
    },
    {
        "state": "TN",
        "name": "Guelib el Ali",
        "city": "Sidi Nadji",
        "prov": "Bu0101jah",
        "region": "Nadhour",
        "latt": "36.0625",
        "longt": "9.99306",
        "address": "819 Hall Forge Apt. 511nWest Kimberlyland, IN 05648"
    },
    {
        "state": "TN",
        "name": "El Aouina",
        "city": "Douz",
        "prov": "Qibilu012b",
        "region": "Douz Nord",
        "latt": "33.45329",
        "longt": "9.0439",
        "address": "743 Pittman HeightsnWest Andrea, OR 29786"
    },
    {
        "state": "TN",
        "name": "Kef Zagoujia",
        "city": "Rmel es Safsaf",
        "prov": "Jundu016bbah",
        "region": "Fernana",
        "latt": "36.6975",
        "longt": "8.491389",
        "address": "117 Walsh Ranch Apt. 013nSmithport, VT 20126"
    },
    {
        "state": "TN",
        "name": "Jebel Bou Zekri",
        "city": "Bou Arkoub",
        "prov": "Nu0101bul",
        "region": "Grombalia",
        "latt": "36.53889",
        "longt": "10.47722",
        "address": "39964 Campbell FreewaynSchwartzside, VA 54423"
    },
    {
        "state": "TN",
        "name": "Henchir el Fguira",
        "city": "Le Fau00efd",
        "prov": "Su012bdu012b Bu016b Zayd",
        "region": "Sidi Bouzid Est",
        "latt": "35.04778",
        "longt": "9.71",
        "address": "12834 Drake Drives Apt. 320nMillerhaven, IN 71422"
    },
    {
        "state": "TN",
        "name": "Djebel es Semeh",
        "city": "El Kef",
        "prov": "Kef",
        "region": "Nebeur",
        "latt": "36.21667",
        "longt": "8.7",
        "address": "PSC 6309, Box 6274nAPO AE 39108"
    },
    {
        "state": "TN",
        "name": "Djebel el Kfa",
        "city": "Tajerouine",
        "prov": "Kef",
        "region": "Tajerouine",
        "latt": "35.86546",
        "longt": "8.5257",
        "address": "01198 Jimenez Tunnel Suite 654nStephensbury, NJ 96404"
    },
    {
        "state": "TN",
        "name": "Burj Tuwaymirah",
        "city": "Ain Saidane",
        "prov": "Qibilu012b",
        "region": "Du00e9lu00e9gation de Ku00e9bili Nord",
        "latt": "33.72862",
        "longt": "9.341635",
        "address": "998 Samuel Parkway Suite 748nDanielport, VA 65953"
    },
    {
        "state": "TN",
        "name": "Oued el Jebess",
        "city": "Haffouz",
        "prov": "Kairouan",
        "region": "Haffouz",
        "latt": "35.615519",
        "longt": "9.656718",
        "address": "3280 Gail Street Suite 329nDelgadofurt, DE 32688"
    },
    {
        "state": "TN",
        "name": "Djebel Biada",
        "city": "As Sanad",
        "prov": "Gafsa",
        "region": "Sned",
        "latt": "34.43333",
        "longt": "9.23333",
        "address": "812 Michael Shoals Suite 454nPort Jessicahaven, OH 62491"
    },
    {
        "state": "TN",
        "name": "Ragoubet el Mnitah",
        "city": "Sejenane",
        "prov": "Banzart",
        "region": "Sejnane",
        "latt": "37.0375",
        "longt": "9.236111",
        "address": "USNV BrownnFPO AE 47668"
    },
    {
        "state": "TN",
        "name": "Hanshu012br Semmech",
        "city": "Sidi et Tarhouni",
        "prov": "Bu0101jah",
        "region": "Amdoun",
        "latt": "36.68914",
        "longt": "9.0484",
        "address": "76463 Rivera PointnPort Brianhaven, NJ 43287"
    },
    {
        "state": "TN",
        "name": "Charef er Reml",
        "city": "Menzel Heurr",
        "prov": "Nu0101bul",
        "region": "El Mida",
        "latt": "36.6975",
        "longt": "10.93028",
        "address": "USCGC AndersonnFPO AP 67176"
    },
    {
        "state": "TN",
        "name": "Rau2019s Degbi Marsa",
        "city": "Dar el Haj Ali",
        "prov": "Nu0101bul",
        "region": "El Haouaria",
        "latt": "36.93333",
        "longt": "10.8",
        "address": "9532 Alexander Mall Apt. 492nLopezborough, OR 29328"
    },
    {
        "state": "TN",
        "name": "Toujane",
        "city": "Toudjane",
        "prov": "Qu0101bis",
        "region": "Mareth",
        "latt": "33.46015",
        "longt": "10.13168",
        "address": "69527 Krueger GatewaynThompsonborough, AL 83928"
    },
    {
        "state": "TN",
        "name": "Guetoufa",
        "city": "Tataouine",
        "prov": "Tataouine",
        "region": "Tataouine Nord",
        "latt": "32.91476",
        "longt": "10.49426",
        "address": "85844 Dana Mountains Suite 511nMichelleport, WY 47154"
    },
    {
        "state": "TN",
        "name": "Henndi ech Chiab",
        "city": "Henndi ech Chiab",
        "prov": "Su016bsah",
        "region": "Kalaa Kebira",
        "latt": "35.92528",
        "longt": "10.36694",
        "address": "694 Derek DrivenEast David, CO 03478"
    },
    {
        "state": "TN",
        "name": "Essoumrane",
        "city": "Tunis",
        "prov": "Tu016bnis",
        "region": null,
        "latt": "36.80021",
        "longt": "10.14464",
        "address": "8729 Fitzgerald Hill Suite 827nLake Marcusville, PA 52390"
    },
    {
        "state": "TN",
        "name": "Er-Rbadh",
        "city": "Sfax",
        "prov": "u015eafu0101qis",
        "region": "Sfax Ville",
        "latt": "34.74971",
        "longt": "10.7549",
        "address": "696 Villarreal Wells Apt. 108nNorth Karenton, AZ 96909"
    },
    {
        "state": "TN",
        "name": "Jebel Bou Zekri",
        "city": "Bou Arkoub",
        "prov": "Nu0101bul",
        "region": "Grombalia",
        "latt": "36.53889",
        "longt": "10.47722",
        "address": "USNV JamesnFPO AA 86444"
    },
    {
        "state": "TN",
        "name": "Dayr al Farnu0101n",
        "city": "Balta",
        "prov": "Jundu016bbah",
        "region": "Balta Bou Aouane",
        "latt": "36.733333",
        "longt": "8.9",
        "address": "5048 Wilson Oval Apt. 858nJonesmouth, ME 40679"
    },
    {
        "state": "TN",
        "name": "Oulad Mahfoud",
        "city": "Khalouet Bou Haslaya",
        "prov": "Al Qau015frayn",
        "region": "Foussana",
        "latt": "35.28343",
        "longt": "8.55142",
        "address": "2794 Tina Forks Apt. 491nKeithton, NM 01777"
    },
    {
        "state": "TN",
        "name": "Wu0101du012b Temrit",
        "city": "Siliana",
        "prov": "Silyu0101nah",
        "region": "Siliana Nord",
        "latt": "36.1",
        "longt": "9.38333",
        "address": "051 King LightsnNew Nicole, ID 98545"
    },
    {
        "state": "TN",
        "name": "Hanshu012br Tu0101qilmu012bt",
        "city": "Taguelmit",
        "prov": "Madanu012bn",
        "region": "Ben Guerdane",
        "latt": "32.966667",
        "longt": "11.3",
        "address": "8501 Brandon Divide Suite 762nLake Cassie, MO 92966"
    },
    {
        "state": "TN",
        "name": "Djebel es Semeh",
        "city": "El Kef",
        "prov": "Kef",
        "region": "Nebeur",
        "latt": "36.21667",
        "longt": "8.7",
        "address": "8452 Amanda Ferry Apt. 417nEast Frederick, VT 59243"
    },
    {
        "state": "TN",
        "name": "Oued el Meksem",
        "city": "Berouari",
        "prov": "Al Qau015frayn",
        "region": "Hassi El Ferid",
        "latt": "34.874489",
        "longt": "8.868157",
        "address": "411 Cindy MallnLake Gregoryville, IL 76882"
    },
    {
        "state": "TN",
        "name": "Kef Touila",
        "city": "Dechra el Hedaya",
        "prov": "Kairouan",
        "region": "Hajeb El Ayoun",
        "latt": "35.43944",
        "longt": "9.69",
        "address": "5047 Vasquez MountainsnReyesmouth, VT 84117"
    },
    {
        "state": "TN",
        "name": "Rau2019s Degbi Marsa",
        "city": "Dar el Haj Ali",
        "prov": "Nu0101bul",
        "region": "El Haouaria",
        "latt": "36.93333",
        "longt": "10.8",
        "address": "USNV JacksonnFPO AA 01213"
    },
    {
        "state": "TN",
        "name": "El Hadloulah",
        "city": "Dar Mannsour Bou Amara",
        "prov": "Kairouan",
        "region": "Nasrallah",
        "latt": "35.22",
        "longt": "9.94333",
        "address": "Unit 9180 Box 3730nDPO AP 93405"
    },
    {
        "state": "TN",
        "name": "Burj Tuwaymirah",
        "city": "Ain Saidane",
        "prov": "Qibilu012b",
        "region": "Du00e9lu00e9gation de Ku00e9bili Nord",
        "latt": "33.72862",
        "longt": "9.341635",
        "address": "147 Perez Rapids Apt. 213nEast Ray, NH 32059"
    },
    {
        "state": "TN",
        "name": "Hanshu012br Semmech",
        "city": "Sidi et Tarhouni",
        "prov": "Bu0101jah",
        "region": "Amdoun",
        "latt": "36.68914",
        "longt": "9.0484",
        "address": "USNV JohnsonnFPO AA 53376"
    },
    {
        "state": "TN",
        "name": "Oued Kita",
        "city": "Chouigui",
        "prov": "Banzart",
        "region": "El Battane",
        "latt": "36.89139",
        "longt": "9.80556",
        "address": "955 Reynolds FortnKirbyton, GA 46489"
    },
    {
        "state": "TN",
        "name": "Guengla",
        "city": "Menzel Bourguiba",
        "prov": "Banzart",
        "region": "Tinja",
        "latt": "37.1724",
        "longt": "9.77492",
        "address": "Unit 2363 Box 3063nDPO AE 63025"
    },
    {
        "state": "TN",
        "name": "Kef Zagoujia",
        "city": "Rmel es Safsaf",
        "prov": "Jundu016bbah",
        "region": "Fernana",
        "latt": "36.6975",
        "longt": "8.491389",
        "address": "0421 Lopez Place Apt. 107nPort Ryan, VA 52783"
    },
    {
        "state": "TN",
        "name": "Kef Zagoujia",
        "city": "Rmel es Safsaf",
        "prov": "Jundu016bbah",
        "region": "Fernana",
        "latt": "36.6975",
        "longt": "8.491389",
        "address": "9575 Roman PlainsnShannonland, CT 01529"
    },
    {
        "state": "TN",
        "name": "Kef Touila",
        "city": "Dechra el Hedaya",
        "prov": "Kairouan",
        "region": "Hajeb El Ayoun",
        "latt": "35.43944",
        "longt": "9.69",
        "address": "Unit 2683 Box 2478nDPO AA 81112"
    },
    {
        "state": "TN",
        "name": "El Houamdia",
        "city": "El Houamdia",
        "prov": "u015eafu0101qis",
        "region": "Agareb",
        "latt": "34.71944",
        "longt": "10.35167",
        "address": "364 Hopkins IslandnDraketon, IA 89721"
    },
    {
        "state": "TN",
        "name": "Djebel es Semeh",
        "city": "El Kef",
        "prov": "Kef",
        "region": "Nebeur",
        "latt": "36.21667",
        "longt": "8.7",
        "address": "Unit 3966 Box 9093nDPO AE 83513"
    },
    {
        "state": "TN",
        "name": "Sidi Ben Rayada",
        "city": "Zouila",
        "prov": "Al Mahdu012byah",
        "region": "Mahdia",
        "latt": "35.483056",
        "longt": "11.055556",
        "address": "43785 Sarah Skyway Apt. 910nGonzalezport, DE 19294"
    },
    {
        "state": "TN",
        "name": "El Hdadra",
        "city": "Menzel Kamel",
        "prov": "Al Munastu012br",
        "region": "Jemmal",
        "latt": "35.60428",
        "longt": "10.62581",
        "address": "405 Miles PortsnNorth Cynthiashire, KS 71595"
    },
    {
        "state": "TN",
        "name": "Ragoubet el Mnitah",
        "city": "Sejenane",
        "prov": "Banzart",
        "region": "Sejnane",
        "latt": "37.0375",
        "longt": "9.236111",
        "address": "576 Davis Row Apt. 198nPetersmouth, CO 43814"
    },
    {
        "state": "TN",
        "name": "El Hadloulah",
        "city": "Dar Mannsour Bou Amara",
        "prov": "Kairouan",
        "region": "Nasrallah",
        "latt": "35.22",
        "longt": "9.94333",
        "address": "USNV JonesnFPO AA 84273"
    },
    {
        "state": "TN",
        "name": "Au00efn Chetlou",
        "city": "Dashrat Chetlou",
        "prov": "Silyu0101nah",
        "region": "El Aroussa",
        "latt": "36.42698",
        "longt": "9.38402",
        "address": "PSC 3523, Box 2291nAPO AE 55839"
    },
    {
        "state": "TN",
        "name": "Essoumrane",
        "city": "Tunis",
        "prov": "Tu016bnis",
        "region": null,
        "latt": "36.80021",
        "longt": "10.14464",
        "address": "5357 Joshua CommonnAaronbury, SC 69396"
    },
    {
        "state": "TN",
        "name": "Er-Rbadh",
        "city": "Sfax",
        "prov": "u015eafu0101qis",
        "region": "Sfax Ville",
        "latt": "34.74971",
        "longt": "10.7549",
        "address": "7164 Kyle RoadnDonnamouth, AK 96608"
    },
    {
        "state": "TN",
        "name": "Sidi Sahbi",
        "city": "El Harau00efg",
        "prov": "Silyu0101nah",
        "region": "Kesra",
        "latt": "35.77972",
        "longt": "9.245",
        "address": "829 Paul Curve Apt. 092nSmithchester, FL 85660"
    },
    {
        "state": "TN",
        "name": "Guengla",
        "city": "Menzel Bourguiba",
        "prov": "Banzart",
        "region": "Tinja",
        "latt": "37.1724",
        "longt": "9.77492",
        "address": "1441 Rasmussen SpringsnDominiqueland, WV 65993"
    },
    {
        "state": "TN",
        "name": "Du00e9lu00e9gation de Carthage",
        "city": "Al Marsu00e1",
        "prov": "Tu016bnis",
        "region": "Carthage",
        "latt": "36.859606",
        "longt": "10.329776",
        "address": "96249 Gregory CausewaynNorth Bradley, MN 95758"
    },
    {
        "state": "TN",
        "name": "Rau2019s Degbi Marsa",
        "city": "Dar el Haj Ali",
        "prov": "Nu0101bul",
        "region": "El Haouaria",
        "latt": "36.93333",
        "longt": "10.8",
        "address": "3294 Peterson TerracenMarkborough, AZ 95915"
    },
    {
        "state": "TN",
        "name": "Hanshu012br Tu0101qilmu012bt",
        "city": "Taguelmit",
        "prov": "Madanu012bn",
        "region": "Ben Guerdane",
        "latt": "32.966667",
        "longt": "11.3",
        "address": "68827 Brown CirclenRussellton, OH 84257"
    },
    {
        "state": "TN",
        "name": "Guengla",
        "city": "Menzel Bourguiba",
        "prov": "Banzart",
        "region": "Tinja",
        "latt": "37.1724",
        "longt": "9.77492",
        "address": "8868 Jennifer MountainsnJohnstonside, AR 66082"
    },
    {
        "state": "TN",
        "name": "Mechta Sfau00efa",
        "city": "Sakiet Sidi Youssef",
        "prov": "Kef",
        "region": "Sakiet Sidi Youssef",
        "latt": "36.26417",
        "longt": "8.3775",
        "address": "7116 Wilson Cape Apt. 997nNorth Bryanburgh, UT 73698"
    },
    {
        "state": "TN",
        "name": "Sidi Naceur",
        "city": "Souassi",
        "prov": "Al Mahdu012byah",
        "region": "Souassi",
        "latt": "35.31883",
        "longt": "10.5979",
        "address": "1855 Julie Bypass Suite 190nNew Linda, FL 05877"
    },
    {
        "state": "TN",
        "name": "Djebel es Semeh",
        "city": "El Kef",
        "prov": "Kef",
        "region": "Nebeur",
        "latt": "36.21667",
        "longt": "8.7",
        "address": "9447 Melissa Run Apt. 181nLake Lawrence, MI 42492"
    },
    {
        "state": "TN",
        "name": "Du00e9lu00e9gation de Carthage",
        "city": "Al Marsu00e1",
        "prov": "Tu016bnis",
        "region": "Carthage",
        "latt": "36.859606",
        "longt": "10.329776",
        "address": "11772 David Corners Apt. 751nBennettport, WI 34901"
    },
    {
        "state": "TN",
        "name": "El Hadloulah",
        "city": "Dar Mannsour Bou Amara",
        "prov": "Kairouan",
        "region": "Nasrallah",
        "latt": "35.22",
        "longt": "9.94333",
        "address": "USS WoodsnFPO AA 25711"
    },
    {
        "state": "TN",
        "name": "Oued el Jebess",
        "city": "Haffouz",
        "prov": "Kairouan",
        "region": "Haffouz",
        "latt": "35.615519",
        "longt": "9.656718",
        "address": "0759 Christine Ranch Suite 196nNew Christian, AR 12403"
    },
    {
        "state": "TN",
        "name": "Au00efn Chetlou",
        "city": "Dashrat Chetlou",
        "prov": "Silyu0101nah",
        "region": "El Aroussa",
        "latt": "36.42698",
        "longt": "9.38402",
        "address": "441 Wayne TunnelnWest Patriciashire, NV 12604"
    },
    {
        "state": "TN",
        "name": "Wu0101du012b al Qaltah",
        "city": "Sahline",
        "prov": "Al Munastu012br",
        "region": "Sahline",
        "latt": "35.75",
        "longt": "10.683333",
        "address": "75254 Debra Radial Apt. 713nLake Juliaborough, WY 01391"
    },
    {
        "state": "TN",
        "name": "Jabal Jallu0101bu012byah",
        "city": "Hennchir Souatir",
        "prov": "Gafsa",
        "region": "Du00e9lu00e9gation du2019Om El Arau00efes",
        "latt": "34.6",
        "longt": "8.35",
        "address": "920 Karen ViewnWest Howardburgh, LA 54903"
    },
    {
        "state": "TN",
        "name": "Ragoubet el Mnitah",
        "city": "Sejenane",
        "prov": "Banzart",
        "region": "Sejnane",
        "latt": "37.0375",
        "longt": "9.236111",
        "address": "56928 Sydney Mills Apt. 829nStephenstown, WI 46054"
    },
    {
        "state": "TN",
        "name": "Jebel Bou Zekri",
        "city": "Bou Arkoub",
        "prov": "Nu0101bul",
        "region": "Grombalia",
        "latt": "36.53889",
        "longt": "10.47722",
        "address": "211 Summers SummitnWhiteville, MI 76379"
    },
    {
        "state": "TN",
        "name": "Zaouu00efet Sidi Mostefa",
        "city": "Kasserine",
        "prov": "Al Qau015frayn",
        "region": "Kasserine Nord",
        "latt": "35.18333",
        "longt": "8.83333",
        "address": "214 Harold Cliff Suite 425nRebeccaside, GA 33921"
    },
    {
        "state": "TN",
        "name": "Zaouu00efet Sidi Mostefa",
        "city": "Kasserine",
        "prov": "Al Qau015frayn",
        "region": "Kasserine Nord",
        "latt": "35.18333",
        "longt": "8.83333",
        "address": "109 Matthews PointsnCampbellburgh, MD 13747"
    },
    {
        "state": "TN",
        "name": "Du00e9lu00e9gation de Carthage",
        "city": "Al Marsu00e1",
        "prov": "Tu016bnis",
        "region": "Carthage",
        "latt": "36.859606",
        "longt": "10.329776",
        "address": "7627 Brian ShoalsnGreeneland, WA 95104"
    },
    {
        "state": "TN",
        "name": "Henndi ech Chiab",
        "city": "Henndi ech Chiab",
        "prov": "Su016bsah",
        "region": "Kalaa Kebira",
        "latt": "35.92528",
        "longt": "10.36694",
        "address": "20025 Miller ViewsnDannychester, NE 65620"
    },
    {
        "state": "TN",
        "name": "Sidi Sahbi",
        "city": "El Harau00efg",
        "prov": "Silyu0101nah",
        "region": "Kesra",
        "latt": "35.77972",
        "longt": "9.245",
        "address": "2999 French Roads Apt. 497nLake Brittany, OH 64606"
    },
    {
        "state": "TN",
        "name": "El Houamdia",
        "city": "El Houamdia",
        "prov": "u015eafu0101qis",
        "region": "Agareb",
        "latt": "34.71944",
        "longt": "10.35167",
        "address": "8366 Jessica LandnBenjaminview, SC 69189"
    },
    {
        "state": "TN",
        "name": "Henchir el Gurlmam",
        "city": "Sfax",
        "prov": "u015eafu0101qis",
        "region": "Sfax Ville",
        "latt": "34.709444",
        "longt": "10.708889",
        "address": "216 Crystal InletnArmstrongbury, KS 42612"
    },
    {
        "state": "TN",
        "name": "Oued el Jebess",
        "city": "Haffouz",
        "prov": "Kairouan",
        "region": "Haffouz",
        "latt": "35.615519",
        "longt": "9.656718",
        "address": "06127 Thomas Run Suite 491nWalkerport, AR 91006"
    },
    {
        "state": "TN",
        "name": "El Houamdia",
        "city": "El Houamdia",
        "prov": "u015eafu0101qis",
        "region": "Agareb",
        "latt": "34.71944",
        "longt": "10.35167",
        "address": "42950 Valerie Run Apt. 368nVeronicaton, IA 85782"
    },
    {
        "state": "TN",
        "name": "Essoumrane",
        "city": "Tunis",
        "prov": "Tu016bnis",
        "region": null,
        "latt": "36.80021",
        "longt": "10.14464",
        "address": "377 Benton Rapid Suite 252nEast Nathanview, NJ 84102"
    },
    {
        "state": "TN",
        "name": "Henndi ech Chiab",
        "city": "Henndi ech Chiab",
        "prov": "Su016bsah",
        "region": "Kalaa Kebira",
        "latt": "35.92528",
        "longt": "10.36694",
        "address": "64445 Sean TracenSouth Ambermouth, MA 01663"
    },
    {
        "state": "TN",
        "name": "El Aouina",
        "city": "Douz",
        "prov": "Qibilu012b",
        "region": "Douz Nord",
        "latt": "33.45329",
        "longt": "9.0439",
        "address": "975 Aguilar RunnSouth Catherinefurt, RI 01527"
    },
    {
        "state": "TN",
        "name": "El Gmari",
        "city": "Oued et Taam",
        "prov": "Madanu012bn",
        "region": "Du00e9lu00e9gation de Mu00e9denine Sud",
        "latt": "33.22752",
        "longt": "10.60505",
        "address": "13580 Peters EstatenNorth Stephaniehaven, NJ 65908"
    },
    {
        "state": "TN",
        "name": "Dayr al Farnu0101n",
        "city": "Balta",
        "prov": "Jundu016bbah",
        "region": "Balta Bou Aouane",
        "latt": "36.733333",
        "longt": "8.9",
        "address": "127 Kristine Inlet Apt. 916nSouth Jacobchester, NC 25461"
    },
    {
        "state": "TN",
        "name": "Sidi Naceur",
        "city": "Souassi",
        "prov": "Al Mahdu012byah",
        "region": "Souassi",
        "latt": "35.31883",
        "longt": "10.5979",
        "address": "0980 Amanda AlleynEast Kimberly, PA 15738"
    },
    {
        "state": "TN",
        "name": "En-Nakachia",
        "city": "Ain Soltan",
        "prov": "Bu0101jah",
        "region": "Du00e9lu00e9gation de Bu00e9ja Nord",
        "latt": "36.85998",
        "longt": "9.25939",
        "address": "USNV HicksnFPO AA 86538"
    },
    {
        "state": "TN",
        "name": "El Bouahir",
        "city": "Douar es Sghau00efra",
        "prov": "u015eafu0101qis",
        "region": "Agareb",
        "latt": "34.74889",
        "longt": "10.49667",
        "address": "75862 Huang EstatesnChristophertown, MT 42416"
    },
    {
        "state": "TN",
        "name": "Arkou",
        "city": "Midoun",
        "prov": "Madanu012bn",
        "region": "Jerba Midoun",
        "latt": "33.78191",
        "longt": "11.0102",
        "address": "8733 Hurley Extension Apt. 388nLake Johnstad, MD 32383"
    },
    {
        "state": "TN",
        "name": "Wu0101du012b al Qaltah",
        "city": "Sahline",
        "prov": "Al Munastu012br",
        "region": "Sahline",
        "latt": "35.75",
        "longt": "10.683333",
        "address": "3992 Robert Mission Suite 821nVictoriashire, UT 10326"
    },
    {
        "state": "TN",
        "name": "Djebeniana",
        "city": "Djebeniana",
        "prov": "u015eafu0101qis",
        "region": "Djebeniana",
        "latt": "35.05",
        "longt": "10.9",
        "address": "57367 Lee RuenRushland, ND 87976"
    },
    {
        "state": "TN",
        "name": "El Gmari",
        "city": "Oued et Taam",
        "prov": "Madanu012bn",
        "region": "Du00e9lu00e9gation de Mu00e9denine Sud",
        "latt": "33.22752",
        "longt": "10.60505",
        "address": "01015 Linda Heights Suite 637nBrownview, WV 38582"
    },
    {
        "state": "TN",
        "name": "Sidi Sahbi",
        "city": "El Harau00efg",
        "prov": "Silyu0101nah",
        "region": "Kesra",
        "latt": "35.77972",
        "longt": "9.245",
        "address": "95164 Jackson Station Suite 022nNew Michaelville, ND 72742"
    },
    {
        "state": "TN",
        "name": "Rau2019s Degbi Marsa",
        "city": "Dar el Haj Ali",
        "prov": "Nu0101bul",
        "region": "El Haouaria",
        "latt": "36.93333",
        "longt": "10.8",
        "address": "0767 Daniel LanenWest Kellystad, VT 17992"
    },
    {
        "state": "TN",
        "name": "Essoumrane",
        "city": "Tunis",
        "prov": "Tu016bnis",
        "region": null,
        "latt": "36.80021",
        "longt": "10.14464",
        "address": "9009 Katie IslandnLake Jonathanview, AL 78891"
    },
    {
        "state": "TN",
        "name": "Jebel Bou Zekri",
        "city": "Bou Arkoub",
        "prov": "Nu0101bul",
        "region": "Grombalia",
        "latt": "36.53889",
        "longt": "10.47722",
        "address": "72737 Scott WalknLake Jasonbury, IA 93714"
    },
    {
        "state": "TN",
        "name": "Guengla",
        "city": "Menzel Bourguiba",
        "prov": "Banzart",
        "region": "Tinja",
        "latt": "37.1724",
        "longt": "9.77492",
        "address": "6466 Blackwell View Apt. 443nNorth Andrewbury, VA 52662"
    },
    {
        "state": "TN",
        "name": "Wu0101du012b al Qaltah",
        "city": "Sahline",
        "prov": "Al Munastu012br",
        "region": "Sahline",
        "latt": "35.75",
        "longt": "10.683333",
        "address": "36711 Emily IslandnEast Jason, ME 01575"
    },
    {
        "state": "TN",
        "name": "Hanshu012br Tu0101qilmu012bt",
        "city": "Taguelmit",
        "prov": "Madanu012bn",
        "region": "Ben Guerdane",
        "latt": "32.966667",
        "longt": "11.3",
        "address": "14762 Shepard Rue Suite 698nWilliammouth, TX 15927"
    },
    {
        "state": "TN",
        "name": "Oued Kita",
        "city": "Chouigui",
        "prov": "Banzart",
        "region": "El Battane",
        "latt": "36.89139",
        "longt": "9.80556",
        "address": "4042 Nathan PathnGreenview, OR 18207"
    },
    {
        "state": "TN",
        "name": "Essoumrane",
        "city": "Tunis",
        "prov": "Tu016bnis",
        "region": null,
        "latt": "36.80021",
        "longt": "10.14464",
        "address": "18748 Butler Port Apt. 511nEast Sandramouth, DC 08296"
    },
    {
        "state": "TN",
        "name": "Oued el Jebess",
        "city": "Haffouz",
        "prov": "Kairouan",
        "region": "Haffouz",
        "latt": "35.615519",
        "longt": "9.656718",
        "address": "8630 Cynthia Islands Apt. 751nPort Kimberly, MS 65776"
    },
    {
        "state": "TN",
        "name": "Rau2019s Degbi Marsa",
        "city": "Dar el Haj Ali",
        "prov": "Nu0101bul",
        "region": "El Haouaria",
        "latt": "36.93333",
        "longt": "10.8",
        "address": "0575 Murphy PointsnNewmantown, MA 63926"
    },
    {
        "state": "TN",
        "name": "Oued el Jebess",
        "city": "Haffouz",
        "prov": "Kairouan",
        "region": "Haffouz",
        "latt": "35.615519",
        "longt": "9.656718",
        "address": "61808 Scott OvalnPort Rhondashire, WV 57140"
    },
    {
        "state": "TN",
        "name": "Guengla",
        "city": "Menzel Bourguiba",
        "prov": "Banzart",
        "region": "Tinja",
        "latt": "37.1724",
        "longt": "9.77492",
        "address": "32641 Christopher Mills Suite 524nSimmonsfurt, DC 68903"
    },
    {
        "state": "TN",
        "name": "Oued el Meksem",
        "city": "Berouari",
        "prov": "Al Qau015frayn",
        "region": "Hassi El Ferid",
        "latt": "34.874489",
        "longt": "8.868157",
        "address": "451 Adams Roads Suite 161nJonesview, DC 43788"
    },
    {
        "state": "TN",
        "name": "Oued Kita",
        "city": "Chouigui",
        "prov": "Banzart",
        "region": "El Battane",
        "latt": "36.89139",
        "longt": "9.80556",
        "address": "6221 Tonya Orchard Apt. 638nTheresaberg, GA 48130"
    },
    {
        "state": "TN",
        "name": "Beni Seggane",
        "city": "Matmata",
        "prov": "Qu0101bis",
        "region": "Nouvelle Matmata",
        "latt": "33.58333",
        "longt": "9.96667",
        "address": "47925 Robert Radial Suite 463nLake Gregory, MT 71810"
    },
    {
        "state": "TN",
        "name": "Mechta Sfau00efa",
        "city": "Sakiet Sidi Youssef",
        "prov": "Kef",
        "region": "Sakiet Sidi Youssef",
        "latt": "36.26417",
        "longt": "8.3775",
        "address": "5005 Carter LodgenRoblesmouth, KS 77344"
    },
    {
        "state": "TN",
        "name": "Guetoufa",
        "city": "Tataouine",
        "prov": "Tataouine",
        "region": "Tataouine Nord",
        "latt": "32.91476",
        "longt": "10.49426",
        "address": "82732 Williams Route Suite 627nLake Lauren, ID 49328"
    },
    {
        "state": "TN",
        "name": "Henchir el Gurlmam",
        "city": "Sfax",
        "prov": "u015eafu0101qis",
        "region": "Sfax Ville",
        "latt": "34.709444",
        "longt": "10.708889",
        "address": "563 Veronica Crossroad Apt. 413nKellybury, IA 92677"
    },
    {
        "state": "TN",
        "name": "Hennchir Msalla",
        "city": "Au00efn Sayada",
        "prov": "Silyu0101nah",
        "region": "Rouhia",
        "latt": "35.5475",
        "longt": "9.40083",
        "address": "33576 Martin JunctionnEast Mariebury, MN 40537"
    },
    {
        "state": "TN",
        "name": "Jabal Jallu0101bu012byah",
        "city": "Hennchir Souatir",
        "prov": "Gafsa",
        "region": "Du00e9lu00e9gation du2019Om El Arau00efes",
        "latt": "34.6",
        "longt": "8.35",
        "address": "6425 Smith Plain Apt. 145nHodgeston, AL 36483"
    },
    {
        "state": "TN",
        "name": "Wu0101du012b ad Debab",
        "city": "Dar Abdallah Bel Haj",
        "prov": "Banzart",
        "region": "Ghazala",
        "latt": "37.05",
        "longt": "9.53333",
        "address": "25079 Jacob Causeway Suite 202nLake Hannah, NC 91003"
    },
    {
        "state": "TN",
        "name": "Wu0101du012b ad Debab",
        "city": "Dar Abdallah Bel Haj",
        "prov": "Banzart",
        "region": "Ghazala",
        "latt": "37.05",
        "longt": "9.53333",
        "address": "91964 Cole Keys Apt. 922nLake Haley, TX 63624"
    },
    {
        "state": "TN",
        "name": "El Hadloulah",
        "city": "Dar Mannsour Bou Amara",
        "prov": "Kairouan",
        "region": "Nasrallah",
        "latt": "35.22",
        "longt": "9.94333",
        "address": "USNS CampbellnFPO AA 71952"
    },
    {
        "state": "TN",
        "name": "Essoumrane",
        "city": "Tunis",
        "prov": "Tu016bnis",
        "region": null,
        "latt": "36.80021",
        "longt": "10.14464",
        "address": "9822 Michael MillnJeremymouth, MS 96056"
    },
    {
        "state": "TN",
        "name": "Su012bdu012b at Tekouri",
        "city": "Dar Brahim Ben Kahia",
        "prov": "Al Mahdu012byah",
        "region": "Ouled Chamekh",
        "latt": "35.383333",
        "longt": "10.233333",
        "address": "87579 Samantha LocksnLake Mariaview, OR 59009"
    },
    {
        "state": "TN",
        "name": "El Bouahir",
        "city": "Douar es Sghau00efra",
        "prov": "u015eafu0101qis",
        "region": "Agareb",
        "latt": "34.74889",
        "longt": "10.49667",
        "address": "Unit 8635 Box 4114nDPO AE 80833"
    },
    {
        "state": "TN",
        "name": "Guelib el Ali",
        "city": "Sidi Nadji",
        "prov": "Bu0101jah",
        "region": "Nadhour",
        "latt": "36.0625",
        "longt": "9.99306",
        "address": "13450 Sutton MissionnCrystalville, WY 24551"
    },
    {
        "state": "TN",
        "name": "El Hadloulah",
        "city": "Dar Mannsour Bou Amara",
        "prov": "Kairouan",
        "region": "Nasrallah",
        "latt": "35.22",
        "longt": "9.94333",
        "address": "3302 Phillips Expressway Apt. 138nBarnettburgh, ND 72895"
    },
    {
        "state": "TN",
        "name": "Wu0101du012b ad Debab",
        "city": "Dar Abdallah Bel Haj",
        "prov": "Banzart",
        "region": "Ghazala",
        "latt": "37.05",
        "longt": "9.53333",
        "address": "8243 Henderson TrafficwaynJoshuaburgh, MA 72149"
    },
    {
        "state": "TN",
        "name": "Oued Kita",
        "city": "Chouigui",
        "prov": "Banzart",
        "region": "El Battane",
        "latt": "36.89139",
        "longt": "9.80556",
        "address": "0632 William TerracenEast Jeffreyside, NJ 18717"
    },
    {
        "state": "TN",
        "name": "Oulad Mahfoud",
        "city": "Khalouet Bou Haslaya",
        "prov": "Al Qau015frayn",
        "region": "Foussana",
        "latt": "35.28343",
        "longt": "8.55142",
        "address": "78385 Deborah Ville Suite 887nLake Richardtown, OH 65341"
    },
    {
        "state": "TN",
        "name": "Kef Zagoujia",
        "city": "Rmel es Safsaf",
        "prov": "Jundu016bbah",
        "region": "Fernana",
        "latt": "36.6975",
        "longt": "8.491389",
        "address": "751 Sanchez VistanEast Scottville, WY 41564"
    },
    {
        "state": "TN",
        "name": "El Gmari",
        "city": "Oued et Taam",
        "prov": "Madanu012bn",
        "region": "Du00e9lu00e9gation de Mu00e9denine Sud",
        "latt": "33.22752",
        "longt": "10.60505",
        "address": "797 Michael Crescent Suite 333nWalshborough, MS 11564"
    },
    {
        "state": "TN",
        "name": "El Hadloulah",
        "city": "Dar Mannsour Bou Amara",
        "prov": "Kairouan",
        "region": "Nasrallah",
        "latt": "35.22",
        "longt": "9.94333",
        "address": "42961 Courtney Valleys Apt. 118nOrtizland, PA 11270"
    },
    {
        "state": "TN",
        "name": "Au00efne el Arjoun",
        "city": "Gassa",
        "prov": "Bu0101jah",
        "region": "Nefza",
        "latt": "37.04972",
        "longt": "9.01639",
        "address": "691 Justin Corners Apt. 652nNorth Sara, NV 30426"
    },
    {
        "state": "TN",
        "name": "En-Nakachia",
        "city": "Ain Soltan",
        "prov": "Bu0101jah",
        "region": "Du00e9lu00e9gation de Bu00e9ja Nord",
        "latt": "36.85998",
        "longt": "9.25939",
        "address": "06037 Mckay Drive Apt. 140nHillhaven, NC 91168"
    },
    {
        "state": "TN",
        "name": "El Guetar",
        "city": "El Guetar",
        "prov": "Gafsa",
        "region": "El Guetar",
        "latt": "34.33628",
        "longt": "8.94964",
        "address": "1598 Donald ManornTerryville, KY 38388"
    },
    {
        "state": "TN",
        "name": "Hanshu012br Kramzia",
        "city": "El Hayara",
        "prov": "Al Qau015frayn",
        "region": "Ayoun",
        "latt": "35.4",
        "longt": "8.783333",
        "address": "661 Timothy HighwaynLake Tyler, IA 61328"
    },
    {
        "state": "TN",
        "name": "Henndi ech Chiab",
        "city": "Henndi ech Chiab",
        "prov": "Su016bsah",
        "region": "Kalaa Kebira",
        "latt": "35.92528",
        "longt": "10.36694",
        "address": "296 Clark DalenMartinezmouth, IL 91584"
    },
    {
        "state": "TN",
        "name": "Au00efne el Arjoun",
        "city": "Gassa",
        "prov": "Bu0101jah",
        "region": "Nefza",
        "latt": "37.04972",
        "longt": "9.01639",
        "address": "05017 Tonya SkywaynEast Anthonyborough, MT 14058"
    },
    {
        "state": "TN",
        "name": "Zaouu00efet Sidi Mostefa",
        "city": "Kasserine",
        "prov": "Al Qau015frayn",
        "region": "Kasserine Nord",
        "latt": "35.18333",
        "longt": "8.83333",
        "address": "12240 Victoria TunnelnEast Charles, AZ 89908"
    },
    {
        "state": "TN",
        "name": "Au00efne el Arjoun",
        "city": "Gassa",
        "prov": "Bu0101jah",
        "region": "Nefza",
        "latt": "37.04972",
        "longt": "9.01639",
        "address": "1611 Smith Junction Apt. 646nSouth Jennifer, NH 73169"
    },
    {
        "state": "TN",
        "name": "Henndi ech Chiab",
        "city": "Henndi ech Chiab",
        "prov": "Su016bsah",
        "region": "Kalaa Kebira",
        "latt": "35.92528",
        "longt": "10.36694",
        "address": "1621 Oscar Shore Suite 653nJillmouth, IL 70308"
    },
    {
        "state": "TN",
        "name": "Su012bdu012b at Tekouri",
        "city": "Dar Brahim Ben Kahia",
        "prov": "Al Mahdu012byah",
        "region": "Ouled Chamekh",
        "latt": "35.383333",
        "longt": "10.233333",
        "address": "7624 Joseph MeadowsnNew Kelli, WI 96264"
    },
    {
        "state": "TN",
        "name": "Hanshu012br Kramzia",
        "city": "El Hayara",
        "prov": "Al Qau015frayn",
        "region": "Ayoun",
        "latt": "35.4",
        "longt": "8.783333",
        "address": "7890 Black Port Suite 874nPort Richardmouth, FL 13889"
    },
    {
        "state": "TN",
        "name": "Tarhdimess",
        "city": "Houmt El Souk",
        "prov": "Madanu012bn",
        "region": "Muu2018tamadu012byat u1e28awmat as Su016bq",
        "latt": "33.83189",
        "longt": "10.86164",
        "address": "51517 Hull RestnGouldhaven, UT 83941"
    },
    {
        "state": "TN",
        "name": "Monastir-Skanes",
        "city": "Djemmal",
        "prov": "Al Munastu012br",
        "region": "Bembla",
        "latt": "35.66667",
        "longt": "10.75",
        "address": "809 Johnson CornersnSouth Jamieshire, CA 30482"
    },
    {
        "state": "TN",
        "name": "Hanshu012br Semmech",
        "city": "Sidi et Tarhouni",
        "prov": "Bu0101jah",
        "region": "Amdoun",
        "latt": "36.68914",
        "longt": "9.0484",
        "address": "584 Parsons Island Apt. 284nWest Michael, KS 78994"
    },
    {
        "state": "TN",
        "name": "Djebel es Semeh",
        "city": "El Kef",
        "prov": "Kef",
        "region": "Nebeur",
        "latt": "36.21667",
        "longt": "8.7",
        "address": "435 Obrien EstatenReeseburgh, FL 46254"
    },
    {
        "state": "TN",
        "name": "Sidi Bou Mergoum",
        "city": "Chorbane",
        "prov": "Al Mahdu012byah",
        "region": "Chorbane",
        "latt": "35.3",
        "longt": "10.38333",
        "address": "1690 Katherine JunctionsnShirleyville, KS 51232"
    },
    {
        "state": "TN",
        "name": "El Guetar",
        "city": "El Guetar",
        "prov": "Gafsa",
        "region": "El Guetar",
        "latt": "34.33628",
        "longt": "8.94964",
        "address": "1618 Elliott RidgenEast Kristenfort, WA 24696"
    },
    {
        "state": "TN",
        "name": "Sidi Ben Rayada",
        "city": "Zouila",
        "prov": "Al Mahdu012byah",
        "region": "Mahdia",
        "latt": "35.483056",
        "longt": "11.055556",
        "address": "4181 Harrison Route Suite 264nEast Amberfurt, ND 28711"
    },
    {
        "state": "TN",
        "name": "Hanshu012br Kramzia",
        "city": "El Hayara",
        "prov": "Al Qau015frayn",
        "region": "Ayoun",
        "latt": "35.4",
        "longt": "8.783333",
        "address": "Unit 3971 Box 8572nDPO AP 77460"
    },
    {
        "state": "TN",
        "name": "Oued el Jebess",
        "city": "Haffouz",
        "prov": "Kairouan",
        "region": "Haffouz",
        "latt": "35.615519",
        "longt": "9.656718",
        "address": "482 Douglas Wells Suite 553nNorth Samantha, AR 09058"
    },
    {
        "state": "TN",
        "name": "Jilmah",
        "city": "Jilma",
        "prov": "Su012bdu012b Bu016b Zayd",
        "region": "Jelma",
        "latt": "35.26667",
        "longt": "9.41667",
        "address": "5392 Lori Unions Apt. 229nMarymouth, MA 22050"
    },
    {
        "state": "TN",
        "name": "Sidi Ahmed Tlili",
        "city": "Feriana",
        "prov": "Al Qau015frayn",
        "region": "Feriana",
        "latt": "34.95",
        "longt": "8.55",
        "address": "2601 Patricia Canyon Suite 390nLake Aaronberg, WI 15750"
    },
    {
        "state": "TN",
        "name": "Guelib el Ali",
        "city": "Sidi Nadji",
        "prov": "Bu0101jah",
        "region": "Nadhour",
        "latt": "36.0625",
        "longt": "9.99306",
        "address": "7858 Fleming Radial Apt. 166nStewartstad, TX 05712"
    },
    {
        "state": "TN",
        "name": "Essoumrane",
        "city": "Tunis",
        "prov": "Tu016bnis",
        "region": null,
        "latt": "36.80021",
        "longt": "10.14464",
        "address": "647 Matthew Path Apt. 210nHollymouth, DC 69049"
    },
    {
        "state": "TN",
        "name": "Djedida",
        "city": "Kebili",
        "prov": "Qibilu012b",
        "region": "Du00e9lu00e9gation de Ku00e9bili Nord",
        "latt": "33.724239",
        "longt": "8.93697",
        "address": "42004 Robert Brooks Apt. 759nEast Lauren, WI 45983"
    },
    {
        "state": "TN",
        "name": "Henndi ech Chiab",
        "city": "Henndi ech Chiab",
        "prov": "Su016bsah",
        "region": "Kalaa Kebira",
        "latt": "35.92528",
        "longt": "10.36694",
        "address": "7270 Robert Valley Suite 065nLake Amyview, LA 09842"
    },
    {
        "state": "TN",
        "name": "Dayr al Farnu0101n",
        "city": "Balta",
        "prov": "Jundu016bbah",
        "region": "Balta Bou Aouane",
        "latt": "36.733333",
        "longt": "8.9",
        "address": "069 Mcclure Radial Suite 271nKlineshire, MI 97804"
    },
    {
        "state": "TN",
        "name": "Henchir el Fguira",
        "city": "Le Fau00efd",
        "prov": "Su012bdu012b Bu016b Zayd",
        "region": "Sidi Bouzid Est",
        "latt": "35.04778",
        "longt": "9.71",
        "address": "648 Sarah BranchnLake Laura, CT 80298"
    },
    {
        "state": "TN",
        "name": "Bir Mzara",
        "city": "Zaafria",
        "prov": "Su012bdu012b Bu016b Zayd",
        "region": "Sidi Bouzid Ouest",
        "latt": "34.96667",
        "longt": "9.35",
        "address": "4595 Michael WaynLake Jimmyborough, NH 03813"
    },
    {
        "state": "TN",
        "name": "Station du2019Aouinet",
        "city": "Mu00e9touia",
        "prov": "Qu0101bis",
        "region": "Metouia",
        "latt": "33.98503",
        "longt": "10.0041",
        "address": "0296 Turner Hill Apt. 886nLaurenburgh, KS 63709"
    },
    {
        "state": "TN",
        "name": "Henndi ech Chiab",
        "city": "Henndi ech Chiab",
        "prov": "Su016bsah",
        "region": "Kalaa Kebira",
        "latt": "35.92528",
        "longt": "10.36694",
        "address": "7534 Dudley Cliff Apt. 478nSouth Sandyland, LA 48231"
    },
    {
        "state": "TN",
        "name": "Essoumrane",
        "city": "Tunis",
        "prov": "Tu016bnis",
        "region": null,
        "latt": "36.80021",
        "longt": "10.14464",
        "address": "6997 Timothy Mission Suite 913nFernandezbury, MS 72365"
    },
    {
        "state": "TN",
        "name": "Du00e9lu00e9gation de Carthage",
        "city": "Al Marsu00e1",
        "prov": "Tu016bnis",
        "region": "Carthage",
        "latt": "36.859606",
        "longt": "10.329776",
        "address": "7297 Wright Knolls Suite 521nWigginsfurt, AR 61020"
    },
    {
        "state": "TN",
        "name": "Oued el Jebess",
        "city": "Haffouz",
        "prov": "Kairouan",
        "region": "Haffouz",
        "latt": "35.615519",
        "longt": "9.656718",
        "address": "342 Jeremy Mountain Apt. 540nKristentown, WV 24724"
    },
    {
        "state": "TN",
        "name": "Zaouu00efet Sidi Mostefa",
        "city": "Kasserine",
        "prov": "Al Qau015frayn",
        "region": "Kasserine Nord",
        "latt": "35.18333",
        "longt": "8.83333",
        "address": "94573 Shannon Port Suite 307nRebeccaborough, IN 06374"
    },
    {
        "state": "TN",
        "name": "Ragoubet el Mnitah",
        "city": "Sejenane",
        "prov": "Banzart",
        "region": "Sejnane",
        "latt": "37.0375",
        "longt": "9.236111",
        "address": "03004 Kara PathnWest Heathermouth, WV 57796"
    },
    {
        "state": "TN",
        "name": "Er-Rbadh",
        "city": "Sfax",
        "prov": "u015eafu0101qis",
        "region": "Sfax Ville",
        "latt": "34.74971",
        "longt": "10.7549",
        "address": "46993 Anna Prairie Suite 940nEast Andrew, SC 63608"
    },
    {
        "state": "TN",
        "name": "Sidi Sahbi",
        "city": "El Harau00efg",
        "prov": "Silyu0101nah",
        "region": "Kesra",
        "latt": "35.77972",
        "longt": "9.245",
        "address": "99539 Mcdonald Creek Suite 339nAlvaradofurt, WA 95740"
    },
    {
        "state": "TN",
        "name": "Garaet el Haouaria",
        "city": "El Haouaria",
        "prov": "Nu0101bul",
        "region": "El Haouaria",
        "latt": "37.0025",
        "longt": "11.02028",
        "address": "8491 Odonnell Via Apt. 189nWest Oscarmouth, HI 49236"
    },
    {
        "state": "TN",
        "name": "Sidi Sahbi",
        "city": "El Harau00efg",
        "prov": "Silyu0101nah",
        "region": "Kesra",
        "latt": "35.77972",
        "longt": "9.245",
        "address": "Unit 9115 Box 0376nDPO AA 81339"
    },
    {
        "state": "TN",
        "name": "Hennchir Msalla",
        "city": "Au00efn Sayada",
        "prov": "Silyu0101nah",
        "region": "Rouhia",
        "latt": "35.5475",
        "longt": "9.40083",
        "address": "Unit 4536 Box 2581nDPO AP 53439"
    },
    {
        "state": "TN",
        "name": "Zaouu00efet Sidi Mostefa",
        "city": "Kasserine",
        "prov": "Al Qau015frayn",
        "region": "Kasserine Nord",
        "latt": "35.18333",
        "longt": "8.83333",
        "address": "933 Tucker RoadnPort Robert, ME 63098"
    },
    {
        "state": "TN",
        "name": "Arkou",
        "city": "Midoun",
        "prov": "Madanu012bn",
        "region": "Jerba Midoun",
        "latt": "33.78191",
        "longt": "11.0102",
        "address": "Unit 1392 Box 0088nDPO AA 20053"
    },
    {
        "state": "TN",
        "name": "Bordj Ennferkik",
        "city": "Sidi el Tebehi",
        "prov": "u015eafu0101qis",
        "region": "Kerkennah",
        "latt": "34.816667",
        "longt": "11.283333",
        "address": "6608 Bruce Park Suite 748nEast Sharonborough, ND 84816"
    },
    {
        "state": "TN",
        "name": "Sidi Naceur",
        "city": "Souassi",
        "prov": "Al Mahdu012byah",
        "region": "Souassi",
        "latt": "35.31883",
        "longt": "10.5979",
        "address": "9720 Jaime StreamnVictorbury, NV 33890"
    },
    {
        "state": "TN",
        "name": "Su012bdu012b at Tekouri",
        "city": "Dar Brahim Ben Kahia",
        "prov": "Al Mahdu012byah",
        "region": "Ouled Chamekh",
        "latt": "35.383333",
        "longt": "10.233333",
        "address": "Unit 7161 Box 3920nDPO AP 69936"
    },
    {
        "state": "TN",
        "name": "Oued Kita",
        "city": "Chouigui",
        "prov": "Banzart",
        "region": "El Battane",
        "latt": "36.89139",
        "longt": "9.80556",
        "address": "359 Heath Loop Apt. 894nNelsonmouth, PA 21995"
    },
    {
        "state": "TN",
        "name": "Hennchir el Achoual",
        "city": "Kasbet Dafnia",
        "prov": "Tataouine",
        "region": "Tataouine Nord",
        "latt": "32.83333",
        "longt": "10.71667",
        "address": "9672 David Manor Suite 822nPort Laura, OH 66510"
    },
    {
        "state": "TN",
        "name": "Bir Deghaghra",
        "city": "Kirchaou",
        "prov": "Tataouine",
        "region": "Smar",
        "latt": "33.057778",
        "longt": "10.733611",
        "address": "291 Adams Forges Suite 152nLake Thomas, SC 38739"
    },
    {
        "state": "TN",
        "name": "Rau2019s Degbi Marsa",
        "city": "Dar el Haj Ali",
        "prov": "Nu0101bul",
        "region": "El Haouaria",
        "latt": "36.93333",
        "longt": "10.8",
        "address": "1434 Rodriguez KnollsnTeresachester, MO 92728"
    },
    {
        "state": "TN",
        "name": "Hennchir Msalla",
        "city": "Au00efn Sayada",
        "prov": "Silyu0101nah",
        "region": "Rouhia",
        "latt": "35.5475",
        "longt": "9.40083",
        "address": "74751 Austin TurnpikenBestview, ND 92532"
    },
    {
        "state": "TN",
        "name": "Essoumrane",
        "city": "Tunis",
        "prov": "Tu016bnis",
        "region": null,
        "latt": "36.80021",
        "longt": "10.14464",
        "address": "15941 Taylor IslenWellsstad, WA 09554"
    },
    {
        "state": "TN",
        "name": "Oued Kita",
        "city": "Chouigui",
        "prov": "Banzart",
        "region": "El Battane",
        "latt": "36.89139",
        "longt": "9.80556",
        "address": "200 Rogers TurnpikenNorth Matthewfort, NH 35979"
    },
    {
        "state": "TN",
        "name": "El Gmari",
        "city": "Oued et Taam",
        "prov": "Madanu012bn",
        "region": "Du00e9lu00e9gation de Mu00e9denine Sud",
        "latt": "33.22752",
        "longt": "10.60505",
        "address": "6275 Moore WalknSouth Alexstad, KS 49409"
    },
    {
        "state": "TN",
        "name": "Sidi Naceur",
        "city": "Souassi",
        "prov": "Al Mahdu012byah",
        "region": "Souassi",
        "latt": "35.31883",
        "longt": "10.5979",
        "address": "Unit 6869 Box 5415nDPO AP 46222"
    },
    {
        "state": "TN",
        "name": "Jebel Bou Zekri",
        "city": "Bou Arkoub",
        "prov": "Nu0101bul",
        "region": "Grombalia",
        "latt": "36.53889",
        "longt": "10.47722",
        "address": "775 Mark Trace Suite 840nWest Carlton, HI 49520"
    },
    {
        "state": "TN",
        "name": "Arkou",
        "city": "Midoun",
        "prov": "Madanu012bn",
        "region": "Jerba Midoun",
        "latt": "33.78191",
        "longt": "11.0102",
        "address": "2639 Kelly CreeknJohnsonberg, WV 19080"
    },
    {
        "state": "TN",
        "name": "Sidi Bou Mergoum",
        "city": "Chorbane",
        "prov": "Al Mahdu012byah",
        "region": "Chorbane",
        "latt": "35.3",
        "longt": "10.38333",
        "address": "23621 Poole Dam Suite 127nPort Ronaldview, DC 25509"
    },
    {
        "state": "TN",
        "name": "En-Nakachia",
        "city": "Ain Soltan",
        "prov": "Bu0101jah",
        "region": "Du00e9lu00e9gation de Bu00e9ja Nord",
        "latt": "36.85998",
        "longt": "9.25939",
        "address": "974 Anderson Gateway Apt. 050nWest Reginamouth, MI 10987"
    },
    {
        "state": "TN",
        "name": "Guengla",
        "city": "Menzel Bourguiba",
        "prov": "Banzart",
        "region": "Tinja",
        "latt": "37.1724",
        "longt": "9.77492",
        "address": "402 Carter Stravenue Apt. 174nRosetown, AL 11723"
    },
    {
        "state": "TN",
        "name": "Wu0101du012b Temrit",
        "city": "Siliana",
        "prov": "Silyu0101nah",
        "region": "Siliana Nord",
        "latt": "36.1",
        "longt": "9.38333",
        "address": "0597 Hardy Plaza Suite 295nWilliamsville, SC 92554"
    },
    {
        "state": "TN",
        "name": "Oulad Mahfoud",
        "city": "Khalouet Bou Haslaya",
        "prov": "Al Qau015frayn",
        "region": "Foussana",
        "latt": "35.28343",
        "longt": "8.55142",
        "address": "19104 Kenneth Canyon Suite 326nNorth Kimberlyhaven, NH 02546"
    },
    {
        "state": "TN",
        "name": "Oued el Jebess",
        "city": "Haffouz",
        "prov": "Kairouan",
        "region": "Haffouz",
        "latt": "35.615519",
        "longt": "9.656718",
        "address": "7369 Gray EstatesnLake Carlamouth, TN 99419"
    },
    {
        "state": "TN",
        "name": "Dayr al Farnu0101n",
        "city": "Balta",
        "prov": "Jundu016bbah",
        "region": "Balta Bou Aouane",
        "latt": "36.733333",
        "longt": "8.9",
        "address": "026 Kristin Plains Suite 200nThomashaven, CT 42979"
    },
    {
        "state": "TN",
        "name": "El Hdadra",
        "city": "Menzel Kamel",
        "prov": "Al Munastu012br",
        "region": "Jemmal",
        "latt": "35.60428",
        "longt": "10.62581",
        "address": "515 Gregory Locks Apt. 849nRobertview, KS 38005"
    },
    {
        "state": "TN",
        "name": "Guengla",
        "city": "Menzel Bourguiba",
        "prov": "Banzart",
        "region": "Tinja",
        "latt": "37.1724",
        "longt": "9.77492",
        "address": "Unit 7557 Box 2739nDPO AE 85985"
    },
    {
        "state": "TN",
        "name": "El Bouahir",
        "city": "Douar es Sghau00efra",
        "prov": "u015eafu0101qis",
        "region": "Agareb",
        "latt": "34.74889",
        "longt": "10.49667",
        "address": "736 Rich Plaza Suite 456nLake Colleen, DC 28048"
    },
    {
        "state": "TN",
        "name": "Essoumrane",
        "city": "Tunis",
        "prov": "Tu016bnis",
        "region": null,
        "latt": "36.80021",
        "longt": "10.14464",
        "address": "3147 Teresa Lake Apt. 903nNorth Stacyport, NC 80428"
    },
    {
        "state": "TN",
        "name": "Dayr al Farnu0101n",
        "city": "Balta",
        "prov": "Jundu016bbah",
        "region": "Balta Bou Aouane",
        "latt": "36.733333",
        "longt": "8.9",
        "address": "651 Phillip Knoll Apt. 785nPort Aliciafort, TN 60382"
    },
    {
        "state": "TN",
        "name": "Dayr al Farnu0101n",
        "city": "Balta",
        "prov": "Jundu016bbah",
        "region": "Balta Bou Aouane",
        "latt": "36.733333",
        "longt": "8.9",
        "address": "070 Kristen Field Apt. 666nNicholschester, MI 25258"
    },
    {
        "state": "TN",
        "name": "Au00efne el Benia",
        "city": "Chaouache",
        "prov": "Bu0101jah",
        "region": "Medjez El Bab",
        "latt": "36.71667",
        "longt": "9.56667",
        "address": "663 Brandon LanenWuhaven, TN 15284"
    },
    {
        "state": "TN",
        "name": "El Bouahir",
        "city": "Douar es Sghau00efra",
        "prov": "u015eafu0101qis",
        "region": "Agareb",
        "latt": "34.74889",
        "longt": "10.49667",
        "address": "6448 Kaitlyn CrescentnPagemouth, WI 40016"
    },
    {
        "state": "TN",
        "name": "Essoumrane",
        "city": "Tunis",
        "prov": "Tu016bnis",
        "region": null,
        "latt": "36.80021",
        "longt": "10.14464",
        "address": "89355 Smith StationnVanessaburgh, AL 81526"
    },
    {
        "state": "TN",
        "name": "Hennchir Msalla",
        "city": "Au00efn Sayada",
        "prov": "Silyu0101nah",
        "region": "Rouhia",
        "latt": "35.5475",
        "longt": "9.40083",
        "address": "725 Wright HillsnWilliamsmouth, HI 01580"
    },
    {
        "state": "TN",
        "name": "Er-Rbadh",
        "city": "Sfax",
        "prov": "u015eafu0101qis",
        "region": "Sfax Ville",
        "latt": "34.74971",
        "longt": "10.7549",
        "address": "34818 Jose TerracenLivingstonmouth, MT 43646"
    },
    {
        "state": "TN",
        "name": "El Hdadra",
        "city": "Menzel Kamel",
        "prov": "Al Munastu012br",
        "region": "Jemmal",
        "latt": "35.60428",
        "longt": "10.62581",
        "address": "754 Gilbert Flats Suite 718nWilliamstad, KY 10771"
    },
    {
        "state": "TN",
        "name": "Oued Mehabes",
        "city": "Ksar Rhilane",
        "prov": "Qibilu012b",
        "region": "Douz Nord",
        "latt": "32.93333",
        "longt": "9.61667",
        "address": "414 Hannah Manors Suite 553nWest Jessicaton, MS 54675"
    },
    {
        "state": "TN",
        "name": "Henndi ech Chiab",
        "city": "Henndi ech Chiab",
        "prov": "Su016bsah",
        "region": "Kalaa Kebira",
        "latt": "35.92528",
        "longt": "10.36694",
        "address": "USNS MccoynFPO AA 15327"
    },
    {
        "state": "TN",
        "name": "Station du2019Aouinet",
        "city": "Mu00e9touia",
        "prov": "Qu0101bis",
        "region": "Metouia",
        "latt": "33.98503",
        "longt": "10.0041",
        "address": "26983 Norris Fields Suite 819nWest Jacquelineborough, HI 08912"
    },
    {
        "state": "TN",
        "name": "Ragoubet el Mnitah",
        "city": "Sejenane",
        "prov": "Banzart",
        "region": "Sejnane",
        "latt": "37.0375",
        "longt": "9.236111",
        "address": "PSC 6105, Box 2453nAPO AE 01100"
    },
    {
        "state": "TN",
        "name": "Djebel es Semeh",
        "city": "El Kef",
        "prov": "Kef",
        "region": "Nebeur",
        "latt": "36.21667",
        "longt": "8.7",
        "address": "613 Cummings CliffsnNew Brianborough, NY 34840"
    },
    {
        "state": "TN",
        "name": "Wu0101du012b ad Debab",
        "city": "Dar Abdallah Bel Haj",
        "prov": "Banzart",
        "region": "Ghazala",
        "latt": "37.05",
        "longt": "9.53333",
        "address": "5559 Castro ExpresswaynHolmeston, GA 65064"
    },
    {
        "state": "TN",
        "name": "Wu0101du012b Temrit",
        "city": "Siliana",
        "prov": "Silyu0101nah",
        "region": "Siliana Nord",
        "latt": "36.1",
        "longt": "9.38333",
        "address": "149 Steven LanenPort Anthony, FL 66324"
    },
    {
        "state": "TN",
        "name": "Guelib el Ali",
        "city": "Sidi Nadji",
        "prov": "Bu0101jah",
        "region": "Nadhour",
        "latt": "36.0625",
        "longt": "9.99306",
        "address": "61981 Herrera Glens Apt. 850nNelsonport, HI 51999"
    },
    {
        "state": "TN",
        "name": "Essoumrane",
        "city": "Tunis",
        "prov": "Tu016bnis",
        "region": null,
        "latt": "36.80021",
        "longt": "10.14464",
        "address": "30305 Anita Alley Suite 255nRobinbury, AL 10867"
    },
    {
        "state": "TN",
        "name": "Beni Seggane",
        "city": "Matmata",
        "prov": "Qu0101bis",
        "region": "Nouvelle Matmata",
        "latt": "33.58333",
        "longt": "9.96667",
        "address": "690 Rebecca Grove Apt. 557nJessicafort, NE 92847"
    },
    {
        "state": "TN",
        "name": "Essoumrane",
        "city": "Tunis",
        "prov": "Tu016bnis",
        "region": null,
        "latt": "36.80021",
        "longt": "10.14464",
        "address": "6737 Ross PlacenPort Richard, WY 57769"
    },
    {
        "state": "TN",
        "name": "Bir Mzara",
        "city": "Zaafria",
        "prov": "Su012bdu012b Bu016b Zayd",
        "region": "Sidi Bouzid Ouest",
        "latt": "34.96667",
        "longt": "9.35",
        "address": "3940 Vincent Haven Suite 687nWest Angelahaven, SD 12789"
    },
    {
        "state": "TN",
        "name": "Beni Seggane",
        "city": "Matmata",
        "prov": "Qu0101bis",
        "region": "Nouvelle Matmata",
        "latt": "33.58333",
        "longt": "9.96667",
        "address": "4957 Tara SummitnGeorgefort, VA 31402"
    },
    {
        "state": "TN",
        "name": "Sidi Ben Rayada",
        "city": "Zouila",
        "prov": "Al Mahdu012byah",
        "region": "Mahdia",
        "latt": "35.483056",
        "longt": "11.055556",
        "address": "567 Scott TunnelnAnthonytown, TN 94288"
    },
    {
        "state": "TN",
        "name": "Beni Seggane",
        "city": "Matmata",
        "prov": "Qu0101bis",
        "region": "Nouvelle Matmata",
        "latt": "33.58333",
        "longt": "9.96667",
        "address": "8336 Brown CliffnKylehaven, WI 98637"
    },
    {
        "state": "TN",
        "name": "Sidi Ben Rayada",
        "city": "Zouila",
        "prov": "Al Mahdu012byah",
        "region": "Mahdia",
        "latt": "35.483056",
        "longt": "11.055556",
        "address": "1536 Davis Spring Suite 587nChristianview, PA 99377"
    },
    {
        "state": "TN",
        "name": "Djebel el Kfa",
        "city": "Tajerouine",
        "prov": "Kef",
        "region": "Tajerouine",
        "latt": "35.86546",
        "longt": "8.5257",
        "address": "49773 Rebecca ParkwaynPaulstad, MN 30518"
    },
    {
        "state": "TN",
        "name": "Djebel es Semeh",
        "city": "El Kef",
        "prov": "Kef",
        "region": "Nebeur",
        "latt": "36.21667",
        "longt": "8.7",
        "address": "7086 Michelle Plaza Suite 007nJessicafurt, WY 91724"
    },
    {
        "state": "TN",
        "name": "Au00efn el Barda",
        "city": "Al Matlu012bn",
        "prov": "Banzart",
        "region": "Muu2018tamadu012byat Rau2019s al Jabal",
        "latt": "37.23333",
        "longt": "10.05",
        "address": "1444 James Prairie Apt. 592nEast Andreastad, WA 21538"
    },
    {
        "state": "TN",
        "name": "El Hadloulah",
        "city": "Dar Mannsour Bou Amara",
        "prov": "Kairouan",
        "region": "Nasrallah",
        "latt": "35.22",
        "longt": "9.94333",
        "address": "34949 Flores PlainnRamosside, MO 19189"
    },
    {
        "state": "TN",
        "name": "Jilmah",
        "city": "Jilma",
        "prov": "Su012bdu012b Bu016b Zayd",
        "region": "Jelma",
        "latt": "35.26667",
        "longt": "9.41667",
        "address": "5888 Thompson Glens Apt. 926nCassandramouth, SD 92709"
    },
    {
        "state": "TN",
        "name": "Toujane",
        "city": "Toudjane",
        "prov": "Qu0101bis",
        "region": "Mareth",
        "latt": "33.46015",
        "longt": "10.13168",
        "address": "5067 Dennis VianNorth Michael, WV 63645"
    },
    {
        "state": "TN",
        "name": "Douar Oulad Ali Ben Naceur",
        "city": "Douar Oulad Ali Ben Naceur",
        "prov": "Al Qau015frayn",
        "region": "Thala",
        "latt": "35.7",
        "longt": "8.73333",
        "address": "PSC 5967, Box 8212nAPO AA 77833"
    },
    {
        "state": "TN",
        "name": "Djebel es Semeh",
        "city": "El Kef",
        "prov": "Kef",
        "region": "Nebeur",
        "latt": "36.21667",
        "longt": "8.7",
        "address": "4820 Solis ValleysnWest Kristina, AL 56249"
    },
    {
        "state": "TN",
        "name": "Jilmah",
        "city": "Jilma",
        "prov": "Su012bdu012b Bu016b Zayd",
        "region": "Jelma",
        "latt": "35.26667",
        "longt": "9.41667",
        "address": "27827 Leslie Ridges Suite 136nAshleyland, MS 16216"
    },
    {
        "state": "TN",
        "name": "Su012bdu012b at Tekouri",
        "city": "Dar Brahim Ben Kahia",
        "prov": "Al Mahdu012byah",
        "region": "Ouled Chamekh",
        "latt": "35.383333",
        "longt": "10.233333",
        "address": "96424 Thomas Pike Apt. 632nWest Cristina, ND 95077"
    },
    {
        "state": "TN",
        "name": "Ragoubet el Mnitah",
        "city": "Sejenane",
        "prov": "Banzart",
        "region": "Sejnane",
        "latt": "37.0375",
        "longt": "9.236111",
        "address": "97293 Sandra ExtensionsnKurtstad, WA 35205"
    },
    {
        "state": "TN",
        "name": "Er-Remla",
        "city": "Er-Remla",
        "prov": "u015eafu0101qis",
        "region": "Kerkennah",
        "latt": "34.71083",
        "longt": "11.19444",
        "address": "0560 John WaysnEast Susan, NM 08991"
    },
    {
        "state": "TN",
        "name": "Hennchir Msalla",
        "city": "Au00efn Sayada",
        "prov": "Silyu0101nah",
        "region": "Rouhia",
        "latt": "35.5475",
        "longt": "9.40083",
        "address": "USNS BergnFPO AP 05928"
    },
    {
        "state": "TN",
        "name": "Garaet el Haouaria",
        "city": "El Haouaria",
        "prov": "Nu0101bul",
        "region": "El Haouaria",
        "latt": "37.0025",
        "longt": "11.02028",
        "address": "86603 Moore Mill Suite 950nSouth Thomas, TN 94933"
    },
    {
        "state": "TN",
        "name": "Ragoubet el Mnitah",
        "city": "Sejenane",
        "prov": "Banzart",
        "region": "Sejnane",
        "latt": "37.0375",
        "longt": "9.236111",
        "address": "74650 Joseph Landing Apt. 899nNorth Paigestad, WI 65740"
    },
    {
        "state": "TN",
        "name": "Hanshu012br Kramzia",
        "city": "El Hayara",
        "prov": "Al Qau015frayn",
        "region": "Ayoun",
        "latt": "35.4",
        "longt": "8.783333",
        "address": "7276 Peterson ExtensionsnBurnsmouth, UT 81836"
    },
    {
        "state": "TN",
        "name": "Zaouu00efet Sidi Mostefa",
        "city": "Kasserine",
        "prov": "Al Qau015frayn",
        "region": "Kasserine Nord",
        "latt": "35.18333",
        "longt": "8.83333",
        "address": "56896 Allison Lock Suite 836nWrighthaven, IL 78672"
    },
    {
        "state": "TN",
        "name": "Dar Chabanne",
        "city": "Dar Chabanne",
        "prov": "Nu0101bul",
        "region": "Dar Chaabane El Fehri",
        "latt": "36.46798",
        "longt": "10.75167",
        "address": "58369 Flores Center Apt. 302nWest Alison, CO 41326"
    },
    {
        "state": "TN",
        "name": "Au00efne el Benia",
        "city": "Chaouache",
        "prov": "Bu0101jah",
        "region": "Medjez El Bab",
        "latt": "36.71667",
        "longt": "9.56667",
        "address": "6866 Johnston Course Suite 301nLake Heatherport, NM 81370"
    },
    {
        "state": "TN",
        "name": "Jebel Bou Zekri",
        "city": "Bou Arkoub",
        "prov": "Nu0101bul",
        "region": "Grombalia",
        "latt": "36.53889",
        "longt": "10.47722",
        "address": "Unit 9944 Box 2190nDPO AP 28309"
    },
    {
        "state": "TN",
        "name": "Henndi ech Chiab",
        "city": "Henndi ech Chiab",
        "prov": "Su016bsah",
        "region": "Kalaa Kebira",
        "latt": "35.92528",
        "longt": "10.36694",
        "address": "69381 Callahan Mission Suite 511nPhillipmouth, AZ 78792"
    },
    {
        "state": "TN",
        "name": "Au00efne el Benia",
        "city": "Chaouache",
        "prov": "Bu0101jah",
        "region": "Medjez El Bab",
        "latt": "36.71667",
        "longt": "9.56667",
        "address": "451 Adam DalenRandolphshire, ND 42034"
    },
    {
        "state": "TN",
        "name": "Guelib el Ali",
        "city": "Sidi Nadji",
        "prov": "Bu0101jah",
        "region": "Nadhour",
        "latt": "36.0625",
        "longt": "9.99306",
        "address": "817 Marquez Center Suite 436nNorth Kyle, WI 53720"
    },
    {
        "state": "TN",
        "name": "Hanshu012br Tu0101qilmu012bt",
        "city": "Taguelmit",
        "prov": "Madanu012bn",
        "region": "Ben Guerdane",
        "latt": "32.966667",
        "longt": "11.3",
        "address": "6541 David PortsnPort Morgan, NH 83997"
    },
    {
        "state": "TN",
        "name": "Djebel es Semeh",
        "city": "El Kef",
        "prov": "Kef",
        "region": "Nebeur",
        "latt": "36.21667",
        "longt": "8.7",
        "address": "28742 Flores Springs Suite 799nSouth Robert, MA 87079"
    },
    {
        "state": "TN",
        "name": "Au00efn el Barda",
        "city": "Al Matlu012bn",
        "prov": "Banzart",
        "region": "Muu2018tamadu012byat Rau2019s al Jabal",
        "latt": "37.23333",
        "longt": "10.05",
        "address": "61113 James PortnEast Sonyaborough, AK 49014"
    },
    {
        "state": "TN",
        "name": "Hennchir Msalla",
        "city": "Au00efn Sayada",
        "prov": "Silyu0101nah",
        "region": "Rouhia",
        "latt": "35.5475",
        "longt": "9.40083",
        "address": "3768 Marcus Ville Apt. 821nMichaelchester, WY 79348"
    },
    {
        "state": "TN",
        "name": "Er-Rbadh",
        "city": "Sfax",
        "prov": "u015eafu0101qis",
        "region": "Sfax Ville",
        "latt": "34.74971",
        "longt": "10.7549",
        "address": "1197 Sandra RapidsnWest Jeffreyland, ID 69027"
    },
    {
        "state": "TN",
        "name": "Sidi Ben Rayada",
        "city": "Zouila",
        "prov": "Al Mahdu012byah",
        "region": "Mahdia",
        "latt": "35.483056",
        "longt": "11.055556",
        "address": "420 Allison Islands Suite 055nAmandaland, AL 64719"
    },
    {
        "state": "TN",
        "name": "Djebel el Kfa",
        "city": "Tajerouine",
        "prov": "Kef",
        "region": "Tajerouine",
        "latt": "35.86546",
        "longt": "8.5257",
        "address": "929 Anderson LakesnSouth Williamfort, AZ 66247"
    },
    {
        "state": "TN",
        "name": "El Houamdia",
        "city": "El Houamdia",
        "prov": "u015eafu0101qis",
        "region": "Agareb",
        "latt": "34.71944",
        "longt": "10.35167",
        "address": "35587 Davis PointnStephanieport, ND 10557"
    },
    {
        "state": "TN",
        "name": "Guengla",
        "city": "Menzel Bourguiba",
        "prov": "Banzart",
        "region": "Tinja",
        "latt": "37.1724",
        "longt": "9.77492",
        "address": "3982 Wang HeightsnPaulville, WI 30210"
    },
    {
        "state": "TN",
        "name": "Wu0101du012b Temrit",
        "city": "Siliana",
        "prov": "Silyu0101nah",
        "region": "Siliana Nord",
        "latt": "36.1",
        "longt": "9.38333",
        "address": "39107 Simon ForknBakerstad, OR 52646"
    },
    {
        "state": "TN",
        "name": "Djebel es Semeh",
        "city": "El Kef",
        "prov": "Kef",
        "region": "Nebeur",
        "latt": "36.21667",
        "longt": "8.7",
        "address": "USS ParkernFPO AA 58424"
    },
    {
        "state": "TN",
        "name": "Jebel Bou Zekri",
        "city": "Bou Arkoub",
        "prov": "Nu0101bul",
        "region": "Grombalia",
        "latt": "36.53889",
        "longt": "10.47722",
        "address": "83383 Riley Inlet Suite 665nLake Christopher, IA 45733"
    },
    {
        "state": "TN",
        "name": "Dayr al Farnu0101n",
        "city": "Balta",
        "prov": "Jundu016bbah",
        "region": "Balta Bou Aouane",
        "latt": "36.733333",
        "longt": "8.9",
        "address": "3462 Sarah MountainnCartermouth, NJ 48494"
    },
    {
        "state": "TN",
        "name": "Du00e9lu00e9gation de Carthage",
        "city": "Al Marsu00e1",
        "prov": "Tu016bnis",
        "region": "Carthage",
        "latt": "36.859606",
        "longt": "10.329776",
        "address": "PSC 6468, Box 0251nAPO AE 68499"
    },
    {
        "state": "TN",
        "name": "Rau2019s Degbi Marsa",
        "city": "Dar el Haj Ali",
        "prov": "Nu0101bul",
        "region": "El Haouaria",
        "latt": "36.93333",
        "longt": "10.8",
        "address": "92944 Brandi IslenNew Kellymouth, NH 39660"
    },
    {
        "state": "TN",
        "name": "El Hadloulah",
        "city": "Dar Mannsour Bou Amara",
        "prov": "Kairouan",
        "region": "Nasrallah",
        "latt": "35.22",
        "longt": "9.94333",
        "address": "44644 Cynthia Crossroad Apt. 903nWest Christophertown, NJ 70544"
    },
    {
        "state": "TN",
        "name": "Sidi Bou Mergoum",
        "city": "Chorbane",
        "prov": "Al Mahdu012byah",
        "region": "Chorbane",
        "latt": "35.3",
        "longt": "10.38333",
        "address": "92036 Mendoza BurgnCantrellborough, OR 09718"
    },
    {
        "state": "TN",
        "name": "Au00efn el Barda",
        "city": "Al Matlu012bn",
        "prov": "Banzart",
        "region": "Muu2018tamadu012byat Rau2019s al Jabal",
        "latt": "37.23333",
        "longt": "10.05",
        "address": "265 Jeanette Crescent Apt. 560nHarrisport, NE 74527"
    },
    {
        "state": "TN",
        "name": "En-Nakachia",
        "city": "Ain Soltan",
        "prov": "Bu0101jah",
        "region": "Du00e9lu00e9gation de Bu00e9ja Nord",
        "latt": "36.85998",
        "longt": "9.25939",
        "address": "Unit 2177 Box 2717nDPO AA 08521"
    },
    {
        "state": "TN",
        "name": "Mechta Sfau00efa",
        "city": "Sakiet Sidi Youssef",
        "prov": "Kef",
        "region": "Sakiet Sidi Youssef",
        "latt": "36.26417",
        "longt": "8.3775",
        "address": "Unit 6408 Box 9853nDPO AE 43749"
    },
    {
        "state": "TN",
        "name": "Guengla",
        "city": "Menzel Bourguiba",
        "prov": "Banzart",
        "region": "Tinja",
        "latt": "37.1724",
        "longt": "9.77492",
        "address": "157 Jessica TracenLake Lori, MO 84518"
    },
    {
        "state": "TN",
        "name": "Bir Deghaghra",
        "city": "Kirchaou",
        "prov": "Tataouine",
        "region": "Smar",
        "latt": "33.057778",
        "longt": "10.733611",
        "address": "5658 Kent CanyonnNew Katiehaven, MT 49032"
    },
    {
        "state": "TN",
        "name": "Hanshu012br Kramzia",
        "city": "El Hayara",
        "prov": "Al Qau015frayn",
        "region": "Ayoun",
        "latt": "35.4",
        "longt": "8.783333",
        "address": "5133 Jonathan Ways Apt. 160nJoelfort, FL 70631"
    },
    {
        "state": "TN",
        "name": "Guelib el Ali",
        "city": "Sidi Nadji",
        "prov": "Bu0101jah",
        "region": "Nadhour",
        "latt": "36.0625",
        "longt": "9.99306",
        "address": "5042 Graham Via Suite 540nEast Thomas, ID 74641"
    },
    {
        "state": "TN",
        "name": "Sidi Hassene",
        "city": "El Alia",
        "prov": "Banzart",
        "region": "Ghar El Melh",
        "latt": "37.15145",
        "longt": "10.07925",
        "address": "7369 Patrick ForknNorth Dennis, GA 80510"
    },
    {
        "state": "TN",
        "name": "Bir Mzara",
        "city": "Zaafria",
        "prov": "Su012bdu012b Bu016b Zayd",
        "region": "Sidi Bouzid Ouest",
        "latt": "34.96667",
        "longt": "9.35",
        "address": "94347 Mills BypassnMorganville, SC 84128"
    },
    {
        "state": "TN",
        "name": "Guetoufa",
        "city": "Tataouine",
        "prov": "Tataouine",
        "region": "Tataouine Nord",
        "latt": "32.91476",
        "longt": "10.49426",
        "address": "3337 Mercedes Bypass Apt. 376nMckayburgh, VT 75467"
    },
    {
        "state": "TN",
        "name": "Su012bdu012b at Tekouri",
        "city": "Dar Brahim Ben Kahia",
        "prov": "Al Mahdu012byah",
        "region": "Ouled Chamekh",
        "latt": "35.383333",
        "longt": "10.233333",
        "address": "7750 Brown Hollow Suite 497nScottfort, IA 63229"
    },
    {
        "state": "TN",
        "name": "Oued el Jebess",
        "city": "Haffouz",
        "prov": "Kairouan",
        "region": "Haffouz",
        "latt": "35.615519",
        "longt": "9.656718",
        "address": "Unit 4234 Box 3551nDPO AE 28972"
    },
    {
        "state": "TN",
        "name": "Oued el Jebess",
        "city": "Haffouz",
        "prov": "Kairouan",
        "region": "Haffouz",
        "latt": "35.615519",
        "longt": "9.656718",
        "address": "46975 Smith HillnChristinefort, IA 91782"
    },
    {
        "state": "TN",
        "name": "Jebel Bou Zekri",
        "city": "Bou Arkoub",
        "prov": "Nu0101bul",
        "region": "Grombalia",
        "latt": "36.53889",
        "longt": "10.47722",
        "address": "70008 Dawson IslenDanielmouth, MA 84760"
    },
    {
        "state": "TN",
        "name": "Oued en Nemel",
        "city": "Mediccera",
        "prov": "Zaghwu0101n",
        "region": null,
        "latt": "36.21667",
        "longt": "10.23333",
        "address": "Unit 0094 Box 1189nDPO AE 36817"
    },
    {
        "state": "TN",
        "name": "Wu0101du012b ad Debab",
        "city": "Dar Abdallah Bel Haj",
        "prov": "Banzart",
        "region": "Ghazala",
        "latt": "37.05",
        "longt": "9.53333",
        "address": "51448 Brenda Freeway Apt. 670nBradleymouth, CA 79380"
    },
    {
        "state": "TN",
        "name": "Toujane",
        "city": "Toudjane",
        "prov": "Qu0101bis",
        "region": "Mareth",
        "latt": "33.46015",
        "longt": "10.13168",
        "address": "4521 Brian Track Suite 415nCookport, TX 96113"
    },
    {
        "state": "TN",
        "name": "El Bouahir",
        "city": "Douar es Sghau00efra",
        "prov": "u015eafu0101qis",
        "region": "Agareb",
        "latt": "34.74889",
        "longt": "10.49667",
        "address": "0528 Thompson Hill Apt. 129nPort Jacqueline, WI 97905"
    },
    {
        "state": "TN",
        "name": "Su012bdu012b at Tekouri",
        "city": "Dar Brahim Ben Kahia",
        "prov": "Al Mahdu012byah",
        "region": "Ouled Chamekh",
        "latt": "35.383333",
        "longt": "10.233333",
        "address": "2049 Teresa PortnNorth Jessica, KY 54207"
    },
    {
        "state": "TN",
        "name": "Er-Rbadh",
        "city": "Sfax",
        "prov": "u015eafu0101qis",
        "region": "Sfax Ville",
        "latt": "34.74971",
        "longt": "10.7549",
        "address": "4988 Beverly Manors Suite 795nTuckermouth, MI 13454"
    },
    {
        "state": "TN",
        "name": "Rau2019s Degbi Marsa",
        "city": "Dar el Haj Ali",
        "prov": "Nu0101bul",
        "region": "El Haouaria",
        "latt": "36.93333",
        "longt": "10.8",
        "address": "786 Macdonald WallnWest Jerryview, MT 33204"
    },
    {
        "state": "TN",
        "name": "Jebel Bou Zekri",
        "city": "Bou Arkoub",
        "prov": "Nu0101bul",
        "region": "Grombalia",
        "latt": "36.53889",
        "longt": "10.47722",
        "address": "76160 Contreras MeadowsnBeckchester, MA 96113"
    },
    {
        "state": "TN",
        "name": "Ragoubet el Mnitah",
        "city": "Sejenane",
        "prov": "Banzart",
        "region": "Sejnane",
        "latt": "37.0375",
        "longt": "9.236111",
        "address": "90797 Thomas RidgenNew Danielle, MS 36988"
    },
    {
        "state": "TN",
        "name": "Au00efn el Barda",
        "city": "Al Matlu012bn",
        "prov": "Banzart",
        "region": "Muu2018tamadu012byat Rau2019s al Jabal",
        "latt": "37.23333",
        "longt": "10.05",
        "address": "6626 Thomas VillagesnNorth Ambermouth, ND 19909"
    },
    {
        "state": "TN",
        "name": "En-Nakachia",
        "city": "Ain Soltan",
        "prov": "Bu0101jah",
        "region": "Du00e9lu00e9gation de Bu00e9ja Nord",
        "latt": "36.85998",
        "longt": "9.25939",
        "address": "PSC 8431, Box 1707nAPO AE 62938"
    },
    {
        "state": "TN",
        "name": "Du00e9lu00e9gation de Carthage",
        "city": "Al Marsu00e1",
        "prov": "Tu016bnis",
        "region": "Carthage",
        "latt": "36.859606",
        "longt": "10.329776",
        "address": "24042 Eric Street Suite 655nPort Brandyfurt, OK 92998"
    },
    {
        "state": "TN",
        "name": "Wu0101du012b ad Debab",
        "city": "Dar Abdallah Bel Haj",
        "prov": "Banzart",
        "region": "Ghazala",
        "latt": "37.05",
        "longt": "9.53333",
        "address": "3069 Summers CrossingnLuisfurt, WA 82986"
    },
    {
        "state": "TN",
        "name": "Hanshu012br Semmech",
        "city": "Sidi et Tarhouni",
        "prov": "Bu0101jah",
        "region": "Amdoun",
        "latt": "36.68914",
        "longt": "9.0484",
        "address": "48866 Clark Motorway Apt. 827nYoderton, CA 92996"
    },
    {
        "state": "TN",
        "name": "Guetoufa",
        "city": "Tataouine",
        "prov": "Tataouine",
        "region": "Tataouine Nord",
        "latt": "32.91476",
        "longt": "10.49426",
        "address": "68622 Wilson ForgesnTannerside, ND 53388"
    },
    {
        "state": "TN",
        "name": "Guengla",
        "city": "Menzel Bourguiba",
        "prov": "Banzart",
        "region": "Tinja",
        "latt": "37.1724",
        "longt": "9.77492",
        "address": "140 Martinez PortnEduardobury, AZ 53366"
    },
    {
        "state": "TN",
        "name": "Sidi Naceur",
        "city": "Souassi",
        "prov": "Al Mahdu012byah",
        "region": "Souassi",
        "latt": "35.31883",
        "longt": "10.5979",
        "address": "2181 Diana Mission Suite 862nSouth Jennifer, WI 65214"
    },
    {
        "state": "TN",
        "name": "Burj Tuwaymirah",
        "city": "Ain Saidane",
        "prov": "Qibilu012b",
        "region": "Du00e9lu00e9gation de Ku00e9bili Nord",
        "latt": "33.72862",
        "longt": "9.341635",
        "address": "90386 Young HollownPatelfurt, CO 70857"
    },
    {
        "state": "TN",
        "name": "Oued Kita",
        "city": "Chouigui",
        "prov": "Banzart",
        "region": "El Battane",
        "latt": "36.89139",
        "longt": "9.80556",
        "address": "63164 Garcia Mall Suite 835nVelazqueztown, CO 53440"
    },
    {
        "state": "TN",
        "name": "Burj Tuwaymirah",
        "city": "Ain Saidane",
        "prov": "Qibilu012b",
        "region": "Du00e9lu00e9gation de Ku00e9bili Nord",
        "latt": "33.72862",
        "longt": "9.341635",
        "address": "1064 Cohen Trail Apt. 630nLake Johnhaven, OK 80149"
    },
    {
        "state": "TN",
        "name": "Ragoubet el Mnitah",
        "city": "Sejenane",
        "prov": "Banzart",
        "region": "Sejnane",
        "latt": "37.0375",
        "longt": "9.236111",
        "address": "40526 Emily Dale Apt. 520nVillarrealview, LA 34579"
    },
    {
        "state": "TN",
        "name": "Sidi Sahbi",
        "city": "El Harau00efg",
        "prov": "Silyu0101nah",
        "region": "Kesra",
        "latt": "35.77972",
        "longt": "9.245",
        "address": "47714 Colton CliffsnEast Kristina, ND 41082"
    },
    {
        "state": "TN",
        "name": "Rau2019s Degbi Marsa",
        "city": "Dar el Haj Ali",
        "prov": "Nu0101bul",
        "region": "El Haouaria",
        "latt": "36.93333",
        "longt": "10.8",
        "address": "738 Caitlin Loaf Apt. 740nPort Manuel, UT 83675"
    },
    {
        "state": "TN",
        "name": "Oued el Meksem",
        "city": "Berouari",
        "prov": "Al Qau015frayn",
        "region": "Hassi El Ferid",
        "latt": "34.874489",
        "longt": "8.868157",
        "address": "3781 Casey Harbor Apt. 313nLevyburgh, NV 86533"
    },
    {
        "state": "TN",
        "name": "Arkou",
        "city": "Midoun",
        "prov": "Madanu012bn",
        "region": "Jerba Midoun",
        "latt": "33.78191",
        "longt": "11.0102",
        "address": "88689 Strickland LocksnWest Cynthiabury, NH 97593"
    },
    {
        "state": "TN",
        "name": "El Bouahir",
        "city": "Douar es Sghau00efra",
        "prov": "u015eafu0101qis",
        "region": "Agareb",
        "latt": "34.74889",
        "longt": "10.49667",
        "address": "243 Clark LandingnNorth Christopher, IA 98054"
    },
    {
        "state": "TN",
        "name": "Jilmah",
        "city": "Jilma",
        "prov": "Su012bdu012b Bu016b Zayd",
        "region": "Jelma",
        "latt": "35.26667",
        "longt": "9.41667",
        "address": "3998 Robinson CampnEast Vickiland, ME 07410"
    },
    {
        "state": "TN",
        "name": "Rau2019s Degbi Marsa",
        "city": "Dar el Haj Ali",
        "prov": "Nu0101bul",
        "region": "El Haouaria",
        "latt": "36.93333",
        "longt": "10.8",
        "address": "41749 Nicole Ramp Suite 710nWilliamberg, VT 54565"
    },
    {
        "state": "TN",
        "name": "Sidi Bau00efoub",
        "city": "Douar el Frinine",
        "prov": "Nu0101bul",
        "region": "Dar Chaabane El Fehri",
        "latt": "36.55973",
        "longt": "10.64387",
        "address": "591 Gray LocksnColemantown, WA 74167"
    },
    {
        "state": "TN",
        "name": "Oued en Nemel",
        "city": "Mediccera",
        "prov": "Zaghwu0101n",
        "region": null,
        "latt": "36.21667",
        "longt": "10.23333",
        "address": "0644 Kelly CourtnRachaelhaven, UT 63002"
    },
    {
        "state": "TN",
        "name": "Oued Kita",
        "city": "Chouigui",
        "prov": "Banzart",
        "region": "El Battane",
        "latt": "36.89139",
        "longt": "9.80556",
        "address": "49464 Goodwin Lock Suite 402nLake Leslie, DE 90571"
    },
    {
        "state": "TN",
        "name": "Mechta Sfau00efa",
        "city": "Sakiet Sidi Youssef",
        "prov": "Kef",
        "region": "Sakiet Sidi Youssef",
        "latt": "36.26417",
        "longt": "8.3775",
        "address": "96276 Lauren Gateway Suite 153nWarnerbury, CT 88204"
    },
    {
        "state": "TN",
        "name": "Bir Deghaghra",
        "city": "Kirchaou",
        "prov": "Tataouine",
        "region": "Smar",
        "latt": "33.057778",
        "longt": "10.733611",
        "address": "66046 Rivera HeightsnJacobhaven, MN 25565"
    },
    {
        "state": "TN",
        "name": "Bir Deghaghra",
        "city": "Kirchaou",
        "prov": "Tataouine",
        "region": "Smar",
        "latt": "33.057778",
        "longt": "10.733611",
        "address": "105 Ramirez Hollow Suite 527nPort John, MT 78136"
    },
    {
        "state": "TN",
        "name": "Oued el Jebess",
        "city": "Haffouz",
        "prov": "Kairouan",
        "region": "Haffouz",
        "latt": "35.615519",
        "longt": "9.656718",
        "address": "58459 William Circle Apt. 958nEast Lukeview, AZ 10485"
    },
    {
        "state": "TN",
        "name": "Arkou",
        "city": "Midoun",
        "prov": "Madanu012bn",
        "region": "Jerba Midoun",
        "latt": "33.78191",
        "longt": "11.0102",
        "address": "3589 Glen ParknDominiqueland, CO 30978"
    },