[
    {
        "state": "EE",
        "name": "Puusta",
        "city": "Puusta",
        "prov": "Pu00f5lvamaa",
        "region": "Ru00e4pina vald",
        "latt": "58.07722",
        "longt": "27.3175",
        "address": "0721 Gill PortnJacksonland, WA 07156"
    },
    {
        "state": "EE",
        "name": "Tapupere ku00fcla",
        "city": "Alu",
        "prov": "Raplamaa",
        "region": "Rapla vald",
        "latt": "59.02226",
        "longt": "24.68994",
        "address": "671 King Lock Suite 850nJohnsonland, WA 71131"
    },
    {
        "state": "EE",
        "name": "Nu00fcpli Ju00e4rv",
        "city": "Nu00fcpli",
        "prov": "Valgamaa",
        "region": "Otepu00e4u00e4 vald",
        "latt": "58.03444",
        "longt": "26.495",
        "address": "6127 Sharon Isle Suite 065nAdamchester, GA 25118"
    },
    {
        "state": "EE",
        "name": "Vihtse",
        "city": "Jaama",
        "prov": "Ida-Virumaa",
        "region": "Alutaguse vald",
        "latt": "59.041667",
        "longt": "27.711944",
        "address": "2081 Holt Alley Apt. 074nSouth Michael, AZ 37705"
    },
    {
        "state": "EE",
        "name": "Puusta",
        "city": "Puusta",
        "prov": "Pu00f5lvamaa",
        "region": "Ru00e4pina vald",
        "latt": "58.07722",
        "longt": "27.3175",
        "address": "USNS GalvannFPO AP 39404"
    },
    {
        "state": "EE",
        "name": "Martna vald",
        "city": "Niinja",
        "prov": "Lu00e4u00e4ne",
        "region": "Lu00e4u00e4ne-Nigula vald",
        "latt": "58.84337",
        "longt": "23.8777",
        "address": "PSC 0641, Box 2106nAPO AP 75237"
    },
    {
        "state": "EE",
        "name": "Tapupere ku00fcla",
        "city": "Alu",
        "prov": "Raplamaa",
        "region": "Rapla vald",
        "latt": "59.02226",
        "longt": "24.68994",
        "address": "Unit 0792 Box 0415nDPO AP 48005"
    },
    {
        "state": "EE",
        "name": "Meemaste ku00fcla",
        "city": "Pu00f5lva",
        "prov": "Pu00f5lvamaa",
        "region": "Pu00f5lva vald",
        "latt": "58.01502",
        "longt": "27.06693",
        "address": "572 Lee TrailnNorth Bryan, AK 78772"
    },
    {
        "state": "EE",
        "name": "Papsaare",
        "city": "Paernu",
        "prov": "Pu00e4rnumaa",
        "region": "Pu00e4rnu linn",
        "latt": "58.40472",
        "longt": "24.40694",
        "address": "263 Shannon Parkways Apt. 046nDylanborough, IA 19543"
    },
    {
        "state": "EE",
        "name": "Salaku00fcla",
        "city": "Kivioli",
        "prov": "Ida-Virumaa",
        "region": "Lu00fcganuse vald",
        "latt": "59.34194",
        "longt": "26.92083",
        "address": "6281 Jessica GreensnBradleyport, GA 12040"
    },
    {
        "state": "EE",
        "name": "Lu00e4u00e4ne-Nigula vald",
        "city": "Taebla",
        "prov": "Lu00e4u00e4ne",
        "region": "Lu00e4u00e4ne-Nigula vald",
        "latt": "58.96045",
        "longt": "23.74489",
        "address": "49760 Brown Bridge Apt. 357nWrighthaven, MS 03226"
    },
    {
        "state": "EE",
        "name": "Laane",
        "city": "Laane",
        "prov": "Viljandimaa",
        "region": "Pu00f5hja-Sakala vald",
        "latt": "58.35583",
        "longt": "25.27722",
        "address": "595 Cynthia FlatnJorgeville, CA 79825"
    },
    {
        "state": "EE",
        "name": "Ku00e4ina",
        "city": "Kaeina",
        "prov": "Hiiumaa",
        "region": "Hiiumaa vald",
        "latt": "58.82848",
        "longt": "22.77711",
        "address": "72335 Joseph Locks Apt. 269nSouth Jesusborough, NH 56646"
    },
    {
        "state": "EE",
        "name": "Ku00e4ina",
        "city": "Kaeina",
        "prov": "Hiiumaa",
        "region": "Hiiumaa vald",
        "latt": "58.82848",
        "longt": "22.77711",
        "address": "3585 Hooper Mission Suite 567nHallmouth, NH 12648"
    },
    {
        "state": "EE",
        "name": "Pu00fcssi",
        "city": "Puessi",
        "prov": "Ida-Virumaa",
        "region": "Lu00fcganuse vald",
        "latt": "59.36",
        "longt": "27.04972",
        "address": "839 Hall HillsnBriannaview, MA 07196"
    },
    {
        "state": "EE",
        "name": "Sinialliku",
        "city": "Viljandi",
        "prov": "Viljandimaa",
        "region": "Viljandi vald",
        "latt": "58.30639",
        "longt": "25.56889",
        "address": "680 Howard Overpass Suite 109nSouth Whitneymouth, NH 39108"
    },
    {
        "state": "EE",
        "name": "Avanduse",
        "city": "Avanduse",
        "prov": "Lu00e4u00e4ne-Virumaa",
        "region": "Vu00e4ike-Maarja vald",
        "latt": "59.05306",
        "longt": "26.42083",
        "address": "3029 Michele FieldsnWileymouth, WA 30456"
    },
    {
        "state": "EE",
        "name": "Lapetukme",
        "city": "Lapetukme",
        "prov": "Tartu",
        "region": "Elva vald",
        "latt": "58.17583",
        "longt": "26.19056",
        "address": "122 Myers Fort Apt. 192nLake Michael, OH 54854"
    },
    {
        "state": "EE",
        "name": "Ristna Su00e4u00e4r",
        "city": "Ristna",
        "prov": "Hiiumaa",
        "region": "Hiiumaa vald",
        "latt": "58.94101",
        "longt": "22.043263",
        "address": "128 Elizabeth PikenKimberlyport, WA 24444"
    },
    {
        "state": "EE",
        "name": "Lu00e4u00e4ne-Nigula vald",
        "city": "Taebla",
        "prov": "Lu00e4u00e4ne",
        "region": "Lu00e4u00e4ne-Nigula vald",
        "latt": "58.96045",
        "longt": "23.74489",
        "address": "1924 Campos StationnPort Kennethside, UT 68130"
    },
    {
        "state": "EE",
        "name": "Vaika Saared",
        "city": "Vilsandi",
        "prov": "Saare",
        "region": "Saaremaa vald",
        "latt": "58.37167",
        "longt": "21.815",
        "address": "99709 Christian AlleynLake Nancyton, MI 83578"
    },
    {
        "state": "EE",
        "name": "Aasu",
        "city": "Rakvere",
        "prov": "Lu00e4u00e4ne-Virumaa",
        "region": "Haljala vald",
        "latt": "59.40917",
        "longt": "26.33167",
        "address": "4566 Dickerson GrovenNew Ashley, OK 77982"
    },
    {
        "state": "EE",
        "name": "Naistevyalu2019ya",
        "city": "Tamsalu",
        "prov": "Lu00e4u00e4ne-Virumaa",
        "region": "Tapa vald",
        "latt": "59.195833",
        "longt": "26.156667",
        "address": "8489 Trevino DamnPort Michellemouth, ME 40903"
    },
    {
        "state": "EE",
        "name": "Laane",
        "city": "Laane",
        "prov": "Viljandimaa",
        "region": "Pu00f5hja-Sakala vald",
        "latt": "58.35583",
        "longt": "25.27722",
        "address": "3417 Stewart SquaresnEast Brittanymouth, WY 81942"
    },
    {
        "state": "EE",
        "name": "Mu00e4tja",
        "city": "Maetja",
        "prov": "Saare",
        "region": "Saaremaa vald",
        "latt": "58.52028",
        "longt": "22.76583",
        "address": "Unit 3577 Box 3953nDPO AP 16637"
    },
    {
        "state": "EE",
        "name": "Nu00fcpli Ju00e4rv",
        "city": "Nu00fcpli",
        "prov": "Valgamaa",
        "region": "Otepu00e4u00e4 vald",
        "latt": "58.03444",
        "longt": "26.495",
        "address": "49965 Brenda DividenPort Davidberg, NY 93121"
    },
    {
        "state": "EE",
        "name": "Valdimuru",
        "city": "Valdimuru",
        "prov": "Pu00e4rnumaa",
        "region": "Saarde vald",
        "latt": "58.26667",
        "longt": "24.78306",
        "address": "12063 John View Apt. 457nCruzhaven, FL 23559"
    },
    {
        "state": "EE",
        "name": "Mustiju00e4rv",
        "city": "Tagametsa",
        "prov": "Harjumaa",
        "region": "Kose vald",
        "latt": "59.14427",
        "longt": "25.27117",
        "address": "45233 Todd OvalnLake Jacob, NY 20836"
    },
    {
        "state": "EE",
        "name": "Kruusimu00e4e",
        "city": "Kadrina",
        "prov": "Lu00e4u00e4ne-Virumaa",
        "region": "Kadrina vald",
        "latt": "59.34917",
        "longt": "26.14889",
        "address": "027 Walters GardensnPort William, OK 71484"
    },
    {
        "state": "EE",
        "name": "Antsu ku00fcla",
        "city": "Vana-Antsla",
        "prov": "Vu00f5rumaa",
        "region": "Antsla vald",
        "latt": "57.86041",
        "longt": "26.46232",
        "address": "755 Davis CurvenWest Brittneyburgh, DC 93451"
    },
    {
        "state": "EE",
        "name": "Raukla",
        "city": "Tueri",
        "prov": "Ju00e4rvamaa",
        "region": "Tu00fcri vald",
        "latt": "58.7775",
        "longt": "25.51667",
        "address": "519 Juarez Villages Apt. 697nLake Dennis, LA 24710"
    },
    {
        "state": "EE",
        "name": "Nu00fcpli Ju00e4rv",
        "city": "Nu00fcpli",
        "prov": "Valgamaa",
        "region": "Otepu00e4u00e4 vald",
        "latt": "58.03444",
        "longt": "26.495",
        "address": "216 Mark SummitnSamanthaport, IL 19453"
    },
    {
        "state": "EE",
        "name": "Ku00e4rsama",
        "city": "Kaersama",
        "prov": "Raplamaa",
        "region": "Mu00e4rjamaa vald",
        "latt": "58.90389",
        "longt": "24.22667",
        "address": "33653 Cuevas PortnLake Melissa, ID 43253"
    },
    {
        "state": "EE",
        "name": "Aberoti",
        "city": "Johvi",
        "prov": "Ida-Virumaa",
        "region": "Ju00f5hvi vald",
        "latt": "59.32167",
        "longt": "27.36444",
        "address": "7553 Flores SummitnNew Ericastad, SD 80396"
    },
    {
        "state": "EE",
        "name": "Kabina ku00fcla",
        "city": "Lohkva",
        "prov": "Tartu",
        "region": "Luunja vald",
        "latt": "58.3479",
        "longt": "26.83564",
        "address": "29852 Young Neck Suite 199nAarontown, IA 67838"
    },
    {
        "state": "EE",
        "name": "Teteru00fcvu00e4 ku00fcla",
        "city": "Teterova",
        "prov": "Vu00f5rumaa",
        "region": "Setomaa vald",
        "latt": "57.72791",
        "longt": "27.43805",
        "address": "9230 Griffin Keys Suite 129nReyeston, NM 68865"
    },
    {
        "state": "EE",
        "name": "Aruku00fcla",
        "city": "Arukuela",
        "prov": "Harjumaa",
        "region": "Raasiku vald",
        "latt": "59.36686",
        "longt": "25.07618",
        "address": "43105 Shaw HavennLake Dawn, NJ 55549"
    },
    {
        "state": "EE",
        "name": "Aruku00fcla",
        "city": "Arukuela",
        "prov": "Harjumaa",
        "region": "Raasiku vald",
        "latt": "59.36686",
        "longt": "25.07618",
        "address": "914 Murray Station Apt. 563nLake Sean, CT 48042"
    },
    {
        "state": "EE",
        "name": "Ru00e4ni",
        "city": "Tartu",
        "prov": "Tartu",
        "region": "Kambja vald",
        "latt": "58.3575",
        "longt": "26.65056",
        "address": "4002 Peterson Fords Suite 413nJohnsonchester, TN 51413"
    },
    {
        "state": "EE",
        "name": "Kesklahe",
        "city": "Kesklahe",
        "prov": "Tartu",
        "region": "Peipsiu00e4u00e4re vald",
        "latt": "58.57917",
        "longt": "27.18611",
        "address": "82720 Crystal GatewaynSouth Christopher, AR 31356"
    },
    {
        "state": "EE",
        "name": "Kulna Peatus",
        "city": "Keila",
        "prov": "Harjumaa",
        "region": "Lu00e4u00e4ne-Harju vald",
        "latt": "59.28806",
        "longt": "24.35139",
        "address": "USCGC RhodesnFPO AP 15248"
    },
    {
        "state": "EE",
        "name": "Vaela",
        "city": "Jueri",
        "prov": "Harjumaa",
        "region": "Kiili vald",
        "latt": "59.33659",
        "longt": "24.81318",
        "address": "6516 Mcguire Path Suite 008nMargarettown, MS 34706"
    },
    {
        "state": "EE",
        "name": "Hosbi",
        "city": "Hosby",
        "prov": "Lu00e4u00e4ne",
        "region": "Lu00e4u00e4ne-Nigula vald",
        "latt": "59.034444",
        "longt": "23.511944",
        "address": "748 Moore NecknLake Triciaborough, SC 77081"
    },
    {
        "state": "EE",
        "name": "Peraku00fcla",
        "city": "Perakuela",
        "prov": "Lu00e4u00e4ne",
        "region": "Lu00e4u00e4ne-Nigula vald",
        "latt": "59.20194",
        "longt": "23.62833",
        "address": "877 Peter Islands Suite 887nRiverahaven, DE 64305"
    },
    {
        "state": "EE",
        "name": "Annerank",
        "city": "Matsi",
        "prov": "Pu00e4rnumaa",
        "region": "Lu00e4u00e4neranna vald",
        "latt": "58.36752",
        "longt": "23.72841",
        "address": "0409 Penny Garden Suite 337nMelaniefort, OK 15893"
    },
    {
        "state": "EE",
        "name": "Kabina ku00fcla",
        "city": "Lohkva",
        "prov": "Tartu",
        "region": "Luunja vald",
        "latt": "58.3479",
        "longt": "26.83564",
        "address": "9950 Gray Forks Suite 118nNorth Abigailstad, AL 40200"
    },
    {
        "state": "EE",
        "name": "Teelahkme-Luige",
        "city": "Teelahkme-Luige",
        "prov": "Ju00f5gevamaa",
        "region": "Mustvee vald",
        "latt": "58.85139",
        "longt": "26.84972",
        "address": "353 Michelle Square Apt. 443nEast Thomas, IN 51468"
    },
    {
        "state": "EE",
        "name": "Kabina ku00fcla",
        "city": "Lohkva",
        "prov": "Tartu",
        "region": "Luunja vald",
        "latt": "58.3479",
        "longt": "26.83564",
        "address": "147 Boyer Creek Apt. 359nJoshuatown, MA 63063"
    },
    {
        "state": "EE",
        "name": "Kohtru ku00fcla",
        "city": "Nu00f5lva",
        "prov": "Raplamaa",
        "region": "Mu00e4rjamaa vald",
        "latt": "58.76104",
        "longt": "24.66401",
        "address": "62596 Mccarthy MeadownSouth Darius, TX 66183"
    },
    {
        "state": "EE",
        "name": "Laane",
        "city": "Laane",
        "prov": "Viljandimaa",
        "region": "Pu00f5hja-Sakala vald",
        "latt": "58.35583",
        "longt": "25.27722",
        "address": "92616 Crawford Village Apt. 770nHeatherberg, AZ 63461"
    },
    {
        "state": "EE",
        "name": "Kabina ku00fcla",
        "city": "Lohkva",
        "prov": "Tartu",
        "region": "Luunja vald",
        "latt": "58.3479",
        "longt": "26.83564",
        "address": "9192 Christopher PlazanEast Jason, TX 73676"
    },
    {
        "state": "EE",
        "name": "Ange",
        "city": "Sindi",
        "prov": "Pu00e4rnumaa",
        "region": "Pu00e4rnu linn",
        "latt": "58.335",
        "longt": "24.70028",
        "address": "5507 Sosa BrooksnGregorystad, FL 86622"
    },
    {
        "state": "EE",
        "name": "Tiitsa",
        "city": "Tiitsa",
        "prov": "Vu00f5rumaa",
        "region": "Ru00f5uge vald",
        "latt": "57.58167",
        "longt": "26.53333",
        "address": "391 Bailey Estates Apt. 688nSchneiderport, MD 30751"
    },
    {
        "state": "EE",
        "name": "Mu00e4o ku00fcla",
        "city": "Paide",
        "prov": "Ju00e4rvamaa",
        "region": "Paide linn",
        "latt": "58.9106",
        "longt": "25.63456",
        "address": "62588 Jackson Tunnel Suite 444nEast David, MA 24264"
    },
    {
        "state": "EE",
        "name": "Vaela",
        "city": "Jueri",
        "prov": "Harjumaa",
        "region": "Kiili vald",
        "latt": "59.33659",
        "longt": "24.81318",
        "address": "4225 Jennifer BurgsnCynthiafurt, NE 80838"
    },
    {
        "state": "EE",
        "name": "Kuritse",
        "city": "Tagula",
        "prov": "Valgamaa",
        "region": "Valga vald",
        "latt": "57.86639",
        "longt": "26.34361",
        "address": "278 Jones Landing Suite 816nHarrisonchester, NY 86707"
    },
    {
        "state": "EE",
        "name": "Valdimuru",
        "city": "Valdimuru",
        "prov": "Pu00e4rnumaa",
        "region": "Saarde vald",
        "latt": "58.26667",
        "longt": "24.78306",
        "address": "643 Jocelyn Estates Suite 795nLake Thomaschester, DE 48114"
    },
    {
        "state": "EE",
        "name": "Laane",
        "city": "Laane",
        "prov": "Viljandimaa",
        "region": "Pu00f5hja-Sakala vald",
        "latt": "58.35583",
        "longt": "25.27722",
        "address": "USCGC DeannFPO AE 21161"
    },
    {
        "state": "EE",
        "name": "Hosbi",
        "city": "Hosby",
        "prov": "Lu00e4u00e4ne",
        "region": "Lu00e4u00e4ne-Nigula vald",
        "latt": "59.034444",
        "longt": "23.511944",
        "address": "26966 Ryan Streets Apt. 909nLake Lisahaven, TX 15647"
    },
    {
        "state": "EE",
        "name": "Ku00e4ina",
        "city": "Kaeina",
        "prov": "Hiiumaa",
        "region": "Hiiumaa vald",
        "latt": "58.82848",
        "longt": "22.77711",
        "address": "179 Stephanie CentersnNorth Steven, IA 12844"
    },
    {
        "state": "EE",
        "name": "Vagula Ju00e4rv",
        "city": "Ju00e4rvere",
        "prov": "Vu00f5rumaa",
        "region": "Vu00f5ru vald",
        "latt": "57.84806",
        "longt": "26.9075",
        "address": "6114 Black Hollow Apt. 165nAmandaborough, MO 07183"
    },
    {
        "state": "EE",
        "name": "Sinialliku",
        "city": "Viljandi",
        "prov": "Viljandimaa",
        "region": "Viljandi vald",
        "latt": "58.30639",
        "longt": "25.56889",
        "address": "Unit 5019 Box 9559nDPO AE 91013"
    },
    {
        "state": "EE",
        "name": "Tiitsa",
        "city": "Tiitsa",
        "prov": "Vu00f5rumaa",
        "region": "Ru00f5uge vald",
        "latt": "57.58167",
        "longt": "26.53333",
        "address": "263 Robinson CentersnGarciaview, TX 22304"
    },
    {
        "state": "EE",
        "name": "Kesklahe",
        "city": "Kesklahe",
        "prov": "Tartu",
        "region": "Peipsiu00e4u00e4re vald",
        "latt": "58.57917",
        "longt": "27.18611",
        "address": "96602 Hayden RoadnNew Jennifer, PA 60358"
    },
    {
        "state": "EE",
        "name": "Mu00e4tja",
        "city": "Maetja",
        "prov": "Saare",
        "region": "Saaremaa vald",
        "latt": "58.52028",
        "longt": "22.76583",
        "address": "49328 Margaret CrossroadnSouth Lynn, MI 16598"
    },
    {
        "state": "EE",
        "name": "Kabina ku00fcla",
        "city": "Lohkva",
        "prov": "Tartu",
        "region": "Luunja vald",
        "latt": "58.3479",
        "longt": "26.83564",
        "address": "USNS WagnernFPO AE 95253"
    },
    {
        "state": "EE",
        "name": "Iruste",
        "city": "Iruste",
        "prov": "Saare",
        "region": "Saaremaa vald",
        "latt": "58.51",
        "longt": "23.03444",
        "address": "010 Brandi SquarenWashingtontown, CO 79228"
    },
    {
        "state": "EE",
        "name": "Vagula Ju00e4rv",
        "city": "Ju00e4rvere",
        "prov": "Vu00f5rumaa",
        "region": "Vu00f5ru vald",
        "latt": "57.84806",
        "longt": "26.9075",
        "address": "364 Jenkins Estates Suite 128nPort Matthewton, AL 87093"
    },
    {
        "state": "EE",
        "name": "Mu00e4tja",
        "city": "Maetja",
        "prov": "Saare",
        "region": "Saaremaa vald",
        "latt": "58.52028",
        "longt": "22.76583",
        "address": "0873 James ForestnLangfort, CO 56839"
    },
    {
        "state": "EE",
        "name": "Anijala",
        "city": "Anijala",
        "prov": "Saare",
        "region": "Saaremaa vald",
        "latt": "58.32667",
        "longt": "22.38778",
        "address": "5710 Charles Spring Suite 457nRobertberg, OH 63967"
    },
    {
        "state": "EE",
        "name": "Riuku00fcla",
        "city": "Karksi-Nuia",
        "prov": "Viljandimaa",
        "region": "Mulgi vald",
        "latt": "58.10222",
        "longt": "25.51139",
        "address": "PSC 8913, Box 4356nAPO AA 91381"
    },
    {
        "state": "EE",
        "name": "Harku alevik",
        "city": "Laagri",
        "prov": "Harjumaa",
        "region": "Harku vald",
        "latt": "59.38091",
        "longt": "24.5968",
        "address": "361 Sarah Light Suite 816nNorth Angela, FL 07691"
    },
    {
        "state": "EE",
        "name": "Mustiju00e4rv",
        "city": "Tagametsa",
        "prov": "Harjumaa",
        "region": "Kose vald",
        "latt": "59.14427",
        "longt": "25.27117",
        "address": "753 Wise Ridge Suite 123nPort Cassandra, WA 12051"
    },
    {
        "state": "EE",
        "name": "Naistevyalu2019ya",
        "city": "Tamsalu",
        "prov": "Lu00e4u00e4ne-Virumaa",
        "region": "Tapa vald",
        "latt": "59.195833",
        "longt": "26.156667",
        "address": "49679 Carol ClubnSouth Rachel, WY 16629"
    },
    {
        "state": "EE",
        "name": "Sinialliku",
        "city": "Viljandi",
        "prov": "Viljandimaa",
        "region": "Viljandi vald",
        "latt": "58.30639",
        "longt": "25.56889",
        "address": "95577 Anderson ViewnWest Ryanview, GA 68529"
    },
    {
        "state": "EE",
        "name": "Teelahkme-Luige",
        "city": "Teelahkme-Luige",
        "prov": "Ju00f5gevamaa",
        "region": "Mustvee vald",
        "latt": "58.85139",
        "longt": "26.84972",
        "address": "128 Jones Lodge Suite 084nCurtisside, DC 27396"
    },
    {
        "state": "EE",
        "name": "Nurga ku00fcla",
        "city": "Uinvilja",
        "prov": "Ju00f5gevamaa",
        "region": "Pu00f5ltsamaa vald",
        "latt": "58.74868",
        "longt": "26.04795",
        "address": "97550 Ryan Keys Suite 888nWest Justinfurt, WI 07728"
    },
    {
        "state": "EE",
        "name": "Teelahkme-Luige",
        "city": "Teelahkme-Luige",
        "prov": "Ju00f5gevamaa",
        "region": "Mustvee vald",
        "latt": "58.85139",
        "longt": "26.84972",
        "address": "577 Harrell River Suite 500nPort Timothy, LA 06163"
    },
    {
        "state": "EE",
        "name": "Ryagu",
        "city": "Ryagu",
        "prov": "Viljandimaa",
        "region": "Mulgi vald",
        "latt": "58.13028",
        "longt": "25.17417",
        "address": "5221 Francisco CreeknLake Phillip, MI 10845"
    },
    {
        "state": "EE",
        "name": "Antsu ku00fcla",
        "city": "Vana-Antsla",
        "prov": "Vu00f5rumaa",
        "region": "Antsla vald",
        "latt": "57.86041",
        "longt": "26.46232",
        "address": "57025 Crystal Shoal Apt. 594nEast James, AK 46423"
    },
    {
        "state": "EE",
        "name": "Antsu ku00fcla",
        "city": "Vana-Antsla",
        "prov": "Vu00f5rumaa",
        "region": "Antsla vald",
        "latt": "57.86041",
        "longt": "26.46232",
        "address": "081 Gutierrez Parks Apt. 094nAmychester, NC 29113"
    },
    {
        "state": "EE",
        "name": "Naistevyalu2019ya",
        "city": "Tamsalu",
        "prov": "Lu00e4u00e4ne-Virumaa",
        "region": "Tapa vald",
        "latt": "59.195833",
        "longt": "26.156667",
        "address": "USCGC MiddletonnFPO AP 18172"
    },
    {
        "state": "EE",
        "name": "Aruku00fcla",
        "city": "Arukuela",
        "prov": "Harjumaa",
        "region": "Raasiku vald",
        "latt": "59.36686",
        "longt": "25.07618",
        "address": "7670 Rich Street Suite 330nWilliamsberg, MO 13459"
    },
    {
        "state": "EE",
        "name": "Ryagu",
        "city": "Ryagu",
        "prov": "Viljandimaa",
        "region": "Mulgi vald",
        "latt": "58.13028",
        "longt": "25.17417",
        "address": "456 Richard SummitnLake Elizabethton, IN 70816"
    },
    {
        "state": "EE",
        "name": "Meemaste ku00fcla",
        "city": "Pu00f5lva",
        "prov": "Pu00f5lvamaa",
        "region": "Pu00f5lva vald",
        "latt": "58.01502",
        "longt": "27.06693",
        "address": "514 Mark Brooks Apt. 283nHatfieldmouth, WA 04257"
    },
    {
        "state": "EE",
        "name": "Kruusimu00e4e",
        "city": "Kadrina",
        "prov": "Lu00e4u00e4ne-Virumaa",
        "region": "Kadrina vald",
        "latt": "59.34917",
        "longt": "26.14889",
        "address": "1084 Michael Club Apt. 560nLake Connie, FL 55383"
    },
    {
        "state": "EE",
        "name": "Mustiju00e4rv",
        "city": "Tagametsa",
        "prov": "Harjumaa",
        "region": "Kose vald",
        "latt": "59.14427",
        "longt": "25.27117",
        "address": "Unit 4758 Box 0486nDPO AE 55687"
    },
    {
        "state": "EE",
        "name": "Smolnitsa ku00fcla",
        "city": "Smolnitsa",
        "prov": "Ida-Virumaa",
        "region": "Alutaguse vald",
        "latt": "59.02923",
        "longt": "27.5953",
        "address": "7436 Scott Spur Suite 864nSweeneyburgh, WY 23631"
    },
    {
        "state": "EE",
        "name": "Praakli",
        "city": "Kuressaare",
        "prov": "Saare",
        "region": "Saaremaa vald",
        "latt": "58.25944",
        "longt": "22.57444",
        "address": "67231 Brian Port Apt. 502nSouth Paul, MI 21710"
    },
    {
        "state": "EE",
        "name": "Kabina ku00fcla",
        "city": "Lohkva",
        "prov": "Tartu",
        "region": "Luunja vald",
        "latt": "58.3479",
        "longt": "26.83564",
        "address": "27983 Baker Forge Apt. 032nBauerbury, CO 48933"
    },
    {
        "state": "EE",
        "name": "Teelahkme-Luige",
        "city": "Teelahkme-Luige",
        "prov": "Ju00f5gevamaa",
        "region": "Mustvee vald",
        "latt": "58.85139",
        "longt": "26.84972",
        "address": "077 Paula Ferry Apt. 741nOrtizfort, UT 82762"
    },
    {
        "state": "EE",
        "name": "u00dclpre",
        "city": "Karksi-Nuia",
        "prov": "Viljandimaa",
        "region": "Mulgi vald",
        "latt": "58.06694",
        "longt": "25.555",
        "address": "6898 Harris ParknSharonfurt, VA 21922"
    },
    {
        "state": "EE",
        "name": "Ronivere",
        "city": "Ronivere",
        "prov": "Ju00f5gevamaa",
        "region": "Ju00f5geva vald",
        "latt": "58.72611",
        "longt": "26.65639",
        "address": "USCGC RobinsonnFPO AE 85677"
    },
    {
        "state": "EE",
        "name": "Vaela",
        "city": "Jueri",
        "prov": "Harjumaa",
        "region": "Kiili vald",
        "latt": "59.33659",
        "longt": "24.81318",
        "address": "554 Gillespie Cliffs Suite 522nEast Richardview, UT 25322"
    },
    {
        "state": "EE",
        "name": "Ehala",
        "city": "Ehala",
        "prov": "Pu00e4rnumaa",
        "region": "Lu00e4u00e4neranna vald",
        "latt": "58.53333",
        "longt": "23.81667",
        "address": "9502 Dean Highway Apt. 351nNorth Davidstad, WV 58861"
    },
    {
        "state": "EE",
        "name": "Annerank",
        "city": "Matsi",
        "prov": "Pu00e4rnumaa",
        "region": "Lu00e4u00e4neranna vald",
        "latt": "58.36752",
        "longt": "23.72841",
        "address": "320 Courtney ShoalnEdwardsborough, ND 21166"
    },
    {
        "state": "EE",
        "name": "Meemaste ku00fcla",
        "city": "Pu00f5lva",
        "prov": "Pu00f5lvamaa",
        "region": "Pu00f5lva vald",
        "latt": "58.01502",
        "longt": "27.06693",
        "address": "771 Kelly MountainsnHallbury, LA 62270"
    },
    {
        "state": "EE",
        "name": "Valdimuru",
        "city": "Valdimuru",
        "prov": "Pu00e4rnumaa",
        "region": "Saarde vald",
        "latt": "58.26667",
        "longt": "24.78306",
        "address": "637 Weaver Forges Suite 947nSaunderschester, KY 82115"
    },
    {
        "state": "EE",
        "name": "Mustiju00e4rv",
        "city": "Tagametsa",
        "prov": "Harjumaa",
        "region": "Kose vald",
        "latt": "59.14427",
        "longt": "25.27117",
        "address": "6607 Samuel ExpresswaynWest Michael, MS 95425"
    },
    {
        "state": "EE",
        "name": "Kesklahe",
        "city": "Kesklahe",
        "prov": "Tartu",
        "region": "Peipsiu00e4u00e4re vald",
        "latt": "58.57917",
        "longt": "27.18611",
        "address": "390 Jacqueline Crest Suite 574nJacobmouth, NE 68526"
    },
    {
        "state": "EE",
        "name": "Kruusimu00e4e",
        "city": "Kadrina",
        "prov": "Lu00e4u00e4ne-Virumaa",
        "region": "Kadrina vald",
        "latt": "59.34917",
        "longt": "26.14889",
        "address": "294 Deborah MountnNew Hollyberg, AK 02754"
    },
    {
        "state": "EE",
        "name": "Vaela",
        "city": "Jueri",
        "prov": "Harjumaa",
        "region": "Kiili vald",
        "latt": "59.33659",
        "longt": "24.81318",
        "address": "97704 Clark Islands Apt. 183nPort Adrienne, AZ 98998"
    },
    {
        "state": "EE",
        "name": "Ange",
        "city": "Sindi",
        "prov": "Pu00e4rnumaa",
        "region": "Pu00e4rnu linn",
        "latt": "58.335",
        "longt": "24.70028",
        "address": "9251 Jason Road Apt. 375nNorth Heatherhaven, OH 64392"
    },
    {
        "state": "EE",
        "name": "Hosbi",
        "city": "Hosby",
        "prov": "Lu00e4u00e4ne",
        "region": "Lu00e4u00e4ne-Nigula vald",
        "latt": "59.034444",
        "longt": "23.511944",
        "address": "1479 Robinson PortsnLake Johnfort, MS 45297"
    },
    {
        "state": "EE",
        "name": "Sinialliku",
        "city": "Viljandi",
        "prov": "Viljandimaa",
        "region": "Viljandi vald",
        "latt": "58.30639",
        "longt": "25.56889",
        "address": "26636 Parker SummitnJeffreyhaven, AR 85619"
    },
    {
        "state": "EE",
        "name": "Ku00e4rdla",
        "city": "Kaerdla",
        "prov": "Hiiumaa",
        "region": "Hiiumaa vald",
        "latt": "58.99778",
        "longt": "22.74917",
        "address": "7257 Mccall Mountain Suite 256nVillanuevaborough, MO 38938"
    },
    {
        "state": "EE",
        "name": "Kesklahe",
        "city": "Kesklahe",
        "prov": "Tartu",
        "region": "Peipsiu00e4u00e4re vald",
        "latt": "58.57917",
        "longt": "27.18611",
        "address": "PSC 6951, Box 5423nAPO AA 18835"
    },
    {
        "state": "EE",
        "name": "Iruste",
        "city": "Iruste",
        "prov": "Saare",
        "region": "Saaremaa vald",
        "latt": "58.51",
        "longt": "23.03444",
        "address": "99858 Jones VianLake Lindsey, DC 30472"
    },
    {
        "state": "EE",
        "name": "Aasu",
        "city": "Rakvere",
        "prov": "Lu00e4u00e4ne-Virumaa",
        "region": "Haljala vald",
        "latt": "59.40917",
        "longt": "26.33167",
        "address": "0780 Turner CampnEast Rebeccaville, ND 82929"
    },
    {
        "state": "EE",
        "name": "Teteru00fcvu00e4 ku00fcla",
        "city": "Teterova",
        "prov": "Vu00f5rumaa",
        "region": "Setomaa vald",
        "latt": "57.72791",
        "longt": "27.43805",
        "address": "33003 Karen UnionnJohnsonhaven, AL 00714"
    },
    {
        "state": "EE",
        "name": "Ru00e4ni",
        "city": "Tartu",
        "prov": "Tartu",
        "region": "Kambja vald",
        "latt": "58.3575",
        "longt": "26.65056",
        "address": "079 Vincent OvalnWest Daniellehaven, OK 71908"
    },
    {
        "state": "EE",
        "name": "Aruku00fcla",
        "city": "Arukuela",
        "prov": "Harjumaa",
        "region": "Raasiku vald",
        "latt": "59.36686",
        "longt": "25.07618",
        "address": "5455 Salinas Track Suite 309nKellyton, NE 34983"
    },
    {
        "state": "EE",
        "name": "Laane",
        "city": "Laane",
        "prov": "Viljandimaa",
        "region": "Pu00f5hja-Sakala vald",
        "latt": "58.35583",
        "longt": "25.27722",
        "address": "USNV DavisnFPO AP 81687"
    },
    {
        "state": "EE",
        "name": "Vaela",
        "city": "Jueri",
        "prov": "Harjumaa",
        "region": "Kiili vald",
        "latt": "59.33659",
        "longt": "24.81318",
        "address": "917 Mary KnollsnNorth Joshua, ME 86451"
    },
    {
        "state": "EE",
        "name": "Mustiju00e4rv",
        "city": "Tagametsa",
        "prov": "Harjumaa",
        "region": "Kose vald",
        "latt": "59.14427",
        "longt": "25.27117",
        "address": "66438 Glenda Harbor Apt. 799nNorth Josephshire, SD 33103"
    },
    {
        "state": "EE",
        "name": "Vanaku00fcla",
        "city": "Vanakuela",
        "prov": "Ida-Virumaa",
        "region": "Narva-Ju00f5esuu linn",
        "latt": "59.39194",
        "longt": "28.08944",
        "address": "832 Rebecca Overpass Apt. 797nNorth Jeffreyshire, AR 88616"
    },
    {
        "state": "EE",
        "name": "Sikana ku00fcla",
        "city": "Soone",
        "prov": "Pu00e4rnumaa",
        "region": "Pu00f5hja-Pu00e4rnumaa vald",
        "latt": "58.57184",
        "longt": "24.90701",
        "address": "1318 Johnson Isle Suite 707nCameronmouth, NJ 95276"
    },
    {
        "state": "EE",
        "name": "Papsaare",
        "city": "Paernu",
        "prov": "Pu00e4rnumaa",
        "region": "Pu00e4rnu linn",
        "latt": "58.40472",
        "longt": "24.40694",
        "address": "34904 Charles Ways Apt. 316nColemantown, ID 28017"
    },
    {
        "state": "EE",
        "name": "Mu00e4tja",
        "city": "Maetja",
        "prov": "Saare",
        "region": "Saaremaa vald",
        "latt": "58.52028",
        "longt": "22.76583",
        "address": "8016 Lewis Lights Apt. 644nEast Douglastown, NY 03837"
    },
    {
        "state": "EE",
        "name": "Tapupere ku00fcla",
        "city": "Alu",
        "prov": "Raplamaa",
        "region": "Rapla vald",
        "latt": "59.02226",
        "longt": "24.68994",
        "address": "USNV KennedynFPO AA 15821"
    },
    {
        "state": "EE",
        "name": "Teteru00fcvu00e4 ku00fcla",
        "city": "Teterova",
        "prov": "Vu00f5rumaa",
        "region": "Setomaa vald",
        "latt": "57.72791",
        "longt": "27.43805",
        "address": "12749 Lloyd PathnEast Sonia, DE 54907"
    },
    {
        "state": "EE",
        "name": "Teelahkme-Luige",
        "city": "Teelahkme-Luige",
        "prov": "Ju00f5gevamaa",
        "region": "Mustvee vald",
        "latt": "58.85139",
        "longt": "26.84972",
        "address": "9802 Keith Prairie Apt. 887nBallland, WA 45138"
    },
    {
        "state": "EE",
        "name": "Vagula Ju00e4rv",
        "city": "Ju00e4rvere",
        "prov": "Vu00f5rumaa",
        "region": "Vu00f5ru vald",
        "latt": "57.84806",
        "longt": "26.9075",
        "address": "5939 Smith CenternTurnerland, AL 97481"
    },
    {
        "state": "EE",
        "name": "Nu00fcpli Ju00e4rv",
        "city": "Nu00fcpli",
        "prov": "Valgamaa",
        "region": "Otepu00e4u00e4 vald",
        "latt": "58.03444",
        "longt": "26.495",
        "address": "0250 Hendricks Coves Suite 576nScottberg, MA 94574"
    },
    {
        "state": "EE",
        "name": "Papsaare",
        "city": "Paernu",
        "prov": "Pu00e4rnumaa",
        "region": "Pu00e4rnu linn",
        "latt": "58.40472",
        "longt": "24.40694",
        "address": "6560 Shawn TrailnEast Sarah, NM 70970"
    },
    {
        "state": "EE",
        "name": "Kulna Peatus",
        "city": "Keila",
        "prov": "Harjumaa",
        "region": "Lu00e4u00e4ne-Harju vald",
        "latt": "59.28806",
        "longt": "24.35139",
        "address": "19942 Hunter SpursnNew Traceyville, GA 73181"
    },
    {
        "state": "EE",
        "name": "Puusta",
        "city": "Puusta",
        "prov": "Pu00f5lvamaa",
        "region": "Ru00e4pina vald",
        "latt": "58.07722",
        "longt": "27.3175",
        "address": "7396 Robert Keys Apt. 941nLake Alexanderside, IN 97697"
    },
    {
        "state": "EE",
        "name": "Vaela",
        "city": "Jueri",
        "prov": "Harjumaa",
        "region": "Kiili vald",
        "latt": "59.33659",
        "longt": "24.81318",
        "address": "368 Louis Summit Apt. 727nSouth Johnathanfurt, FL 63157"
    },
    {
        "state": "EE",
        "name": "Meemaste ku00fcla",
        "city": "Pu00f5lva",
        "prov": "Pu00f5lvamaa",
        "region": "Pu00f5lva vald",
        "latt": "58.01502",
        "longt": "27.06693",
        "address": "PSC 8704, Box 0403nAPO AE 90668"
    },
    {
        "state": "EE",
        "name": "Lapetukme",
        "city": "Lapetukme",
        "prov": "Tartu",
        "region": "Elva vald",
        "latt": "58.17583",
        "longt": "26.19056",
        "address": "PSC 9407, Box 8211nAPO AA 12078"
    },
    {
        "state": "EE",
        "name": "Kabina ku00fcla",
        "city": "Lohkva",
        "prov": "Tartu",
        "region": "Luunja vald",
        "latt": "58.3479",
        "longt": "26.83564",
        "address": "186 Abigail PinenSouth William, FL 24957"
    },
    {
        "state": "EE",
        "name": "Aruku00fcla",
        "city": "Arukuela",
        "prov": "Harjumaa",
        "region": "Raasiku vald",
        "latt": "59.36686",
        "longt": "25.07618",
        "address": "0818 Jean Divide Suite 244nEast Stevenfort, DE 93258"
    },
    {
        "state": "EE",
        "name": "Kabina ku00fcla",
        "city": "Lohkva",
        "prov": "Tartu",
        "region": "Luunja vald",
        "latt": "58.3479",
        "longt": "26.83564",
        "address": "36194 Bush Ford Apt. 141nDavidfurt, NV 70650"
    },
    {
        "state": "EE",
        "name": "Kabina ku00fcla",
        "city": "Lohkva",
        "prov": "Tartu",
        "region": "Luunja vald",
        "latt": "58.3479",
        "longt": "26.83564",
        "address": "305 Shields UnderpassnAmystad, AR 35054"
    },
    {
        "state": "EE",
        "name": "Valdimuru",
        "city": "Valdimuru",
        "prov": "Pu00e4rnumaa",
        "region": "Saarde vald",
        "latt": "58.26667",
        "longt": "24.78306",
        "address": "0663 Kyle ParkwaynKylefort, ID 71433"
    },
    {
        "state": "EE",
        "name": "Vanaku00fcla",
        "city": "Vanakuela",
        "prov": "Ida-Virumaa",
        "region": "Narva-Ju00f5esuu linn",
        "latt": "59.39194",
        "longt": "28.08944",
        "address": "2872 Jacobson Mission Suite 721nNew Michellemouth, KY 35477"
    },
    {
        "state": "EE",
        "name": "Iruste",
        "city": "Iruste",
        "prov": "Saare",
        "region": "Saaremaa vald",
        "latt": "58.51",
        "longt": "23.03444",
        "address": "8527 Rachel CampnNorth James, TN 05990"
    },
    {
        "state": "EE",
        "name": "Lapetukme",
        "city": "Lapetukme",
        "prov": "Tartu",
        "region": "Elva vald",
        "latt": "58.17583",
        "longt": "26.19056",
        "address": "PSC 2631, Box 7833nAPO AP 51457"
    },
    {
        "state": "EE",
        "name": "Papsaare",
        "city": "Paernu",
        "prov": "Pu00e4rnumaa",
        "region": "Pu00e4rnu linn",
        "latt": "58.40472",
        "longt": "24.40694",
        "address": "7876 Morgan Keys Suite 296nEast Miguelborough, AL 89784"
    },
    {
        "state": "EE",
        "name": "Lapetukme",
        "city": "Lapetukme",
        "prov": "Tartu",
        "region": "Elva vald",
        "latt": "58.17583",
        "longt": "26.19056",
        "address": "57193 Brett KeynHernandezville, NY 23783"
    },
    {
        "state": "EE",
        "name": "Aberoti",
        "city": "Johvi",
        "prov": "Ida-Virumaa",
        "region": "Ju00f5hvi vald",
        "latt": "59.32167",
        "longt": "27.36444",
        "address": "8600 Terrell Lane Apt. 469nJonathanstad, WV 24973"
    },
    {
        "state": "EE",
        "name": "Iruste",
        "city": "Iruste",
        "prov": "Saare",
        "region": "Saaremaa vald",
        "latt": "58.51",
        "longt": "23.03444",
        "address": "299 Phillips CrossingnSouth Linda, DC 13681"
    },
    {
        "state": "EE",
        "name": "Avanduse",
        "city": "Avanduse",
        "prov": "Lu00e4u00e4ne-Virumaa",
        "region": "Vu00e4ike-Maarja vald",
        "latt": "59.05306",
        "longt": "26.42083",
        "address": "912 Johnson HavennPort Jill, AZ 85644"
    },
    {
        "state": "EE",
        "name": "Tiitsa",
        "city": "Tiitsa",
        "prov": "Vu00f5rumaa",
        "region": "Ru00f5uge vald",
        "latt": "57.58167",
        "longt": "26.53333",
        "address": "432 Ray Ford Suite 223nEast Brianside, CA 08283"
    },
    {
        "state": "EE",
        "name": "Viidu",
        "city": "Viidu",
        "prov": "Saare",
        "region": "Saaremaa vald",
        "latt": "58.28167",
        "longt": "22.13889",
        "address": "5189 Bryan Spurs Suite 784nGlennburgh, VA 56099"
    },
    {
        "state": "EE",
        "name": "Lu00e4u00e4ne-Nigula vald",
        "city": "Taebla",
        "prov": "Lu00e4u00e4ne",
        "region": "Lu00e4u00e4ne-Nigula vald",
        "latt": "58.96045",
        "longt": "23.74489",
        "address": "8817 Sherry Corner Suite 588nLake Pamland, DE 52210"
    },
    {
        "state": "EE",
        "name": "Kuritse",
        "city": "Tagula",
        "prov": "Valgamaa",
        "region": "Valga vald",
        "latt": "57.86639",
        "longt": "26.34361",
        "address": "4243 Patrick Isle Suite 439nNorth Tamara, NE 84114"
    },
    {
        "state": "EE",
        "name": "Antsu ku00fcla",
        "city": "Vana-Antsla",
        "prov": "Vu00f5rumaa",
        "region": "Antsla vald",
        "latt": "57.86041",
        "longt": "26.46232",
        "address": "7072 Gonzalez Mews Apt. 102nNew Scott, FL 30982"
    },
    {
        "state": "EE",
        "name": "Ange",
        "city": "Sindi",
        "prov": "Pu00e4rnumaa",
        "region": "Pu00e4rnu linn",
        "latt": "58.335",
        "longt": "24.70028",
        "address": "2855 Kimberly RoadsnNorth Juan, MI 23806"
    },
    {
        "state": "EE",
        "name": "Kulna Peatus",
        "city": "Keila",
        "prov": "Harjumaa",
        "region": "Lu00e4u00e4ne-Harju vald",
        "latt": "59.28806",
        "longt": "24.35139",
        "address": "02764 Thompson Isle Apt. 993nJohnport, GA 55609"
    },
    {
        "state": "EE",
        "name": "Kuritse",
        "city": "Tagula",
        "prov": "Valgamaa",
        "region": "Valga vald",
        "latt": "57.86639",
        "longt": "26.34361",
        "address": "150 Angela RuenSouth Christopherberg, KY 12758"
    },
    {
        "state": "EE",
        "name": "Antsu ku00fcla",
        "city": "Vana-Antsla",
        "prov": "Vu00f5rumaa",
        "region": "Antsla vald",
        "latt": "57.86041",
        "longt": "26.46232",
        "address": "901 Christopher WalksnCastillofort, TX 06571"
    },
    {
        "state": "EE",
        "name": "Viidu",
        "city": "Viidu",
        "prov": "Saare",
        "region": "Saaremaa vald",
        "latt": "58.28167",
        "longt": "22.13889",
        "address": "24021 White FortnBowmantown, NJ 61481"
    },
    {
        "state": "EE",
        "name": "Vaela",
        "city": "Jueri",
        "prov": "Harjumaa",
        "region": "Kiili vald",
        "latt": "59.33659",
        "longt": "24.81318",
        "address": "721 Brown Orchard Apt. 157nKevinville, IA 36489"
    },
    {
        "state": "EE",
        "name": "Teteru00fcvu00e4 ku00fcla",
        "city": "Teterova",
        "prov": "Vu00f5rumaa",
        "region": "Setomaa vald",
        "latt": "57.72791",
        "longt": "27.43805",
        "address": "911 Moore CrossroadnLake Sethborough, KS 73382"
    },
    {
        "state": "EE",
        "name": "Viidu",
        "city": "Viidu",
        "prov": "Saare",
        "region": "Saaremaa vald",
        "latt": "58.28167",
        "longt": "22.13889",
        "address": "USCGC AnthonynFPO AP 84779"
    },
    {
        "state": "EE",
        "name": "Martna vald",
        "city": "Niinja",
        "prov": "Lu00e4u00e4ne",
        "region": "Lu00e4u00e4ne-Nigula vald",
        "latt": "58.84337",
        "longt": "23.8777",
        "address": "465 Gwendolyn RoadsnCarlaside, RI 99893"
    },
    {
        "state": "EE",
        "name": "Vanaku00fcla",
        "city": "Vanakuela",
        "prov": "Ida-Virumaa",
        "region": "Narva-Ju00f5esuu linn",
        "latt": "59.39194",
        "longt": "28.08944",
        "address": "15052 Aaron GlennRodriguezchester, NH 17391"
    },
    {
        "state": "EE",
        "name": "Kopa",
        "city": "Kopa",
        "prov": "Hiiumaa",
        "region": "Hiiumaa vald",
        "latt": "58.92044",
        "longt": "22.40493",
        "address": "77890 Terrell OrchardnNew Angelica, KY 62958"
    },
    {
        "state": "EE",
        "name": "Kerkomu00f5isa",
        "city": "Raepina",
        "prov": "Pu00f5lvamaa",
        "region": "Ru00e4pina vald",
        "latt": "58.10222",
        "longt": "27.45028",
        "address": "USNS JohnsonnFPO AA 45841"
    },
    {
        "state": "EE",
        "name": "Mu00e4tja",
        "city": "Maetja",
        "prov": "Saare",
        "region": "Saaremaa vald",
        "latt": "58.52028",
        "longt": "22.76583",
        "address": "231 Ashley JunctionnHouseview, UT 38938"
    },
    {
        "state": "EE",
        "name": "Nurga ku00fcla",
        "city": "Uinvilja",
        "prov": "Ju00f5gevamaa",
        "region": "Pu00f5ltsamaa vald",
        "latt": "58.74868",
        "longt": "26.04795",
        "address": "8925 Wagner Extension Apt. 830nNorth Adambury, KY 92295"
    },
    {
        "state": "EE",
        "name": "Vanaku00fcla",
        "city": "Vanakuela",
        "prov": "Ida-Virumaa",
        "region": "Narva-Ju00f5esuu linn",
        "latt": "59.39194",
        "longt": "28.08944",
        "address": "USCGC HansennFPO AP 26295"
    },
    {
        "state": "EE",
        "name": "Kabina ku00fcla",
        "city": "Lohkva",
        "prov": "Tartu",
        "region": "Luunja vald",
        "latt": "58.3479",
        "longt": "26.83564",
        "address": "02919 George Estates Suite 101nKristaland, AK 14648"
    },
    {
        "state": "EE",
        "name": "Naistevyalu2019ya",
        "city": "Tamsalu",
        "prov": "Lu00e4u00e4ne-Virumaa",
        "region": "Tapa vald",
        "latt": "59.195833",
        "longt": "26.156667",
        "address": "778 Lauren Summit Apt. 129nSouth Williamfurt, SD 83186"
    },
    {
        "state": "EE",
        "name": "Kodavere",
        "city": "Kallaste",
        "prov": "Tartu",
        "region": "Peipsiu00e4u00e4re vald",
        "latt": "58.68694",
        "longt": "27.14306",
        "address": "859 Teresa JunctionsnNorth Johnland, VT 01775"
    },
    {
        "state": "EE",
        "name": "u00dcu00fcdibe ku00fcla",
        "city": "Salme",
        "prov": "Saare",
        "region": "Saaremaa vald",
        "latt": "58.15445",
        "longt": "22.22849",
        "address": "0371 Poole CrossingnFranklinport, SD 23478"
    },
    {
        "state": "EE",
        "name": "Valdimuru",
        "city": "Valdimuru",
        "prov": "Pu00e4rnumaa",
        "region": "Saarde vald",
        "latt": "58.26667",
        "longt": "24.78306",
        "address": "PSC 6505, Box 7928nAPO AP 26049"
    },
    {
        "state": "EE",
        "name": "Annerank",
        "city": "Matsi",
        "prov": "Pu00e4rnumaa",
        "region": "Lu00e4u00e4neranna vald",
        "latt": "58.36752",
        "longt": "23.72841",
        "address": "616 Hoffman Path Suite 843nEast Allison, AZ 79549"
    },
    {
        "state": "EE",
        "name": "Tantsumu00e4e",
        "city": "Torva",
        "prov": "Valgamaa",
        "region": "Tu00f5rva vald",
        "latt": "57.99028",
        "longt": "25.91194",
        "address": "PSC 5812, Box 4411nAPO AP 34457"
    },
    {
        "state": "EE",
        "name": "Tyursamyae-rand",
        "city": "Sillamaee",
        "prov": "Ida-Virumaa",
        "region": "Sillamu00e4e linn",
        "latt": "59.4",
        "longt": "27.75",
        "address": "214 Johnson Avenue Apt. 660nMartintown, AK 13080"
    },
    {
        "state": "EE",
        "name": "Lapetukme",
        "city": "Lapetukme",
        "prov": "Tartu",
        "region": "Elva vald",
        "latt": "58.17583",
        "longt": "26.19056",
        "address": "59532 Kelly Centers Apt. 681nStephenschester, AL 55192"
    },
    {
        "state": "EE",
        "name": "Ehala",
        "city": "Ehala",
        "prov": "Pu00e4rnumaa",
        "region": "Lu00e4u00e4neranna vald",
        "latt": "58.53333",
        "longt": "23.81667",
        "address": "90617 Mark Springs Apt. 195nNew Amy, OR 88898"
    },
    {
        "state": "EE",
        "name": "Meemaste ku00fcla",
        "city": "Pu00f5lva",
        "prov": "Pu00f5lvamaa",
        "region": "Pu00f5lva vald",
        "latt": "58.01502",
        "longt": "27.06693",
        "address": "35044 Griffin HighwaynSouth Mary, CT 26323"
    },
    {
        "state": "EE",
        "name": "Riuku00fcla",
        "city": "Karksi-Nuia",
        "prov": "Viljandimaa",
        "region": "Mulgi vald",
        "latt": "58.10222",
        "longt": "25.51139",
        "address": "PSC 0601, Box 8124nAPO AE 61684"
    },
    {
        "state": "EE",
        "name": "Iruste",
        "city": "Iruste",
        "prov": "Saare",
        "region": "Saaremaa vald",
        "latt": "58.51",
        "longt": "23.03444",
        "address": "4866 Robert SpringnCastilloport, VT 16821"
    },
    {
        "state": "EE",
        "name": "Kaomu00e4e",
        "city": "Kaomaee",
        "prov": "Raplamaa",
        "region": "Rapla vald",
        "latt": "59.07722",
        "longt": "25.11667",
        "address": "4533 Moore Crescent Suite 937nNew Garyview, IN 48854"
    },
    {
        "state": "EE",
        "name": "Papsaare",
        "city": "Paernu",
        "prov": "Pu00e4rnumaa",
        "region": "Pu00e4rnu linn",
        "latt": "58.40472",
        "longt": "24.40694",
        "address": "404 Lynch Spurs Apt. 082nNorth Jesse, MA 55895"
    },
    {
        "state": "EE",
        "name": "Tapupere ku00fcla",
        "city": "Alu",
        "prov": "Raplamaa",
        "region": "Rapla vald",
        "latt": "59.02226",
        "longt": "24.68994",
        "address": "9728 Mckay Grove Suite 290nPort Hannahfort, MA 32489"
    },
    {
        "state": "EE",
        "name": "Teteru00fcvu00e4 ku00fcla",
        "city": "Teterova",
        "prov": "Vu00f5rumaa",
        "region": "Setomaa vald",
        "latt": "57.72791",
        "longt": "27.43805",
        "address": "686 Lisa MountainnGallagherton, TN 92966"
    },
    {
        "state": "EE",
        "name": "Aberoti",
        "city": "Johvi",
        "prov": "Ida-Virumaa",
        "region": "Ju00f5hvi vald",
        "latt": "59.32167",
        "longt": "27.36444",
        "address": "10268 Jennifer LocksnCurtisborough, CA 03263"
    },
    {
        "state": "EE",
        "name": "Salaku00fcla",
        "city": "Kivioli",
        "prov": "Ida-Virumaa",
        "region": "Lu00fcganuse vald",
        "latt": "59.34194",
        "longt": "26.92083",
        "address": "826 James LanenLynchmouth, CT 12097"
    },
    {
        "state": "EE",
        "name": "Martna vald",
        "city": "Niinja",
        "prov": "Lu00e4u00e4ne",
        "region": "Lu00e4u00e4ne-Nigula vald",
        "latt": "58.84337",
        "longt": "23.8777",
        "address": "306 Thomas Spurs Apt. 844nPort Christopher, GA 59101"
    },
    {
        "state": "EE",
        "name": "Kabina ku00fcla",
        "city": "Lohkva",
        "prov": "Tartu",
        "region": "Luunja vald",
        "latt": "58.3479",
        "longt": "26.83564",
        "address": "11618 Elliott Via Suite 001nLake Mitchellmouth, AK 43737"
    },
    {
        "state": "EE",
        "name": "Sikana ku00fcla",
        "city": "Soone",
        "prov": "Pu00e4rnumaa",
        "region": "Pu00f5hja-Pu00e4rnumaa vald",
        "latt": "58.57184",
        "longt": "24.90701",
        "address": "680 Howard IslandsnDennisville, WV 47700"
    },
    {
        "state": "EE",
        "name": "Sikana ku00fcla",
        "city": "Soone",
        "prov": "Pu00e4rnumaa",
        "region": "Pu00f5hja-Pu00e4rnumaa vald",
        "latt": "58.57184",
        "longt": "24.90701",
        "address": "4511 Murphy Turnpike Apt. 672nWest Briannamouth, IN 83420"
    },
    {
        "state": "EE",
        "name": "Vaela",
        "city": "Jueri",
        "prov": "Harjumaa",
        "region": "Kiili vald",
        "latt": "59.33659",
        "longt": "24.81318",
        "address": "2678 Tony ViewnGabrielberg, OH 72058"
    },
    {
        "state": "EE",
        "name": "Lu00e4u00e4ne-Nigula vald",
        "city": "Taebla",
        "prov": "Lu00e4u00e4ne",
        "region": "Lu00e4u00e4ne-Nigula vald",
        "latt": "58.96045",
        "longt": "23.74489",
        "address": "26899 Martha Neck Suite 879nEast Cody, NH 96442"
    },
    {
        "state": "EE",
        "name": "Sikana ku00fcla",
        "city": "Soone",
        "prov": "Pu00e4rnumaa",
        "region": "Pu00f5hja-Pu00e4rnumaa vald",
        "latt": "58.57184",
        "longt": "24.90701",
        "address": "91613 Evans GardennNew Jonathan, AL 56563"
    },
    {
        "state": "EE",
        "name": "Viidu",
        "city": "Viidu",
        "prov": "Saare",
        "region": "Saaremaa vald",
        "latt": "58.28167",
        "longt": "22.13889",
        "address": "6059 Wesley SummitnMurphyton, TN 20799"
    },
    {
        "state": "EE",
        "name": "Teelahkme-Luige",
        "city": "Teelahkme-Luige",
        "prov": "Ju00f5gevamaa",
        "region": "Mustvee vald",
        "latt": "58.85139",
        "longt": "26.84972",
        "address": "173 Kelly Run Apt. 993nEast Crystal, HI 86324"
    },
    {
        "state": "EE",
        "name": "Iruste",
        "city": "Iruste",
        "prov": "Saare",
        "region": "Saaremaa vald",
        "latt": "58.51",
        "longt": "23.03444",
        "address": "727 Rita NecknHillchester, VT 23822"
    },
    {
        "state": "EE",
        "name": "Kerkomu00f5isa",
        "city": "Raepina",
        "prov": "Pu00f5lvamaa",
        "region": "Ru00e4pina vald",
        "latt": "58.10222",
        "longt": "27.45028",
        "address": "5649 Monique LakenWest Scotttown, GA 24417"
    },
    {
        "state": "EE",
        "name": "Kruusimu00e4e",
        "city": "Kadrina",
        "prov": "Lu00e4u00e4ne-Virumaa",
        "region": "Kadrina vald",
        "latt": "59.34917",
        "longt": "26.14889",
        "address": "5920 Mills Extensions Suite 264nPort Richardland, SD 52219"
    },
    {
        "state": "EE",
        "name": "Aberoti",
        "city": "Johvi",
        "prov": "Ida-Virumaa",
        "region": "Ju00f5hvi vald",
        "latt": "59.32167",
        "longt": "27.36444",
        "address": "2088 Jennifer Vista Apt. 471nJohnburgh, IL 77617"
    },
    {
        "state": "EE",
        "name": "Riuku00fcla",
        "city": "Karksi-Nuia",
        "prov": "Viljandimaa",
        "region": "Mulgi vald",
        "latt": "58.10222",
        "longt": "25.51139",
        "address": "184 Megan Center Apt. 008nLake Shari, HI 17510"
    },
    {
        "state": "EE",
        "name": "Kesklahe",
        "city": "Kesklahe",
        "prov": "Tartu",
        "region": "Peipsiu00e4u00e4re vald",
        "latt": "58.57917",
        "longt": "27.18611",
        "address": "86469 Campbell ParknSmithland, AR 79221"
    },
    {
        "state": "EE",
        "name": "Turuku00fcla",
        "city": "Turu",
        "prov": "Pu00e4rnumaa",
        "region": "Kihnu vald",
        "latt": "58.118889",
        "longt": "23.987778",
        "address": "7936 Moore MeadowsnRuthburgh, ME 29925"
    },
    {
        "state": "EE",
        "name": "Nu00fcpli Ju00e4rv",
        "city": "Nu00fcpli",
        "prov": "Valgamaa",
        "region": "Otepu00e4u00e4 vald",
        "latt": "58.03444",
        "longt": "26.495",
        "address": "56054 Davis HillnPattersonstad, RI 06011"
    },
    {
        "state": "EE",
        "name": "Vaela",
        "city": "Jueri",
        "prov": "Harjumaa",
        "region": "Kiili vald",
        "latt": "59.33659",
        "longt": "24.81318",
        "address": "51999 Monique GreensnSouth Jeffreyland, TN 54330"
    },
    {
        "state": "EE",
        "name": "Aasu",
        "city": "Rakvere",
        "prov": "Lu00e4u00e4ne-Virumaa",
        "region": "Haljala vald",
        "latt": "59.40917",
        "longt": "26.33167",
        "address": "USS HubernFPO AP 55921"
    },
    {
        "state": "EE",
        "name": "Kohtru ku00fcla",
        "city": "Nu00f5lva",
        "prov": "Raplamaa",
        "region": "Mu00e4rjamaa vald",
        "latt": "58.76104",
        "longt": "24.66401",
        "address": "06649 Carrillo DalenEast Anna, MA 16074"
    },
    {
        "state": "EE",
        "name": "Martna vald",
        "city": "Niinja",
        "prov": "Lu00e4u00e4ne",
        "region": "Lu00e4u00e4ne-Nigula vald",
        "latt": "58.84337",
        "longt": "23.8777",
        "address": "9022 Lisa Mews Apt. 585nNew Brenda, NH 96680"
    },
    {
        "state": "EE",
        "name": "Rummu",
        "city": "Rummu",
        "prov": "Harjumaa",
        "region": "Viimsi vald",
        "latt": "59.53528",
        "longt": "24.79972",
        "address": "0938 Richard Flats Suite 065nEast Johnstad, OR 54290"
    },
    {
        "state": "EE",
        "name": "Avanduse",
        "city": "Avanduse",
        "prov": "Lu00e4u00e4ne-Virumaa",
        "region": "Vu00e4ike-Maarja vald",
        "latt": "59.05306",
        "longt": "26.42083",
        "address": "564 Jackie CrescentnNorth Henrychester, AK 43692"
    },
    {
        "state": "EE",
        "name": "Sikana ku00fcla",
        "city": "Soone",
        "prov": "Pu00e4rnumaa",
        "region": "Pu00f5hja-Pu00e4rnumaa vald",
        "latt": "58.57184",
        "longt": "24.90701",
        "address": "6116 Denise MissionnSouth James, ME 15109"
    },
    {
        "state": "EE",
        "name": "Ju00f5emu00e4e Oja",
        "city": "Iisaku",
        "prov": "Ida-Virumaa",
        "region": "Alutaguse vald",
        "latt": "59.0575",
        "longt": "27.37444",
        "address": "1868 Michael FlatsnLake Theresa, NM 25702"
    },
    {
        "state": "EE",
        "name": "Avanduse",
        "city": "Avanduse",
        "prov": "Lu00e4u00e4ne-Virumaa",
        "region": "Vu00e4ike-Maarja vald",
        "latt": "59.05306",
        "longt": "26.42083",
        "address": "6470 Elliott CreeknEast Gerald, TX 66834"
    },
    {
        "state": "EE",
        "name": "Kulna Peatus",
        "city": "Keila",
        "prov": "Harjumaa",
        "region": "Lu00e4u00e4ne-Harju vald",
        "latt": "59.28806",
        "longt": "24.35139",
        "address": "42919 Brown PathnWest Michael, NE 30387"
    },
    {
        "state": "EE",
        "name": "Lu00e4u00e4ne-Nigula vald",
        "city": "Taebla",
        "prov": "Lu00e4u00e4ne",
        "region": "Lu00e4u00e4ne-Nigula vald",
        "latt": "58.96045",
        "longt": "23.74489",
        "address": "97390 Maddox VillagesnFrenchfurt, AZ 12580"
    },
    {
        "state": "EE",
        "name": "Laane",
        "city": "Laane",
        "prov": "Viljandimaa",
        "region": "Pu00f5hja-Sakala vald",
        "latt": "58.35583",
        "longt": "25.27722",
        "address": "PSC 2750, Box 7560nAPO AP 17257"
    },
    {
        "state": "EE",
        "name": "Kruusimu00e4e",
        "city": "Kadrina",
        "prov": "Lu00e4u00e4ne-Virumaa",
        "region": "Kadrina vald",
        "latt": "59.34917",
        "longt": "26.14889",
        "address": "237 Anna Roads Suite 093nSouth Dianestad, SC 92096"
    },
    {
        "state": "EE",
        "name": "Annerank",
        "city": "Matsi",
        "prov": "Pu00e4rnumaa",
        "region": "Lu00e4u00e4neranna vald",
        "latt": "58.36752",
        "longt": "23.72841",
        "address": "339 Mclean SkywaynBrianstad, MA 42989"
    },
    {
        "state": "EE",
        "name": "Meemaste ku00fcla",
        "city": "Pu00f5lva",
        "prov": "Pu00f5lvamaa",
        "region": "Pu00f5lva vald",
        "latt": "58.01502",
        "longt": "27.06693",
        "address": "04158 Samuel Walks Suite 082nLawsonport, MT 78811"
    },
    {
        "state": "EE",
        "name": "Kerkomu00f5isa",
        "city": "Raepina",
        "prov": "Pu00f5lvamaa",
        "region": "Ru00e4pina vald",
        "latt": "58.10222",
        "longt": "27.45028",
        "address": "62858 Cruz FerrynKarenfurt, AK 52904"
    },
    {
        "state": "EE",
        "name": "Riuku00fcla",
        "city": "Karksi-Nuia",
        "prov": "Viljandimaa",
        "region": "Mulgi vald",
        "latt": "58.10222",
        "longt": "25.51139",
        "address": "579 Alan Port Apt. 968nPort Christopher, PA 73436"
    },
    {
        "state": "EE",
        "name": "Aberoti",
        "city": "Johvi",
        "prov": "Ida-Virumaa",
        "region": "Ju00f5hvi vald",
        "latt": "59.32167",
        "longt": "27.36444",
        "address": "4049 Wagner RoadsnPort Courtney, WV 83581"
    },
    {
        "state": "EE",
        "name": "Mu00e4tja",
        "city": "Maetja",
        "prov": "Saare",
        "region": "Saaremaa vald",
        "latt": "58.52028",
        "longt": "22.76583",
        "address": "75941 Blake Viaduct Suite 246nWest Daisy, NE 40507"
    },
    {
        "state": "EE",
        "name": "Kulna Peatus",
        "city": "Keila",
        "prov": "Harjumaa",
        "region": "Lu00e4u00e4ne-Harju vald",
        "latt": "59.28806",
        "longt": "24.35139",
        "address": "2255 Melissa Grove Suite 387nWilliamston, MN 45185"
    },
    {
        "state": "EE",
        "name": "Peraku00fcla",
        "city": "Perakuela",
        "prov": "Lu00e4u00e4ne",
        "region": "Lu00e4u00e4ne-Nigula vald",
        "latt": "59.20194",
        "longt": "23.62833",
        "address": "859 Ashley HavennKendratown, VT 94928"
    },
    {
        "state": "EE",
        "name": "Anijala",
        "city": "Anijala",
        "prov": "Saare",
        "region": "Saaremaa vald",
        "latt": "58.32667",
        "longt": "22.38778",
        "address": "USCGC WrightnFPO AA 41863"
    },
    {
        "state": "EE",
        "name": "Tiitsa",
        "city": "Tiitsa",
        "prov": "Vu00f5rumaa",
        "region": "Ru00f5uge vald",
        "latt": "57.58167",
        "longt": "26.53333",
        "address": "26540 Charles WaysnEast Vanessa, DC 47387"
    },
    {
        "state": "EE",
        "name": "Vanaku00fcla",
        "city": "Vanakuela",
        "prov": "Ida-Virumaa",
        "region": "Narva-Ju00f5esuu linn",
        "latt": "59.39194",
        "longt": "28.08944",
        "address": "80726 Greene Groves Suite 478nNew Emma, OR 60833"
    },
    {
        "state": "EE",
        "name": "Karuste ku00fcla",
        "city": "Karuste",
        "prov": "Saare",
        "region": "Saaremaa vald",
        "latt": "57.94267",
        "longt": "22.02208",
        "address": "76708 Nicholas Camp Apt. 827nGarrettview, MA 07102"
    },
    {
        "state": "EE",
        "name": "Nurga ku00fcla",
        "city": "Uinvilja",
        "prov": "Ju00f5gevamaa",
        "region": "Pu00f5ltsamaa vald",
        "latt": "58.74868",
        "longt": "26.04795",
        "address": "0562 Williams CirclenJasonbury, MT 21858"
    },
    {
        "state": "EE",
        "name": "Ku00e4ina",
        "city": "Kaeina",
        "prov": "Hiiumaa",
        "region": "Hiiumaa vald",
        "latt": "58.82848",
        "longt": "22.77711",
        "address": "84930 Rebecca CovesnJohnnychester, HI 16985"
    },
    {
        "state": "EE",
        "name": "Vaela",
        "city": "Jueri",
        "prov": "Harjumaa",
        "region": "Kiili vald",
        "latt": "59.33659",
        "longt": "24.81318",
        "address": "580 Paula PortsnWest Kristopherchester, NC 74939"
    },
    {
        "state": "EE",
        "name": "Lapetukme",
        "city": "Lapetukme",
        "prov": "Tartu",
        "region": "Elva vald",
        "latt": "58.17583",
        "longt": "26.19056",
        "address": "2898 Martinez Common Apt. 080nLake Paul, NM 53448"
    },
    {
        "state": "EE",
        "name": "Martna vald",
        "city": "Niinja",
        "prov": "Lu00e4u00e4ne",
        "region": "Lu00e4u00e4ne-Nigula vald",
        "latt": "58.84337",
        "longt": "23.8777",
        "address": "79258 April Prairie Suite 897nGreenburgh, MD 69587"
    },
    {
        "state": "EE",
        "name": "Kohtru ku00fcla",
        "city": "Nu00f5lva",
        "prov": "Raplamaa",
        "region": "Mu00e4rjamaa vald",
        "latt": "58.76104",
        "longt": "24.66401",
        "address": "2554 Jessica LightnMarkstad, ID 40283"
    },
    {
        "state": "EE",
        "name": "Peraku00fcla",
        "city": "Perakuela",
        "prov": "Lu00e4u00e4ne",
        "region": "Lu00e4u00e4ne-Nigula vald",
        "latt": "59.20194",
        "longt": "23.62833",
        "address": "91512 Powell RanchnRobertbury, AK 02076"
    },
    {
        "state": "EE",
        "name": "Tapupere ku00fcla",
        "city": "Alu",
        "prov": "Raplamaa",
        "region": "Rapla vald",
        "latt": "59.02226",
        "longt": "24.68994",
        "address": "135 Veronica Green Apt. 354nNorth Robertton, KY 16149"
    },
    {
        "state": "EE",
        "name": "Ku00e4rdla",
        "city": "Kaerdla",
        "prov": "Hiiumaa",
        "region": "Hiiumaa vald",
        "latt": "58.99778",
        "longt": "22.74917",
        "address": "677 Russell Creek Suite 631nLake Meredithview, WA 30454"
    },
    {
        "state": "EE",
        "name": "Tiitsa",
        "city": "Tiitsa",
        "prov": "Vu00f5rumaa",
        "region": "Ru00f5uge vald",
        "latt": "57.58167",
        "longt": "26.53333",
        "address": "61460 Hahn Oval Suite 593nNorth Bill, NC 25469"
    },
    {
        "state": "EE",
        "name": "Kerkomu00f5isa",
        "city": "Raepina",
        "prov": "Pu00f5lvamaa",
        "region": "Ru00e4pina vald",
        "latt": "58.10222",
        "longt": "27.45028",
        "address": "526 Kevin TrafficwaynChangside, DE 05184"
    },
    {
        "state": "EE",
        "name": "Lapetukme",
        "city": "Lapetukme",
        "prov": "Tartu",
        "region": "Elva vald",
        "latt": "58.17583",
        "longt": "26.19056",
        "address": "554 Morris FordsnRichardshire, KS 43205"
    },
    {
        "state": "EE",
        "name": "Meemaste ku00fcla",
        "city": "Pu00f5lva",
        "prov": "Pu00f5lvamaa",
        "region": "Pu00f5lva vald",
        "latt": "58.01502",
        "longt": "27.06693",
        "address": "5752 Armstrong LandingnWest Nicholas, NM 97935"
    },
    {
        "state": "EE",
        "name": "Teteru00fcvu00e4 ku00fcla",
        "city": "Teterova",
        "prov": "Vu00f5rumaa",
        "region": "Setomaa vald",
        "latt": "57.72791",
        "longt": "27.43805",
        "address": "102 Tran ForknGreentown, SC 06820"
    },
    {
        "state": "EE",
        "name": "Mu00e4tja",
        "city": "Maetja",
        "prov": "Saare",
        "region": "Saaremaa vald",
        "latt": "58.52028",
        "longt": "22.76583",
        "address": "27303 Singh Course Suite 131nBrowningstad, NE 66342"
    },
    {
        "state": "EE",
        "name": "Avanduse",
        "city": "Avanduse",
        "prov": "Lu00e4u00e4ne-Virumaa",
        "region": "Vu00e4ike-Maarja vald",
        "latt": "59.05306",
        "longt": "26.42083",
        "address": "4316 Frank Flats Suite 350nAlexanderfort, IN 21204"
    },
    {
        "state": "EE",
        "name": "Ange",
        "city": "Sindi",
        "prov": "Pu00e4rnumaa",
        "region": "Pu00e4rnu linn",
        "latt": "58.335",
        "longt": "24.70028",
        "address": "806 Marsh Station Apt. 670nReyesland, AL 84702"
    },
    {
        "state": "EE",
        "name": "Ku00e4rdla",
        "city": "Kaerdla",
        "prov": "Hiiumaa",
        "region": "Hiiumaa vald",
        "latt": "58.99778",
        "longt": "22.74917",
        "address": "40497 Hernandez Oval Apt. 044nSimonburgh, LA 33628"
    },
    {
        "state": "EE",
        "name": "Mu00e4o ku00fcla",
        "city": "Paide",
        "prov": "Ju00e4rvamaa",
        "region": "Paide linn",
        "latt": "58.9106",
        "longt": "25.63456",
        "address": "50853 Fritz ManorsnEast Tyler, KY 24826"
    },
    {
        "state": "EE",
        "name": "Vaela",
        "city": "Jueri",
        "prov": "Harjumaa",
        "region": "Kiili vald",
        "latt": "59.33659",
        "longt": "24.81318",
        "address": "013 Suarez ForgesnWilsonberg, CT 99948"
    },
    {
        "state": "EE",
        "name": "Meemaste ku00fcla",
        "city": "Pu00f5lva",
        "prov": "Pu00f5lvamaa",
        "region": "Pu00f5lva vald",
        "latt": "58.01502",
        "longt": "27.06693",
        "address": "9322 Linda Overpass Apt. 406nEast Michellestad, MT 93695"
    },
    {
        "state": "EE",
        "name": "Avanduse",
        "city": "Avanduse",
        "prov": "Lu00e4u00e4ne-Virumaa",
        "region": "Vu00e4ike-Maarja vald",
        "latt": "59.05306",
        "longt": "26.42083",
        "address": "USNS LivingstonnFPO AP 24041"
    },
    {
        "state": "EE",
        "name": "Kruusimu00e4e",
        "city": "Kadrina",
        "prov": "Lu00e4u00e4ne-Virumaa",
        "region": "Kadrina vald",
        "latt": "59.34917",
        "longt": "26.14889",
        "address": "6277 Richard MewsnKellyborough, TX 61317"
    },
    {
        "state": "EE",
        "name": "Harku alevik",
        "city": "Laagri",
        "prov": "Harjumaa",
        "region": "Harku vald",
        "latt": "59.38091",
        "longt": "24.5968",
        "address": "419 Brandy Heights Apt. 359nPort Kevin, MT 49073"
    },
    {
        "state": "EE",
        "name": "Kesklahe",
        "city": "Kesklahe",
        "prov": "Tartu",
        "region": "Peipsiu00e4u00e4re vald",
        "latt": "58.57917",
        "longt": "27.18611",
        "address": "08244 Jessica CliffsnNorth Juliebury, MT 68674"
    },
    {
        "state": "EE",
        "name": "Koljuots",
        "city": "u00dclgase Pank",
        "prov": "Harjumaa",
        "region": "Ju00f5elu00e4htme vald",
        "latt": "59.505537",
        "longt": "25.089452",
        "address": "761 Travis Islands Apt. 229nLake Carly, CA 65252"
    },
    {
        "state": "EE",
        "name": "Naistevyalu2019ya",
        "city": "Tamsalu",
        "prov": "Lu00e4u00e4ne-Virumaa",
        "region": "Tapa vald",
        "latt": "59.195833",
        "longt": "26.156667",
        "address": "7407 Frank Mount Apt. 967nNew Ashley, DC 41378"
    },
    {
        "state": "EE",
        "name": "Muruku00fcla",
        "city": "Muru",
        "prov": "Lu00e4u00e4ne-Virumaa",
        "region": "Rakvere vald",
        "latt": "59.381389",
        "longt": "26.545833",
        "address": "6574 Solomon View Apt. 060nJosephtown, CO 31634"
    },
    {
        "state": "EE",
        "name": "Vagula Ju00e4rv",
        "city": "Ju00e4rvere",
        "prov": "Vu00f5rumaa",
        "region": "Vu00f5ru vald",
        "latt": "57.84806",
        "longt": "26.9075",
        "address": "544 Carrillo Heights Suite 935nRodriguezside, AR 31033"
    },
    {
        "state": "EE",
        "name": "Meemaste ku00fcla",
        "city": "Pu00f5lva",
        "prov": "Pu00f5lvamaa",
        "region": "Pu00f5lva vald",
        "latt": "58.01502",
        "longt": "27.06693",
        "address": "4367 Jacob OvalnEast Gabrielmouth, CA 00948"
    },
    {
        "state": "EE",
        "name": "Ronivere",
        "city": "Ronivere",
        "prov": "Ju00f5gevamaa",
        "region": "Ju00f5geva vald",
        "latt": "58.72611",
        "longt": "26.65639",
        "address": "3288 Brooks PlazanMelissaview, AK 50374"
    },
    {
        "state": "EE",
        "name": "Avanduse",
        "city": "Avanduse",
        "prov": "Lu00e4u00e4ne-Virumaa",
        "region": "Vu00e4ike-Maarja vald",
        "latt": "59.05306",
        "longt": "26.42083",
        "address": "6990 Atkinson MountnNew Christopherfort, IN 75434"
    },
    {
        "state": "EE",
        "name": "Tantsumu00e4e",
        "city": "Torva",
        "prov": "Valgamaa",
        "region": "Tu00f5rva vald",
        "latt": "57.99028",
        "longt": "25.91194",
        "address": "290 Mark Streets Apt. 144nLake Maryton, TX 95423"
    },
    {
        "state": "EE",
        "name": "Koorla",
        "city": "Koorla",
        "prov": "Vu00f5rumaa",
        "region": "Setomaa vald",
        "latt": "57.64833",
        "longt": "27.37556",
        "address": "59346 Alicia VillagesnGarymouth, MS 51229"
    },
    {
        "state": "EE",
        "name": "Vagula Ju00e4rv",
        "city": "Ju00e4rvere",
        "prov": "Vu00f5rumaa",
        "region": "Vu00f5ru vald",
        "latt": "57.84806",
        "longt": "26.9075",
        "address": "01043 Martinez Terrace Suite 619nEast Heatherstad, AK 00933"
    },
    {
        "state": "EE",
        "name": "Puusta",
        "city": "Puusta",
        "prov": "Pu00f5lvamaa",
        "region": "Ru00e4pina vald",
        "latt": "58.07722",
        "longt": "27.3175",
        "address": "5378 Hughes FieldsnSouth Jodiborough, WY 37830"
    },
    {
        "state": "EE",
        "name": "Aruku00fcla",
        "city": "Arukuela",
        "prov": "Harjumaa",
        "region": "Raasiku vald",
        "latt": "59.36686",
        "longt": "25.07618",
        "address": "7347 Daniel GreensnMilesside, ME 48870"
    },
    {
        "state": "EE",
        "name": "Antsu ku00fcla",
        "city": "Vana-Antsla",
        "prov": "Vu00f5rumaa",
        "region": "Antsla vald",
        "latt": "57.86041",
        "longt": "26.46232",
        "address": "Unit 5981 Box 1734nDPO AE 40653"
    },
    {
        "state": "EE",
        "name": "Kruusimu00e4e",
        "city": "Kadrina",
        "prov": "Lu00e4u00e4ne-Virumaa",
        "region": "Kadrina vald",
        "latt": "59.34917",
        "longt": "26.14889",
        "address": "919 Ortega CrossingnEast Kirkville, NE 18330"
    },
    {
        "state": "EE",
        "name": "Kabina ku00fcla",
        "city": "Lohkva",
        "prov": "Tartu",
        "region": "Luunja vald",
        "latt": "58.3479",
        "longt": "26.83564",
        "address": "511 Wilson Fort Suite 060nLake Elizabeth, NJ 85195"
    },
    {
        "state": "EE",
        "name": "Ku00e4ina",
        "city": "Kaeina",
        "prov": "Hiiumaa",
        "region": "Hiiumaa vald",
        "latt": "58.82848",
        "longt": "22.77711",
        "address": "089 John EstatenWest Mary, CO 54106"
    },
    {
        "state": "EE",
        "name": "Tapupere ku00fcla",
        "city": "Alu",
        "prov": "Raplamaa",
        "region": "Rapla vald",
        "latt": "59.02226",
        "longt": "24.68994",
        "address": "0493 Scott GrovesnPort David, KS 65847"
    },
    {
        "state": "EE",
        "name": "Lapetukme",
        "city": "Lapetukme",
        "prov": "Tartu",
        "region": "Elva vald",
        "latt": "58.17583",
        "longt": "26.19056",
        "address": "8558 Humphrey Station Apt. 881nPort Ashleystad, TN 96319"
    },
    {
        "state": "EE",
        "name": "Tapupere ku00fcla",
        "city": "Alu",
        "prov": "Raplamaa",
        "region": "Rapla vald",
        "latt": "59.02226",
        "longt": "24.68994",
        "address": "148 Fields ViaductnSouth Jamesshire, GA 29920"
    },
    {
        "state": "EE",
        "name": "Ku00e4rsama",
        "city": "Kaersama",
        "prov": "Raplamaa",
        "region": "Mu00e4rjamaa vald",
        "latt": "58.90389",
        "longt": "24.22667",
        "address": "USNS AndrewsnFPO AP 03486"
    },
    {
        "state": "EE",
        "name": "Meemaste ku00fcla",
        "city": "Pu00f5lva",
        "prov": "Pu00f5lvamaa",
        "region": "Pu00f5lva vald",
        "latt": "58.01502",
        "longt": "27.06693",
        "address": "592 Sarah Rapids Suite 118nEast Michaelshire, MO 36204"
    },
    {
        "state": "EE",
        "name": "Antsu ku00fcla",
        "city": "Vana-Antsla",
        "prov": "Vu00f5rumaa",
        "region": "Antsla vald",
        "latt": "57.86041",
        "longt": "26.46232",
        "address": "6195 Christina StationnLake William, OK 22529"
    },
    {
        "state": "EE",
        "name": "Sinialliku",
        "city": "Viljandi",
        "prov": "Viljandimaa",
        "region": "Viljandi vald",
        "latt": "58.30639",
        "longt": "25.56889",
        "address": "7511 Jennifer TracknNorth Javiermouth, SC 76117"
    },
    {
        "state": "EE",
        "name": "Tyursamyae-rand",
        "city": "Sillamaee",
        "prov": "Ida-Virumaa",
        "region": "Sillamu00e4e linn",
        "latt": "59.4",
        "longt": "27.75",
        "address": "0327 Jennifer LightnShannonmouth, IA 36340"
    },
    {
        "state": "EE",
        "name": "Vaela",
        "city": "Jueri",
        "prov": "Harjumaa",
        "region": "Kiili vald",
        "latt": "59.33659",
        "longt": "24.81318",
        "address": "455 Ann Heights Suite 781nMitchellmouth, NY 52447"
    },
    {
        "state": "EE",
        "name": "Teteru00fcvu00e4 ku00fcla",
        "city": "Teterova",
        "prov": "Vu00f5rumaa",
        "region": "Setomaa vald",
        "latt": "57.72791",
        "longt": "27.43805",
        "address": "6502 Dustin ForgenNorth Alisonton, VT 98676"
    },
    {
        "state": "EE",
        "name": "Laane",
        "city": "Laane",
        "prov": "Viljandimaa",
        "region": "Pu00f5hja-Sakala vald",
        "latt": "58.35583",
        "longt": "25.27722",
        "address": "350 Brady CrestnBarrerashire, AR 87186"
    },
    {
        "state": "EE",
        "name": "Ehala",
        "city": "Ehala",
        "prov": "Pu00e4rnumaa",
        "region": "Lu00e4u00e4neranna vald",
        "latt": "58.53333",
        "longt": "23.81667",
        "address": "827 Grace Parks Suite 420nEast Sarah, ND 06926"
    },
    {
        "state": "EE",
        "name": "Viidu",
        "city": "Viidu",
        "prov": "Saare",
        "region": "Saaremaa vald",
        "latt": "58.28167",
        "longt": "22.13889",
        "address": "131 Joseph TrailnEast Larryborough, AL 17804"
    },
    {
        "state": "EE",
        "name": "Puusta",
        "city": "Puusta",
        "prov": "Pu00f5lvamaa",
        "region": "Ru00e4pina vald",
        "latt": "58.07722",
        "longt": "27.3175",
        "address": "USNV FernandeznFPO AP 30613"
    },
    {
        "state": "EE",
        "name": "Moora Oja",
        "city": "Venevere",
        "prov": "Lu00e4u00e4ne-Virumaa",
        "region": "Vinni vald",
        "latt": "59.02333",
        "longt": "26.69083",
        "address": "22432 Randall ShoresnPort Matthewchester, AR 13084"
    },
    {
        "state": "EE",
        "name": "Tyursamyae-rand",
        "city": "Sillamaee",
        "prov": "Ida-Virumaa",
        "region": "Sillamu00e4e linn",
        "latt": "59.4",
        "longt": "27.75",
        "address": "14397 Adams Springs Suite 539nMartinezberg, MN 43695"
    },
    {
        "state": "EE",
        "name": "Viidu",
        "city": "Viidu",
        "prov": "Saare",
        "region": "Saaremaa vald",
        "latt": "58.28167",
        "longt": "22.13889",
        "address": "7473 Dixon Forest Apt. 147nLake John, AR 21033"
    },
    {
        "state": "EE",
        "name": "Riuku00fcla",
        "city": "Karksi-Nuia",
        "prov": "Viljandimaa",
        "region": "Mulgi vald",
        "latt": "58.10222",
        "longt": "25.51139",
        "address": "83745 Townsend Center Apt. 053nTravisshire, CO 32650"
    },
    {
        "state": "EE",
        "name": "Peraku00fcla",
        "city": "Perakuela",
        "prov": "Lu00e4u00e4ne",
        "region": "Lu00e4u00e4ne-Nigula vald",
        "latt": "59.20194",
        "longt": "23.62833",
        "address": "4463 Johnson Groves Apt. 908nPatrickville, OR 69903"
    },
    {
        "state": "EE",
        "name": "Lu00e4u00e4ne-Nigula vald",
        "city": "Taebla",
        "prov": "Lu00e4u00e4ne",
        "region": "Lu00e4u00e4ne-Nigula vald",
        "latt": "58.96045",
        "longt": "23.74489",
        "address": "3286 John Bridge Apt. 047nGregoryton, WV 51936"
    },
    {
        "state": "EE",
        "name": "Harku alevik",
        "city": "Laagri",
        "prov": "Harjumaa",
        "region": "Harku vald",
        "latt": "59.38091",
        "longt": "24.5968",
        "address": "55951 Mcintyre Isle Suite 429nPort Christina, MT 99648"
    },
    {
        "state": "EE",
        "name": "Tapupere ku00fcla",
        "city": "Alu",
        "prov": "Raplamaa",
        "region": "Rapla vald",
        "latt": "59.02226",
        "longt": "24.68994",
        "address": "6667 Stanley Locks Suite 552nNorth Christopherland, CO 24537"
    },
    {
        "state": "EE",
        "name": "Salaku00fcla",
        "city": "Kivioli",
        "prov": "Ida-Virumaa",
        "region": "Lu00fcganuse vald",
        "latt": "59.34194",
        "longt": "26.92083",
        "address": "Unit 5467 Box 7506nDPO AE 36023"
    },
    {
        "state": "EE",
        "name": "Annerank",
        "city": "Matsi",
        "prov": "Pu00e4rnumaa",
        "region": "Lu00e4u00e4neranna vald",
        "latt": "58.36752",
        "longt": "23.72841",
        "address": "834 Robinson MountainsnLake Taylorville, MA 26174"
    },
    {
        "state": "EE",
        "name": "Saunaku00fcla",
        "city": "Saunakuela",
        "prov": "Pu00e4rnumaa",
        "region": "Tori vald",
        "latt": "58.44444",
        "longt": "24.56583",
        "address": "212 Roberts Meadow Suite 199nSouth Donald, NV 89768"
    },
    {
        "state": "EE",
        "name": "Kakrasaar",
        "city": "Syare",
        "prov": "Pu00e4rnumaa",
        "region": "Kihnu vald",
        "latt": "58.18389",
        "longt": "24.05056",
        "address": "2854 Wood Drives Suite 078nBlackside, WI 53279"
    },
    {
        "state": "EE",
        "name": "Kulna Peatus",
        "city": "Keila",
        "prov": "Harjumaa",
        "region": "Lu00e4u00e4ne-Harju vald",
        "latt": "59.28806",
        "longt": "24.35139",
        "address": "91070 Dudley Ports Apt. 610nLake Brianburgh, NE 59134"
    },
    {
        "state": "EE",
        "name": "Teelahkme-Luige",
        "city": "Teelahkme-Luige",
        "prov": "Ju00f5gevamaa",
        "region": "Mustvee vald",
        "latt": "58.85139",
        "longt": "26.84972",
        "address": "56642 Meghan Valleys Suite 871nKevinside, LA 48149"
    },
    {
        "state": "EE",
        "name": "Lapetukme",
        "city": "Lapetukme",
        "prov": "Tartu",
        "region": "Elva vald",
        "latt": "58.17583",
        "longt": "26.19056",
        "address": "51497 Johnson Groves Suite 336nChristopherfurt, AK 29604"
    },
    {
        "state": "EE",
        "name": "Ku00e4rsama",
        "city": "Kaersama",
        "prov": "Raplamaa",
        "region": "Mu00e4rjamaa vald",
        "latt": "58.90389",
        "longt": "24.22667",
        "address": "PSC 9834, Box 1151nAPO AA 95794"
    },
    {
        "state": "EE",
        "name": "Vagula Ju00e4rv",
        "city": "Ju00e4rvere",
        "prov": "Vu00f5rumaa",
        "region": "Vu00f5ru vald",
        "latt": "57.84806",
        "longt": "26.9075",
        "address": "USCGC GrimesnFPO AA 82743"
    },
    {
        "state": "EE",
        "name": "Aruku00fcla",
        "city": "Arukuela",
        "prov": "Harjumaa",
        "region": "Raasiku vald",
        "latt": "59.36686",
        "longt": "25.07618",
        "address": "6037 Vincent MeadownNorth Kellifort, OR 36588"
    },
    {
        "state": "EE",
        "name": "Antsu ku00fcla",
        "city": "Vana-Antsla",
        "prov": "Vu00f5rumaa",
        "region": "Antsla vald",
        "latt": "57.86041",
        "longt": "26.46232",
        "address": "82049 Santiago SpurnWilsonborough, VA 02317"
    },
    {
        "state": "EE",
        "name": "Aberoti",
        "city": "Johvi",
        "prov": "Ida-Virumaa",
        "region": "Ju00f5hvi vald",
        "latt": "59.32167",
        "longt": "27.36444",
        "address": "4805 Michael Point Suite 792nTanyashire, RI 59494"
    },
    {
        "state": "EE",
        "name": "Vaela",
        "city": "Jueri",
        "prov": "Harjumaa",
        "region": "Kiili vald",
        "latt": "59.33659",
        "longt": "24.81318",
        "address": "477 Jennifer PassnJacquelinemouth, IA 00583"
    },
    {
        "state": "EE",
        "name": "Aberoti",
        "city": "Johvi",
        "prov": "Ida-Virumaa",
        "region": "Ju00f5hvi vald",
        "latt": "59.32167",
        "longt": "27.36444",
        "address": "815 Scott Gardens Apt. 059nEast Richardmouth, MS 25956"
    },
    {
        "state": "EE",
        "name": "Tapupere ku00fcla",
        "city": "Alu",
        "prov": "Raplamaa",
        "region": "Rapla vald",
        "latt": "59.02226",
        "longt": "24.68994",
        "address": "3108 Laura KnollsnGarciatown, OH 83859"
    },
    {
        "state": "EE",
        "name": "Tiitsa",
        "city": "Tiitsa",
        "prov": "Vu00f5rumaa",
        "region": "Ru00f5uge vald",
        "latt": "57.58167",
        "longt": "26.53333",
        "address": "559 Joseph ManornNorth Jacobport, NE 39329"
    },
    {
        "state": "EE",
        "name": "Laane",
        "city": "Laane",
        "prov": "Viljandimaa",
        "region": "Pu00f5hja-Sakala vald",
        "latt": "58.35583",
        "longt": "25.27722",
        "address": "779 Rachel PointsnLake Lindsayburgh, OR 73078"
    },
    {
        "state": "EE",
        "name": "Ronivere",
        "city": "Ronivere",
        "prov": "Ju00f5gevamaa",
        "region": "Ju00f5geva vald",
        "latt": "58.72611",
        "longt": "26.65639",
        "address": "78970 Debbie Ridge Apt. 876nSouth Johnchester, LA 96868"
    },
    {
        "state": "EE",
        "name": "Kruusimu00e4e",
        "city": "Kadrina",
        "prov": "Lu00e4u00e4ne-Virumaa",
        "region": "Kadrina vald",
        "latt": "59.34917",
        "longt": "26.14889",
        "address": "8454 Brown Fort Suite 920nWest Jamesborough, NE 72018"
    },
    {
        "state": "EE",
        "name": "Kesklahe",
        "city": "Kesklahe",
        "prov": "Tartu",
        "region": "Peipsiu00e4u00e4re vald",
        "latt": "58.57917",
        "longt": "27.18611",
        "address": "4039 Brown ForgenCourtneyhaven, KS 93304"
    },
    {
        "state": "EE",
        "name": "Antsu ku00fcla",
        "city": "Vana-Antsla",
        "prov": "Vu00f5rumaa",
        "region": "Antsla vald",
        "latt": "57.86041",
        "longt": "26.46232",
        "address": "06958 Daniel LightsnNorth Chaseborough, IL 40009"
    },
    {
        "state": "EE",
        "name": "Saunaku00fcla",
        "city": "Saunakuela",
        "prov": "Pu00e4rnumaa",
        "region": "Tori vald",
        "latt": "58.44444",
        "longt": "24.56583",
        "address": "PSC 4462, Box 4710nAPO AE 48517"
    },
    {
        "state": "EE",
        "name": "Kopa",
        "city": "Kopa",
        "prov": "Hiiumaa",
        "region": "Hiiumaa vald",
        "latt": "58.92044",
        "longt": "22.40493",
        "address": "4982 Zhang Fields Apt. 280nNew Annaview, NC 42027"
    },
    {
        "state": "EE",
        "name": "Raukla",
        "city": "Tueri",
        "prov": "Ju00e4rvamaa",
        "region": "Tu00fcri vald",
        "latt": "58.7775",
        "longt": "25.51667",
        "address": "USCGC VasqueznFPO AP 49320"
    },
    {
        "state": "EE",
        "name": "Kaomu00e4e",
        "city": "Kaomaee",
        "prov": "Raplamaa",
        "region": "Rapla vald",
        "latt": "59.07722",
        "longt": "25.11667",
        "address": "8460 Eric Streets Apt. 536nEast Donnaton, IN 16927"
    },
    {
        "state": "EE",
        "name": "Avanduse",
        "city": "Avanduse",
        "prov": "Lu00e4u00e4ne-Virumaa",
        "region": "Vu00e4ike-Maarja vald",
        "latt": "59.05306",
        "longt": "26.42083",
        "address": "574 Flores Isle Suite 846nTheresahaven, UT 03366"
    },
    {
        "state": "EE",
        "name": "Ronivere",
        "city": "Ronivere",
        "prov": "Ju00f5gevamaa",
        "region": "Ju00f5geva vald",
        "latt": "58.72611",
        "longt": "26.65639",
        "address": "6098 Stevens Roads Apt. 568nSouth Kimmouth, MA 92916"
    },
    {
        "state": "EE",
        "name": "Riuku00fcla",
        "city": "Karksi-Nuia",
        "prov": "Viljandimaa",
        "region": "Mulgi vald",
        "latt": "58.10222",
        "longt": "25.51139",
        "address": "75285 Rebecca DalenNguyenshire, MN 09602"
    },
    {
        "state": "EE",
        "name": "Salaku00fcla",
        "city": "Kivioli",
        "prov": "Ida-Virumaa",
        "region": "Lu00fcganuse vald",
        "latt": "59.34194",
        "longt": "26.92083",
        "address": "9766 Sullivan GatewaynWalkerland, WI 80170"
    },
    {
        "state": "EE",
        "name": "Kodavere",
        "city": "Kallaste",
        "prov": "Tartu",
        "region": "Peipsiu00e4u00e4re vald",
        "latt": "58.68694",
        "longt": "27.14306",
        "address": "9946 Jeremiah Spring Suite 780nGreenchester, WY 59158"
    },
    {
        "state": "EE",
        "name": "Kerkomu00f5isa",
        "city": "Raepina",
        "prov": "Pu00f5lvamaa",
        "region": "Ru00e4pina vald",
        "latt": "58.10222",
        "longt": "27.45028",
        "address": "8568 Melinda WalksnThompsonshire, SC 25177"
    },
    {
        "state": "EE",
        "name": "Naistevyalu2019ya",
        "city": "Tamsalu",
        "prov": "Lu00e4u00e4ne-Virumaa",
        "region": "Tapa vald",
        "latt": "59.195833",
        "longt": "26.156667",
        "address": "36515 Miguel ForestnSouth Jessicashire, MT 00941"
    },
    {
        "state": "EE",
        "name": "Ku00e4rsama",
        "city": "Kaersama",
        "prov": "Raplamaa",
        "region": "Mu00e4rjamaa vald",
        "latt": "58.90389",
        "longt": "24.22667",
        "address": "871 Martha ManorsnLake Jeffreyhaven, ME 74364"
    },
    {
        "state": "EE",
        "name": "Sikana ku00fcla",
        "city": "Soone",
        "prov": "Pu00e4rnumaa",
        "region": "Pu00f5hja-Pu00e4rnumaa vald",
        "latt": "58.57184",
        "longt": "24.90701",
        "address": "7565 Joseph RownWest Marissa, PA 27961"
    },
    {
        "state": "EE",
        "name": "Raukla",
        "city": "Tueri",
        "prov": "Ju00e4rvamaa",
        "region": "Tu00fcri vald",
        "latt": "58.7775",
        "longt": "25.51667",
        "address": "539 Kaiser ForksnMillsville, PA 88736"
    },
    {
        "state": "EE",
        "name": "Sikana ku00fcla",
        "city": "Soone",
        "prov": "Pu00e4rnumaa",
        "region": "Pu00f5hja-Pu00e4rnumaa vald",
        "latt": "58.57184",
        "longt": "24.90701",
        "address": "327 Laura Forks Apt. 728nWest Jennifer, ND 49524"
    },
    {
        "state": "EE",
        "name": "Rummu",
        "city": "Rummu",
        "prov": "Harjumaa",
        "region": "Viimsi vald",
        "latt": "59.53528",
        "longt": "24.79972",
        "address": "Unit 1407 Box 7428nDPO AA 56904"
    },
    {
        "state": "EE",
        "name": "Leetse",
        "city": "Paldiski",
        "prov": "Harjumaa",
        "region": "Lu00e4u00e4ne-Harju vald",
        "latt": "59.35",
        "longt": "24.05",
        "address": "283 Tracy Overpass Apt. 158nJohnsonside, ME 38537"
    },
    {
        "state": "EE",
        "name": "Nu00fcpli Ju00e4rv",
        "city": "Nu00fcpli",
        "prov": "Valgamaa",
        "region": "Otepu00e4u00e4 vald",
        "latt": "58.03444",
        "longt": "26.495",
        "address": "USNV ShawnFPO AE 19557"
    },
    {
        "state": "EE",
        "name": "Ehala",
        "city": "Ehala",
        "prov": "Pu00e4rnumaa",
        "region": "Lu00e4u00e4neranna vald",
        "latt": "58.53333",
        "longt": "23.81667",
        "address": "93749 Christopher PlacenDanielburgh, CT 35277"
    },
    {
        "state": "EE",
        "name": "Kulna Peatus",
        "city": "Keila",
        "prov": "Harjumaa",
        "region": "Lu00e4u00e4ne-Harju vald",
        "latt": "59.28806",
        "longt": "24.35139",
        "address": "013 Jade LakesnPort Amy, UT 96864"
    },
    {
        "state": "EE",
        "name": "Teelahkme-Luige",
        "city": "Teelahkme-Luige",
        "prov": "Ju00f5gevamaa",
        "region": "Mustvee vald",
        "latt": "58.85139",
        "longt": "26.84972",
        "address": "9422 Jack Springs Suite 568nBrianton, NE 15562"
    },
    {
        "state": "EE",
        "name": "Kohtru ku00fcla",
        "city": "Nu00f5lva",
        "prov": "Raplamaa",
        "region": "Mu00e4rjamaa vald",
        "latt": "58.76104",
        "longt": "24.66401",
        "address": "97401 Ruiz Locks Apt. 814nPort Tiffany, IL 69898"
    },
    {
        "state": "EE",
        "name": "Iruste",
        "city": "Iruste",
        "prov": "Saare",
        "region": "Saaremaa vald",
        "latt": "58.51",
        "longt": "23.03444",
        "address": "875 Steven VistanRamirezberg, AL 54595"
    },
    {
        "state": "EE",
        "name": "Sikana ku00fcla",
        "city": "Soone",
        "prov": "Pu00e4rnumaa",
        "region": "Pu00f5hja-Pu00e4rnumaa vald",
        "latt": "58.57184",
        "longt": "24.90701",
        "address": "3657 Thomas Walks Suite 384nMarkmouth, AZ 71751"
    },
    {
        "state": "EE",
        "name": "Ehala",
        "city": "Ehala",
        "prov": "Pu00e4rnumaa",
        "region": "Lu00e4u00e4neranna vald",
        "latt": "58.53333",
        "longt": "23.81667",
        "address": "33267 Klein Way Suite 330nWest Brendan, CO 03592"
    },
    {
        "state": "EE",
        "name": "Ange",
        "city": "Sindi",
        "prov": "Pu00e4rnumaa",
        "region": "Pu00e4rnu linn",
        "latt": "58.335",
        "longt": "24.70028",
        "address": "4488 Boyd CliffnBrendamouth, IL 17862"
    },
    {
        "state": "EE",
        "name": "Salaku00fcla",
        "city": "Kivioli",
        "prov": "Ida-Virumaa",
        "region": "Lu00fcganuse vald",
        "latt": "59.34194",
        "longt": "26.92083",
        "address": "330 William Drives Suite 402nThomasberg, FL 95377"
    },
    {
        "state": "EE",
        "name": "Leetse",
        "city": "Paldiski",
        "prov": "Harjumaa",
        "region": "Lu00e4u00e4ne-Harju vald",
        "latt": "59.35",
        "longt": "24.05",
        "address": "5187 Timothy Park Apt. 686nNew Jenniferborough, MA 48830"
    },
    {
        "state": "EE",
        "name": "Kabina ku00fcla",
        "city": "Lohkva",
        "prov": "Tartu",
        "region": "Luunja vald",
        "latt": "58.3479",
        "longt": "26.83564",
        "address": "7103 Ayala FallnJohnsonmouth, GA 92329"
    },
    {
        "state": "EE",
        "name": "Sinialliku",
        "city": "Viljandi",
        "prov": "Viljandimaa",
        "region": "Viljandi vald",
        "latt": "58.30639",
        "longt": "25.56889",
        "address": "54429 Philip UnionnHansontown, OR 91694"
    },
    {
        "state": "EE",
        "name": "Kabina ku00fcla",
        "city": "Lohkva",
        "prov": "Tartu",
        "region": "Luunja vald",
        "latt": "58.3479",
        "longt": "26.83564",
        "address": "7011 Anne Avenue Apt. 047nPort Kristachester, MD 92827"
    },
    {
        "state": "EE",
        "name": "Ku00e4ina",
        "city": "Kaeina",
        "prov": "Hiiumaa",
        "region": "Hiiumaa vald",
        "latt": "58.82848",
        "longt": "22.77711",
        "address": "006 Miller TunnelnLoweryville, IA 96281"
    },