[
    {
        "state": "BE",
        "name": "Vijver",
        "city": "Ichtegem",
        "prov": "Flanders",
        "region": "Provincie West-Vlaanderen",
        "latt": "51.1",
        "longt": "3",
        "address": "7905 Nicole Freeway Suite 040nEast Joseph, MT 11738"
    },
    {
        "state": "BE",
        "name": "Terlindenhof",
        "city": "Edegem",
        "prov": "Flanders",
        "region": "Provincie Antwerpen",
        "latt": "51.15983",
        "longt": "4.43679",
        "address": "8708 Brandon LoopnLake Lisastad, OR 89126"
    },
    {
        "state": "BE",
        "name": "Marniu00e8re",
        "city": "Tournai",
        "prov": "Wallonia",
        "region": "Province du Hainaut",
        "latt": "50.56667",
        "longt": "3.33333",
        "address": "11702 Giles Road Apt. 000nGinaborough, AR 20381"
    },
    {
        "state": "BE",
        "name": "De Reydt",
        "city": "Tessenderlo",
        "prov": "Flanders",
        "region": "Provincie Limburg",
        "latt": "51.083333",
        "longt": "5.1",
        "address": "7203 Cassandra Shoals Apt. 607nDavidborough, NV 34027"
    },
    {
        "state": "BE",
        "name": "Petit Sart",
        "city": "Eghezee",
        "prov": "Wallonia",
        "region": "Province de Namur",
        "latt": "50.54829",
        "longt": "4.86926",
        "address": "1145 Farrell VianTerrifurt, VT 33073"
    },
    {
        "state": "BE",
        "name": "Froidchapelle",
        "city": "Froidchapelle",
        "prov": "Wallonia",
        "region": "Province du Hainaut",
        "latt": "50.1515",
        "longt": "4.32964",
        "address": "44668 Wilcox Center Apt. 953nPort Loganberg, TX 66844"
    },
    {
        "state": "BE",
        "name": "Frisu00e9e",
        "city": "Hamois",
        "prov": "Wallonia",
        "region": "Province de Namur",
        "latt": "50.37423",
        "longt": "5.1274",
        "address": "30441 Jason Tunnel Suite 497nKevinfort, NV 65565"
    },
    {
        "state": "BE",
        "name": "Farinette",
        "city": "Celles",
        "prov": "Wallonia",
        "region": "Province du Hainaut",
        "latt": "50.67751",
        "longt": "3.43359",
        "address": "4618 Melanie Knoll Suite 790nElizabethstad, WV 00631"
    },
    {
        "state": "BE",
        "name": "Sonnis",
        "city": "Helchteren",
        "prov": "Flanders",
        "region": "Provincie Limburg",
        "latt": "51.06717",
        "longt": "5.41709",
        "address": "3114 Brian Loop Apt. 550nWilliamsborough, DE 21297"
    },
    {
        "state": "BE",
        "name": "Ham",
        "city": "Waregem",
        "prov": "Flanders",
        "region": "Provincie Oost-Vlaanderen",
        "latt": "50.94066",
        "longt": "3.45852",
        "address": "408 Brendan Motorway Suite 019nBobbyville, AZ 28846"
    },
    {
        "state": "BE",
        "name": "Flu00e9nu",
        "city": "Mons",
        "prov": "Wallonia",
        "region": "Province du Hainaut",
        "latt": "50.43673",
        "longt": "3.88573",
        "address": "08781 Kenneth ExpresswaynHammondtown, MI 16534"
    },
    {
        "state": "BE",
        "name": "Vroilandhoek",
        "city": "Vroilandhoek",
        "prov": "Flanders",
        "region": "Provincie West-Vlaanderen",
        "latt": "50.76667",
        "longt": "2.85",
        "address": "087 Cody ForgenMedinaton, IN 44751"
    },
    {
        "state": "BE",
        "name": "Munsterbilzen",
        "city": "Bilzen",
        "prov": "Flanders",
        "region": "Provincie Limburg",
        "latt": "50.886349",
        "longt": "5.533343",
        "address": "248 Jacob CausewaynCarolynberg, DC 55550"
    },
    {
        "state": "BE",
        "name": "Ham",
        "city": "Waregem",
        "prov": "Flanders",
        "region": "Provincie Oost-Vlaanderen",
        "latt": "50.94066",
        "longt": "3.45852",
        "address": "USNS RileynFPO AP 45254"
    },
    {
        "state": "BE",
        "name": "Zevenbergen",
        "city": "Ranst",
        "prov": "Flanders",
        "region": "Provincie Antwerpen",
        "latt": "51.19443",
        "longt": "4.55721",
        "address": "207 Cox ParknNew Frankmouth, AK 10773"
    },
    {
        "state": "BE",
        "name": "Houdemont",
        "city": "Habay-la-Vieille",
        "prov": "Wallonia",
        "region": "Province du Luxembourg",
        "latt": "49.71872",
        "longt": "5.58376",
        "address": "PSC 1243, Box 2469nAPO AA 59702"
    },
    {
        "state": "BE",
        "name": "Farinette",
        "city": "Celles",
        "prov": "Wallonia",
        "region": "Province du Hainaut",
        "latt": "50.67751",
        "longt": "3.43359",
        "address": "8224 Austin Brooks Apt. 728nNew Jordan, MD 76721"
    },
    {
        "state": "BE",
        "name": "Lovie",
        "city": "Middelkerke",
        "prov": "Flanders",
        "region": "Provincie West-Vlaanderen",
        "latt": "51.15722",
        "longt": "2.80113",
        "address": "116 Connie Shore Apt. 376nSouth Melissa, NJ 74545"
    },
    {
        "state": "BE",
        "name": "Zevenbergen",
        "city": "Ranst",
        "prov": "Flanders",
        "region": "Provincie Antwerpen",
        "latt": "51.19443",
        "longt": "4.55721",
        "address": "58842 Patricia CliffnSouth Tanyatown, MN 20741"
    },
    {
        "state": "BE",
        "name": "Munsterbilzen",
        "city": "Bilzen",
        "prov": "Flanders",
        "region": "Provincie Limburg",
        "latt": "50.886349",
        "longt": "5.533343",
        "address": "6591 Stanton ForestnDaltonton, NM 68265"
    },
    {
        "state": "BE",
        "name": "Vijver",
        "city": "Ichtegem",
        "prov": "Flanders",
        "region": "Provincie West-Vlaanderen",
        "latt": "51.1",
        "longt": "3",
        "address": "3099 Hancock Greens Apt. 974nPort Michaelton, KY 38204"
    },
    {
        "state": "BE",
        "name": "Frisu00e9e",
        "city": "Hamois",
        "prov": "Wallonia",
        "region": "Province de Namur",
        "latt": "50.37423",
        "longt": "5.1274",
        "address": "7774 Ryan Knoll Suite 250nTammyview, AK 01590"
    },
    {
        "state": "BE",
        "name": "Fayt-le-Franc",
        "city": "Dour",
        "prov": "Wallonia",
        "region": "Province du Hainaut",
        "latt": "50.35652",
        "longt": "3.77501",
        "address": "540 Lori PointnHendersonbury, OK 13549"
    },
    {
        "state": "BE",
        "name": "Petit Sart",
        "city": "Eghezee",
        "prov": "Wallonia",
        "region": "Province de Namur",
        "latt": "50.54829",
        "longt": "4.86926",
        "address": "6933 Kemp Forks Suite 276nNortonland, MT 22555"
    },
    {
        "state": "BE",
        "name": "Kijkuithoek",
        "city": "Wevelgem",
        "prov": "Flanders",
        "region": "Provincie West-Vlaanderen",
        "latt": "50.81667",
        "longt": "3.16667",
        "address": "08411 Karen Ridges Apt. 412nEast Nathaniel, CA 71566"
    },
    {
        "state": "BE",
        "name": "Vijver",
        "city": "Ichtegem",
        "prov": "Flanders",
        "region": "Provincie West-Vlaanderen",
        "latt": "51.1",
        "longt": "3",
        "address": "USCGC BeardnFPO AA 84848"
    },
    {
        "state": "BE",
        "name": "Zevenbergen",
        "city": "Ranst",
        "prov": "Flanders",
        "region": "Provincie Antwerpen",
        "latt": "51.19443",
        "longt": "4.55721",
        "address": "139 Flores MountnSouth Jennifer, MT 72800"
    },
    {
        "state": "BE",
        "name": "Vogelsberg",
        "city": "Wellen",
        "prov": "Flanders",
        "region": "Provincie Limburg",
        "latt": "50.83333",
        "longt": "5.36667",
        "address": "7171 Billy Estate Suite 927nNorth Candice, GA 84507"
    },
    {
        "state": "BE",
        "name": "Zevenbergen",
        "city": "Ranst",
        "prov": "Flanders",
        "region": "Provincie Antwerpen",
        "latt": "51.19443",
        "longt": "4.55721",
        "address": "50159 Hopkins River Apt. 126nBlackburnbury, AR 51162"
    },
    {
        "state": "BE",
        "name": "De Reydt",
        "city": "Tessenderlo",
        "prov": "Flanders",
        "region": "Provincie Limburg",
        "latt": "51.083333",
        "longt": "5.1",
        "address": "381 John Ranch Suite 952nPort Tylerhaven, WI 20993"
    },
    {
        "state": "BE",
        "name": "Marniu00e8re",
        "city": "Tournai",
        "prov": "Wallonia",
        "region": "Province du Hainaut",
        "latt": "50.56667",
        "longt": "3.33333",
        "address": "977 Martin Drives Apt. 038nGarciaport, RI 88200"
    },
    {
        "state": "BE",
        "name": "Gros Bois de Biu00e8vre",
        "city": "Gedinne",
        "prov": "Wallonia",
        "region": "Province de Namur",
        "latt": "49.99647",
        "longt": "5.00082",
        "address": "440 Tammy FlatnSouth Mary, IA 49810"
    },
    {
        "state": "BE",
        "name": "Ketstraat",
        "city": "De Pinte",
        "prov": "Flanders",
        "region": "Provincie Oost-Vlaanderen",
        "latt": "51",
        "longt": "3.65",
        "address": "453 Ronald ParknSouth Garychester, TN 11497"
    },
    {
        "state": "BE",
        "name": "Beekhoek",
        "city": "Wingene",
        "prov": "Flanders",
        "region": "Provincie West-Vlaanderen",
        "latt": "51.06667",
        "longt": "3.26667",
        "address": "55075 Michelle Route Apt. 982nNorth Stephenton, MT 39048"
    },
    {
        "state": "BE",
        "name": "De Reydt",
        "city": "Tessenderlo",
        "prov": "Flanders",
        "region": "Provincie Limburg",
        "latt": "51.083333",
        "longt": "5.1",
        "address": "Unit 2142 Box 0571nDPO AP 33456"
    },
    {
        "state": "BE",
        "name": "Ham",
        "city": "Waregem",
        "prov": "Flanders",
        "region": "Provincie Oost-Vlaanderen",
        "latt": "50.94066",
        "longt": "3.45852",
        "address": "43677 Wang MillsnMartinstad, IA 18374"
    },
    {
        "state": "BE",
        "name": "Monceau",
        "city": "Stoumont",
        "prov": "Wallonia",
        "region": "Province de Liu00e8ge",
        "latt": "50.39208",
        "longt": "5.82219",
        "address": "70620 William Island Apt. 169nSmithburgh, CT 88766"
    },
    {
        "state": "BE",
        "name": "Marniu00e8re",
        "city": "Tournai",
        "prov": "Wallonia",
        "region": "Province du Hainaut",
        "latt": "50.56667",
        "longt": "3.33333",
        "address": "45543 Fuller CapenThomasview, GA 49842"
    },
    {
        "state": "BE",
        "name": "Vogelsberg",
        "city": "Wellen",
        "prov": "Flanders",
        "region": "Provincie Limburg",
        "latt": "50.83333",
        "longt": "5.36667",
        "address": "55709 Hernandez GlennWest Rebeccashire, NJ 32939"
    },
    {
        "state": "BE",
        "name": "Lovie",
        "city": "Middelkerke",
        "prov": "Flanders",
        "region": "Provincie West-Vlaanderen",
        "latt": "51.15722",
        "longt": "2.80113",
        "address": "61886 Leonard Creek Suite 153nJonesbury, CT 94134"
    },
    {
        "state": "BE",
        "name": "Pepinster",
        "city": "Pepinster",
        "prov": "Wallonia",
        "region": "Province de Liu00e8ge",
        "latt": "50.57408",
        "longt": "5.80748",
        "address": "PSC 9743, Box 1848nAPO AA 36953"
    },
    {
        "state": "BE",
        "name": "Zevenbergen",
        "city": "Ranst",
        "prov": "Flanders",
        "region": "Provincie Antwerpen",
        "latt": "51.19443",
        "longt": "4.55721",
        "address": "53511 Schmidt FallsnNew Hector, OH 17194"
    },
    {
        "state": "BE",
        "name": "Ketstraat",
        "city": "De Pinte",
        "prov": "Flanders",
        "region": "Provincie Oost-Vlaanderen",
        "latt": "51",
        "longt": "3.65",
        "address": "997 Travis Circles Suite 376nNew Timothyfort, MD 75366"
    },
    {
        "state": "BE",
        "name": "Munsterbilzen",
        "city": "Bilzen",
        "prov": "Flanders",
        "region": "Provincie Limburg",
        "latt": "50.886349",
        "longt": "5.533343",
        "address": "924 Angela GrovesnChoibury, IL 31686"
    },
    {
        "state": "BE",
        "name": "Gros Bois de Biu00e8vre",
        "city": "Gedinne",
        "prov": "Wallonia",
        "region": "Province de Namur",
        "latt": "49.99647",
        "longt": "5.00082",
        "address": "3361 Dylan StreamnWest Patrick, TX 07594"
    },
    {
        "state": "BE",
        "name": "Munsterbilzen",
        "city": "Bilzen",
        "prov": "Flanders",
        "region": "Provincie Limburg",
        "latt": "50.886349",
        "longt": "5.533343",
        "address": "348 Leroy Court Apt. 886nMaryfurt, DE 82623"
    },
    {
        "state": "BE",
        "name": "Terlindenhof",
        "city": "Edegem",
        "prov": "Flanders",
        "region": "Provincie Antwerpen",
        "latt": "51.15983",
        "longt": "4.43679",
        "address": "4638 Booth Trail Apt. 855nGaryport, SC 48301"
    },
    {
        "state": "BE",
        "name": "Munsterbilzen",
        "city": "Bilzen",
        "prov": "Flanders",
        "region": "Provincie Limburg",
        "latt": "50.886349",
        "longt": "5.533343",
        "address": "7708 Boyer GardensnRossburgh, AL 91416"
    },
    {
        "state": "BE",
        "name": "Zevenbergen",
        "city": "Ranst",
        "prov": "Flanders",
        "region": "Provincie Antwerpen",
        "latt": "51.19443",
        "longt": "4.55721",
        "address": "6624 John Dale Suite 564nLake Patrickshire, VT 85307"
    },
    {
        "state": "BE",
        "name": "Nothomb",
        "city": "Attert",
        "prov": "Wallonia",
        "region": "Province du Luxembourg",
        "latt": "49.77156",
        "longt": "5.78773",
        "address": "7707 Robinson NecknSouth Joshuaside, MD 39342"
    },
    {
        "state": "BE",
        "name": "Kraaienboshof",
        "city": "Maaseik",
        "prov": "Flanders",
        "region": "Provincie Limburg",
        "latt": "51.08333",
        "longt": "5.76667",
        "address": "085 Lori WellsnCookland, NC 76160"
    },
    {
        "state": "BE",
        "name": "Pepinster",
        "city": "Pepinster",
        "prov": "Wallonia",
        "region": "Province de Liu00e8ge",
        "latt": "50.57408",
        "longt": "5.80748",
        "address": "597 Stewart Circles Suite 362nGoodwinhaven, MT 28444"
    },
    {
        "state": "BE",
        "name": "Haut des Miniu00e8res",
        "city": "Tintigny",
        "prov": "Wallonia",
        "region": "Province du Luxembourg",
        "latt": "49.65401",
        "longt": "5.52398",
        "address": "Unit 4487 Box 9964nDPO AA 68469"
    },
    {
        "state": "BE",
        "name": "Lovie",
        "city": "Middelkerke",
        "prov": "Flanders",
        "region": "Provincie West-Vlaanderen",
        "latt": "51.15722",
        "longt": "2.80113",
        "address": "386 Kelley PortsnDelgadomouth, OR 06328"
    },
    {
        "state": "BE",
        "name": "Zevenbergen",
        "city": "Ranst",
        "prov": "Flanders",
        "region": "Provincie Antwerpen",
        "latt": "51.19443",
        "longt": "4.55721",
        "address": "11762 Billy LakenPerezbury, UT 38342"
    },
    {
        "state": "BE",
        "name": "Farinette",
        "city": "Celles",
        "prov": "Wallonia",
        "region": "Province du Hainaut",
        "latt": "50.67751",
        "longt": "3.43359",
        "address": "25189 Matthew AvenuenNorth Bradley, TX 02605"
    },
    {
        "state": "BE",
        "name": "Zevenbergen",
        "city": "Ranst",
        "prov": "Flanders",
        "region": "Provincie Antwerpen",
        "latt": "51.19443",
        "longt": "4.55721",
        "address": "8254 Ramirez Fort Apt. 689nWest Jonathanchester, NH 92591"
    },
    {
        "state": "BE",
        "name": "Fange Jean-Jacques",
        "city": "Chiny",
        "prov": "Wallonia",
        "region": "Province du Luxembourg",
        "latt": "49.75741",
        "longt": "5.34975",
        "address": "6730 Miller Burgs Apt. 808nLake Allisonchester, MD 39742"
    },
    {
        "state": "BE",
        "name": "Baseilles",
        "city": "Tenneville",
        "prov": "Wallonia",
        "region": "Province du Luxembourg",
        "latt": "50.08333",
        "longt": "5.51667",
        "address": "72527 Cox Ville Suite 465nAustinstad, MO 89914"
    },
    {
        "state": "BE",
        "name": "De Reydt",
        "city": "Tessenderlo",
        "prov": "Flanders",
        "region": "Provincie Limburg",
        "latt": "51.083333",
        "longt": "5.1",
        "address": "978 Brandon KeysnSouth Juanton, CO 38799"
    },
    {
        "state": "BE",
        "name": "Farinette",
        "city": "Celles",
        "prov": "Wallonia",
        "region": "Province du Hainaut",
        "latt": "50.67751",
        "longt": "3.43359",
        "address": "8431 Jessica Vista Suite 846nWatsonshire, FL 53659"
    },
    {
        "state": "BE",
        "name": "Vijver",
        "city": "Ichtegem",
        "prov": "Flanders",
        "region": "Provincie West-Vlaanderen",
        "latt": "51.1",
        "longt": "3",
        "address": "687 Goodwin DrivesnRamirezshire, SD 24527"
    },
    {
        "state": "BE",
        "name": "Pepinster",
        "city": "Pepinster",
        "prov": "Wallonia",
        "region": "Province de Liu00e8ge",
        "latt": "50.57408",
        "longt": "5.80748",
        "address": "1055 Caitlin IslandsnNew Kayleeshire, SD 90538"
    },
    {
        "state": "BE",
        "name": "Flu00e9nu",
        "city": "Mons",
        "prov": "Wallonia",
        "region": "Province du Hainaut",
        "latt": "50.43673",
        "longt": "3.88573",
        "address": "USCGC RamosnFPO AE 83275"
    },
    {
        "state": "BE",
        "name": "Gros Bois de Biu00e8vre",
        "city": "Gedinne",
        "prov": "Wallonia",
        "region": "Province de Namur",
        "latt": "49.99647",
        "longt": "5.00082",
        "address": "PSC 9497, Box 4746nAPO AA 00746"
    },
    {
        "state": "BE",
        "name": "Flu00e9nu",
        "city": "Mons",
        "prov": "Wallonia",
        "region": "Province du Hainaut",
        "latt": "50.43673",
        "longt": "3.88573",
        "address": "136 Margaret SpurnWest Mary, OK 24103"
    },
    {
        "state": "BE",
        "name": "Parkbosbeek",
        "city": "Geraardsbergen",
        "prov": "Flanders",
        "region": "Provincie Oost-Vlaanderen",
        "latt": "50.79694",
        "longt": "3.84106",
        "address": "7855 Flores HavennHeidifort, OR 96037"
    },
    {
        "state": "BE",
        "name": "Vijver",
        "city": "Ichtegem",
        "prov": "Flanders",
        "region": "Provincie West-Vlaanderen",
        "latt": "51.1",
        "longt": "3",
        "address": "986 Ward WalksnLake Robyn, NH 01953"
    },
    {
        "state": "BE",
        "name": "Flu00e9nu",
        "city": "Mons",
        "prov": "Wallonia",
        "region": "Province du Hainaut",
        "latt": "50.43673",
        "longt": "3.88573",
        "address": "826 Lee Crossroad Suite 096nChristineville, ID 80195"
    },
    {
        "state": "BE",
        "name": "Vaux sous Olne",
        "city": "Soumagne",
        "prov": "Wallonia",
        "region": "Province de Liu00e8ge",
        "latt": "50.58172",
        "longt": "5.74",
        "address": "55200 Clark MeadowsnWilliamsmouth, UT 83219"
    },
    {
        "state": "BE",
        "name": "De Reydt",
        "city": "Tessenderlo",
        "prov": "Flanders",
        "region": "Provincie Limburg",
        "latt": "51.083333",
        "longt": "5.1",
        "address": "845 John UnionnJessicaport, OH 19508"
    },
    {
        "state": "BE",
        "name": "Vijver",
        "city": "Ichtegem",
        "prov": "Flanders",
        "region": "Provincie West-Vlaanderen",
        "latt": "51.1",
        "longt": "3",
        "address": "4234 Richard CirclenWest Donnaside, DE 45512"
    },
    {
        "state": "BE",
        "name": "Parkbosbeek",
        "city": "Geraardsbergen",
        "prov": "Flanders",
        "region": "Provincie Oost-Vlaanderen",
        "latt": "50.79694",
        "longt": "3.84106",
        "address": "010 Pratt CampnNorth Lisa, KS 06887"
    },
    {
        "state": "BE",
        "name": "Konkel",
        "city": "Dendermonde",
        "prov": "Flanders",
        "region": "Provincie Oost-Vlaanderen",
        "latt": "51.01667",
        "longt": "4.01667",
        "address": "24075 Richard Branch Suite 216nWest Glenda, PA 64051"
    },
    {
        "state": "BE",
        "name": "Sonnis",
        "city": "Helchteren",
        "prov": "Flanders",
        "region": "Provincie Limburg",
        "latt": "51.06717",
        "longt": "5.41709",
        "address": "9657 Keith SquaresnSueton, AL 70627"
    },
    {
        "state": "BE",
        "name": "Kraaienboshof",
        "city": "Maaseik",
        "prov": "Flanders",
        "region": "Provincie Limburg",
        "latt": "51.08333",
        "longt": "5.76667",
        "address": "98798 Collins Vista Suite 529nJasonmouth, IA 24802"
    },
    {
        "state": "BE",
        "name": "u00c9pinois",
        "city": "Binche",
        "prov": "Wallonia",
        "region": "Province du Hainaut",
        "latt": "50.406",
        "longt": "4.20666",
        "address": "290 Jeffrey Square Suite 064nOliverville, WI 00777"
    },
    {
        "state": "BE",
        "name": "Heikant",
        "city": "Sint-Amands",
        "prov": "Flanders",
        "region": "Provincie Antwerpen",
        "latt": "51.063934",
        "longt": "4.207337",
        "address": "601 Paul Mountains Apt. 788nNew Jimmyport, MS 61521"
    },
    {
        "state": "BE",
        "name": "Beekhoek",
        "city": "Wingene",
        "prov": "Flanders",
        "region": "Provincie West-Vlaanderen",
        "latt": "51.06667",
        "longt": "3.26667",
        "address": "54692 Smith Valleys Apt. 959nAprilbury, WI 17869"
    },
    {
        "state": "BE",
        "name": "Vaux sous Olne",
        "city": "Soumagne",
        "prov": "Wallonia",
        "region": "Province de Liu00e8ge",
        "latt": "50.58172",
        "longt": "5.74",
        "address": "042 Gabriel Summit Suite 508nRoberthaven, MI 77169"
    },
    {
        "state": "BE",
        "name": "Kijkuithoek",
        "city": "Wevelgem",
        "prov": "Flanders",
        "region": "Provincie West-Vlaanderen",
        "latt": "50.81667",
        "longt": "3.16667",
        "address": "479 Anthony Hill Apt. 710nSouth Josephstad, MO 11108"
    },
    {
        "state": "BE",
        "name": "Frisu00e9e",
        "city": "Hamois",
        "prov": "Wallonia",
        "region": "Province de Namur",
        "latt": "50.37423",
        "longt": "5.1274",
        "address": "1782 Andres Centers Apt. 930nSouth Roy, NE 15619"
    },
    {
        "state": "BE",
        "name": "Kraaienboshof",
        "city": "Maaseik",
        "prov": "Flanders",
        "region": "Provincie Limburg",
        "latt": "51.08333",
        "longt": "5.76667",
        "address": "742 Hunt TrailnSouth Alyssa, LA 63204"
    },
    {
        "state": "BE",
        "name": "Zevenbergen",
        "city": "Ranst",
        "prov": "Flanders",
        "region": "Provincie Antwerpen",
        "latt": "51.19443",
        "longt": "4.55721",
        "address": "99536 Thomas Harbor Suite 689nPerezport, ME 17994"
    },
    {
        "state": "BE",
        "name": "Heikant",
        "city": "Sint-Amands",
        "prov": "Flanders",
        "region": "Provincie Antwerpen",
        "latt": "51.063934",
        "longt": "4.207337",
        "address": "938 Emma HarborsnEast Tina, RI 17381"
    },
    {
        "state": "BE",
        "name": "Fange Jean-Jacques",
        "city": "Chiny",
        "prov": "Wallonia",
        "region": "Province du Luxembourg",
        "latt": "49.75741",
        "longt": "5.34975",
        "address": "726 Amy PinenGoodwintown, AL 61320"
    },
    {
        "state": "BE",
        "name": "Konkel",
        "city": "Dendermonde",
        "prov": "Flanders",
        "region": "Provincie Oost-Vlaanderen",
        "latt": "51.01667",
        "longt": "4.01667",
        "address": "82052 Marsh Curve Apt. 138nAlejandrotown, TX 65455"
    },
    {
        "state": "BE",
        "name": "Petit Sart",
        "city": "Eghezee",
        "prov": "Wallonia",
        "region": "Province de Namur",
        "latt": "50.54829",
        "longt": "4.86926",
        "address": "972 Baker Alley Apt. 671nEast Daniel, UT 94775"
    },
    {
        "state": "BE",
        "name": "Terlindenhof",
        "city": "Edegem",
        "prov": "Flanders",
        "region": "Provincie Antwerpen",
        "latt": "51.15983",
        "longt": "4.43679",
        "address": "54305 Alvarez Mountains Suite 837nEast Brandonburgh, NY 49316"
    },
    {
        "state": "BE",
        "name": "Flu00e9nu",
        "city": "Mons",
        "prov": "Wallonia",
        "region": "Province du Hainaut",
        "latt": "50.43673",
        "longt": "3.88573",
        "address": "7188 Palmer PortnGoldenchester, MS 69281"
    },
    {
        "state": "BE",
        "name": "Kijkuithoek",
        "city": "Wevelgem",
        "prov": "Flanders",
        "region": "Provincie West-Vlaanderen",
        "latt": "50.81667",
        "longt": "3.16667",
        "address": "4289 Leon Mills Apt. 287nLake Brandonborough, AZ 69558"
    },
    {
        "state": "BE",
        "name": "Farinette",
        "city": "Celles",
        "prov": "Wallonia",
        "region": "Province du Hainaut",
        "latt": "50.67751",
        "longt": "3.43359",
        "address": "1131 John Plaza Apt. 129nEast Colleen, OR 44456"
    },
    {
        "state": "BE",
        "name": "Strikken",
        "city": "Merksplas",
        "prov": "Flanders",
        "region": "Provincie Antwerpen",
        "latt": "51.39647",
        "longt": "4.86332",
        "address": "26908 Rachel Springs Apt. 831nEast Andrealand, WI 81443"
    },
    {
        "state": "BE",
        "name": "Parkbosbeek",
        "city": "Geraardsbergen",
        "prov": "Flanders",
        "region": "Provincie Oost-Vlaanderen",
        "latt": "50.79694",
        "longt": "3.84106",
        "address": "66095 Candice Forks Apt. 212nTapiamouth, WV 18825"
    },
    {
        "state": "BE",
        "name": "Munsterbilzen",
        "city": "Bilzen",
        "prov": "Flanders",
        "region": "Provincie Limburg",
        "latt": "50.886349",
        "longt": "5.533343",
        "address": "PSC 4986, Box 5951nAPO AP 73296"
    },
    {
        "state": "BE",
        "name": "Vaux sous Olne",
        "city": "Soumagne",
        "prov": "Wallonia",
        "region": "Province de Liu00e8ge",
        "latt": "50.58172",
        "longt": "5.74",
        "address": "091 Yates Skyway Suite 267nAmyberg, KS 48320"
    },
    {
        "state": "BE",
        "name": "Gros Bois de Biu00e8vre",
        "city": "Gedinne",
        "prov": "Wallonia",
        "region": "Province de Namur",
        "latt": "49.99647",
        "longt": "5.00082",
        "address": "135 Griffin RivernDavidstad, MN 19864"
    },
    {
        "state": "BE",
        "name": "Holzwarche",
        "city": "Marchin",
        "prov": "Wallonia",
        "region": "Province de Liu00e8ge",
        "latt": "50.43333",
        "longt": "5.25",
        "address": "28898 Ball Skyway Apt. 525nJohnport, CO 62074"
    },
    {
        "state": "BE",
        "name": "Petit Sart",
        "city": "Eghezee",
        "prov": "Wallonia",
        "region": "Province de Namur",
        "latt": "50.54829",
        "longt": "4.86926",
        "address": "7533 Dean HillsnJacksonmouth, ND 78062"
    },
    {
        "state": "BE",
        "name": "De Reydt",
        "city": "Tessenderlo",
        "prov": "Flanders",
        "region": "Provincie Limburg",
        "latt": "51.083333",
        "longt": "5.1",
        "address": "382 Hart WalksnNew Jeremiah, NC 60802"
    },
    {
        "state": "BE",
        "name": "Konkel",
        "city": "Dendermonde",
        "prov": "Flanders",
        "region": "Provincie Oost-Vlaanderen",
        "latt": "51.01667",
        "longt": "4.01667",
        "address": "890 Woodward Mountain Apt. 342nWest Jennifer, OH 17012"
    },
    {
        "state": "BE",
        "name": "Lotria",
        "city": "Chatelet",
        "prov": "Wallonia",
        "region": "Province de Namur",
        "latt": "50.4",
        "longt": "4.6",
        "address": "53504 Craig PathnSouth Denise, CO 98073"
    },
    {
        "state": "BE",
        "name": "Vijver",
        "city": "Ichtegem",
        "prov": "Flanders",
        "region": "Provincie West-Vlaanderen",
        "latt": "51.1",
        "longt": "3",
        "address": "410 Emily Tunnel Suite 853nPeterborough, VA 98688"
    },
    {
        "state": "BE",
        "name": "Sonnis",
        "city": "Helchteren",
        "prov": "Flanders",
        "region": "Provincie Limburg",
        "latt": "51.06717",
        "longt": "5.41709",
        "address": "05332 Tate WellnNorth Denise, MT 41669"
    },
    {
        "state": "BE",
        "name": "Holzwarche",
        "city": "Marchin",
        "prov": "Wallonia",
        "region": "Province de Liu00e8ge",
        "latt": "50.43333",
        "longt": "5.25",
        "address": "8158 Stephanie Mall Apt. 296nJasonview, VA 27792"
    },
    {
        "state": "BE",
        "name": "Lotria",
        "city": "Chatelet",
        "prov": "Wallonia",
        "region": "Province de Namur",
        "latt": "50.4",
        "longt": "4.6",
        "address": "884 Smith PortnMeganberg, WY 16608"
    },
    {
        "state": "BE",
        "name": "Hagaard",
        "city": "Overijse",
        "prov": "Flanders",
        "region": "Provincie Vlaams-Brabant",
        "latt": "50.7592",
        "longt": "4.51997",
        "address": "030 Heather PortsnPort Ashley, MO 78794"
    },
    {
        "state": "BE",
        "name": "Flu00e9nu",
        "city": "Mons",
        "prov": "Wallonia",
        "region": "Province du Hainaut",
        "latt": "50.43673",
        "longt": "3.88573",
        "address": "27686 Todd Burgs Apt. 147nSouth Austinbury, NV 14503"
    },
    {
        "state": "BE",
        "name": "Konkel",
        "city": "Dendermonde",
        "prov": "Flanders",
        "region": "Provincie Oost-Vlaanderen",
        "latt": "51.01667",
        "longt": "4.01667",
        "address": "55014 Poole Shore Apt. 501nEast Heathershire, DC 04829"
    },
    {
        "state": "BE",
        "name": "Zevenbergen",
        "city": "Ranst",
        "prov": "Flanders",
        "region": "Provincie Antwerpen",
        "latt": "51.19443",
        "longt": "4.55721",
        "address": "4079 Hernandez ParkwaynEast Destiny, AZ 89501"
    },
    {
        "state": "BE",
        "name": "Farinette",
        "city": "Celles",
        "prov": "Wallonia",
        "region": "Province du Hainaut",
        "latt": "50.67751",
        "longt": "3.43359",
        "address": "9986 Adam Way Suite 783nLisamouth, PA 80074"
    },
    {
        "state": "BE",
        "name": "Flu00e9nu",
        "city": "Mons",
        "prov": "Wallonia",
        "region": "Province du Hainaut",
        "latt": "50.43673",
        "longt": "3.88573",
        "address": "76686 Jonathan OrchardnRobertview, MT 28447"
    },
    {
        "state": "BE",
        "name": "Konkel",
        "city": "Dendermonde",
        "prov": "Flanders",
        "region": "Provincie Oost-Vlaanderen",
        "latt": "51.01667",
        "longt": "4.01667",
        "address": "2173 Patrick Grove Apt. 933nPort Davidfort, VT 47576"
    },
    {
        "state": "BE",
        "name": "Kijkuithoek",
        "city": "Wevelgem",
        "prov": "Flanders",
        "region": "Provincie West-Vlaanderen",
        "latt": "50.81667",
        "longt": "3.16667",
        "address": "8931 Deborah Prairie Apt. 510nNorth Kyle, DE 09628"
    },
    {
        "state": "BE",
        "name": "Flu00e9nu",
        "city": "Mons",
        "prov": "Wallonia",
        "region": "Province du Hainaut",
        "latt": "50.43673",
        "longt": "3.88573",
        "address": "1623 Stein PassnMitchellmouth, PA 08664"
    },
    {
        "state": "BE",
        "name": "Kijkuithoek",
        "city": "Wevelgem",
        "prov": "Flanders",
        "region": "Provincie West-Vlaanderen",
        "latt": "50.81667",
        "longt": "3.16667",
        "address": "2809 Sarah OrchardnAllisonstad, AZ 14816"
    },
    {
        "state": "BE",
        "name": "Zevenbergen",
        "city": "Ranst",
        "prov": "Flanders",
        "region": "Provincie Antwerpen",
        "latt": "51.19443",
        "longt": "4.55721",
        "address": "6265 Robert ExpresswaynSouth Philliphaven, OK 56505"
    },
    {
        "state": "BE",
        "name": "Vaux sous Olne",
        "city": "Soumagne",
        "prov": "Wallonia",
        "region": "Province de Liu00e8ge",
        "latt": "50.58172",
        "longt": "5.74",
        "address": "0549 Smith Spring Apt. 296nNew Maryfurt, IL 58619"
    },
    {
        "state": "BE",
        "name": "Petit Sart",
        "city": "Eghezee",
        "prov": "Wallonia",
        "region": "Province de Namur",
        "latt": "50.54829",
        "longt": "4.86926",
        "address": "379 Tyler PassagenAmandafurt, VT 18377"
    },
    {
        "state": "BE",
        "name": "Petit Sart",
        "city": "Eghezee",
        "prov": "Wallonia",
        "region": "Province de Namur",
        "latt": "50.54829",
        "longt": "4.86926",
        "address": "USNV MeyernFPO AP 66317"
    },
    {
        "state": "BE",
        "name": "Lovie",
        "city": "Middelkerke",
        "prov": "Flanders",
        "region": "Provincie West-Vlaanderen",
        "latt": "51.15722",
        "longt": "2.80113",
        "address": "78292 Branch Roads Suite 492nKristineport, MT 01841"
    },
    {
        "state": "BE",
        "name": "Ketstraat",
        "city": "De Pinte",
        "prov": "Flanders",
        "region": "Provincie Oost-Vlaanderen",
        "latt": "51",
        "longt": "3.65",
        "address": "51674 Richard FerrynWest Stephanie, MA 50578"
    },
    {
        "state": "BE",
        "name": "Hagaard",
        "city": "Overijse",
        "prov": "Flanders",
        "region": "Provincie Vlaams-Brabant",
        "latt": "50.7592",
        "longt": "4.51997",
        "address": "382 Garrett Stream Suite 790nWest Richard, NJ 45748"
    },
    {
        "state": "BE",
        "name": "Sonnis",
        "city": "Helchteren",
        "prov": "Flanders",
        "region": "Provincie Limburg",
        "latt": "51.06717",
        "longt": "5.41709",
        "address": "6954 Craig SpursnLopezhaven, NH 85882"
    },
    {
        "state": "BE",
        "name": "Hagaard",
        "city": "Overijse",
        "prov": "Flanders",
        "region": "Provincie Vlaams-Brabant",
        "latt": "50.7592",
        "longt": "4.51997",
        "address": "56537 Baird TracenSouth Adam, LA 77427"
    },
    {
        "state": "BE",
        "name": "Zevenbergen",
        "city": "Ranst",
        "prov": "Flanders",
        "region": "Provincie Antwerpen",
        "latt": "51.19443",
        "longt": "4.55721",
        "address": "5949 Huff IslenSmithmouth, HI 38860"
    },
    {
        "state": "BE",
        "name": "Molenheiken",
        "city": "Ravels",
        "prov": "Flanders",
        "region": "Provincie Antwerpen",
        "latt": "51.4048",
        "longt": "5.02427",
        "address": "2357 Roy Shoals Apt. 350nKristinmouth, CA 91101"
    },
    {
        "state": "BE",
        "name": "Ottignies-Louvain-la-Neuve",
        "city": "Louvain-la-Neuve",
        "prov": "Wallonia",
        "region": "Province du Brabant Wallon",
        "latt": "50.66714",
        "longt": "4.55023",
        "address": "31938 Glenn ParkwaysnAnthonyland, HI 13152"
    },
    {
        "state": "BE",
        "name": "Gros Bois de Biu00e8vre",
        "city": "Gedinne",
        "prov": "Wallonia",
        "region": "Province de Namur",
        "latt": "49.99647",
        "longt": "5.00082",
        "address": "797 Kristen Cape Suite 129nEast Brianbury, AK 37078"
    },
    {
        "state": "BE",
        "name": "Vogelsberg",
        "city": "Wellen",
        "prov": "Flanders",
        "region": "Provincie Limburg",
        "latt": "50.83333",
        "longt": "5.36667",
        "address": "40556 Donna Terrace Suite 142nWhiteheadville, CA 69902"
    },
    {
        "state": "BE",
        "name": "Bois de Miaimonts",
        "city": "Gedinne",
        "prov": "Wallonia",
        "region": "Province de Namur",
        "latt": "50.033333",
        "longt": "4.933333",
        "address": "779 Hall Pass Suite 471nChristophermouth, MN 08792"
    },
    {
        "state": "BE",
        "name": "Heikant",
        "city": "Sint-Amands",
        "prov": "Flanders",
        "region": "Provincie Antwerpen",
        "latt": "51.063934",
        "longt": "4.207337",
        "address": "0772 Hernandez Station Apt. 910nNew Raymondchester, OH 30461"
    },
    {
        "state": "BE",
        "name": "Terlindenhof",
        "city": "Edegem",
        "prov": "Flanders",
        "region": "Provincie Antwerpen",
        "latt": "51.15983",
        "longt": "4.43679",
        "address": "Unit 6540 Box 7968nDPO AP 65710"
    },
    {
        "state": "BE",
        "name": "Hagaard",
        "city": "Overijse",
        "prov": "Flanders",
        "region": "Provincie Vlaams-Brabant",
        "latt": "50.7592",
        "longt": "4.51997",
        "address": "USNV MendozanFPO AE 68533"
    },
    {
        "state": "BE",
        "name": "Kijkuithoek",
        "city": "Wevelgem",
        "prov": "Flanders",
        "region": "Provincie West-Vlaanderen",
        "latt": "50.81667",
        "longt": "3.16667",
        "address": "426 Briana Drive Suite 403nWest Brittney, RI 77035"
    },
    {
        "state": "BE",
        "name": "Ketstraat",
        "city": "De Pinte",
        "prov": "Flanders",
        "region": "Provincie Oost-Vlaanderen",
        "latt": "51",
        "longt": "3.65",
        "address": "7322 Amy WaysnEast Christina, OR 38254"
    },
    {
        "state": "BE",
        "name": "Farinette",
        "city": "Celles",
        "prov": "Wallonia",
        "region": "Province du Hainaut",
        "latt": "50.67751",
        "longt": "3.43359",
        "address": "953 Eric PinesnNorth Jonathanfort, NV 68149"
    },
    {
        "state": "BE",
        "name": "Houdemont",
        "city": "Habay-la-Vieille",
        "prov": "Wallonia",
        "region": "Province du Luxembourg",
        "latt": "49.71872",
        "longt": "5.58376",
        "address": "757 Alvarez Lodge Apt. 896nMcgeeborough, UT 68668"
    },
    {
        "state": "BE",
        "name": "Hagaard",
        "city": "Overijse",
        "prov": "Flanders",
        "region": "Provincie Vlaams-Brabant",
        "latt": "50.7592",
        "longt": "4.51997",
        "address": "071 Ralph Shoal Apt. 436nCaldwellton, KY 89244"
    },
    {
        "state": "BE",
        "name": "Vogelsberg",
        "city": "Wellen",
        "prov": "Flanders",
        "region": "Provincie Limburg",
        "latt": "50.83333",
        "longt": "5.36667",
        "address": "3470 Brittany Port Apt. 384nChristianburgh, MO 76200"
    },
    {
        "state": "BE",
        "name": "Hagaard",
        "city": "Overijse",
        "prov": "Flanders",
        "region": "Provincie Vlaams-Brabant",
        "latt": "50.7592",
        "longt": "4.51997",
        "address": "8593 Miranda Oval Suite 509nTroyville, ID 86295"
    },
    {
        "state": "BE",
        "name": "Farinette",
        "city": "Celles",
        "prov": "Wallonia",
        "region": "Province du Hainaut",
        "latt": "50.67751",
        "longt": "3.43359",
        "address": "471 Jasmine InletnNew Tinafort, CT 48147"
    },
    {
        "state": "BE",
        "name": "Parkbosbeek",
        "city": "Geraardsbergen",
        "prov": "Flanders",
        "region": "Provincie Oost-Vlaanderen",
        "latt": "50.79694",
        "longt": "3.84106",
        "address": "340 David Estate Suite 770nTimothyshire, TN 31226"
    },
    {
        "state": "BE",
        "name": "Heikant",
        "city": "Sint-Amands",
        "prov": "Flanders",
        "region": "Provincie Antwerpen",
        "latt": "51.063934",
        "longt": "4.207337",
        "address": "597 Sandra RownLake Judy, MO 50710"
    },
    {
        "state": "BE",
        "name": "Heikant",
        "city": "Sint-Amands",
        "prov": "Flanders",
        "region": "Provincie Antwerpen",
        "latt": "51.063934",
        "longt": "4.207337",
        "address": "7948 Anderson Stream Suite 615nKramermouth, GA 49317"
    },
    {
        "state": "BE",
        "name": "Froidchapelle",
        "city": "Froidchapelle",
        "prov": "Wallonia",
        "region": "Province du Hainaut",
        "latt": "50.1515",
        "longt": "4.32964",
        "address": "249 Kimberly SpursnScottshire, NM 48786"
    },
    {
        "state": "BE",
        "name": "Haut des Miniu00e8res",
        "city": "Tintigny",
        "prov": "Wallonia",
        "region": "Province du Luxembourg",
        "latt": "49.65401",
        "longt": "5.52398",
        "address": "502 Anderson BypassnPittmanborough, MA 31932"
    },
    {
        "state": "BE",
        "name": "Baseilles",
        "city": "Tenneville",
        "prov": "Wallonia",
        "region": "Province du Luxembourg",
        "latt": "50.08333",
        "longt": "5.51667",
        "address": "6741 Amy VistanNorth Justinview, MT 09040"
    },
    {
        "state": "BE",
        "name": "Houdemont",
        "city": "Habay-la-Vieille",
        "prov": "Wallonia",
        "region": "Province du Luxembourg",
        "latt": "49.71872",
        "longt": "5.58376",
        "address": "PSC 6382, Box 4764nAPO AP 93211"
    },
    {
        "state": "BE",
        "name": "Vaux sous Olne",
        "city": "Soumagne",
        "prov": "Wallonia",
        "region": "Province de Liu00e8ge",
        "latt": "50.58172",
        "longt": "5.74",
        "address": "0686 Mueller River Apt. 393nPort Jesusshire, FL 06386"
    },
    {
        "state": "BE",
        "name": "De Reydt",
        "city": "Tessenderlo",
        "prov": "Flanders",
        "region": "Provincie Limburg",
        "latt": "51.083333",
        "longt": "5.1",
        "address": "09511 Dunn Ford Apt. 440nEast Wendybury, CO 41376"
    },
    {
        "state": "BE",
        "name": "Frisu00e9e",
        "city": "Hamois",
        "prov": "Wallonia",
        "region": "Province de Namur",
        "latt": "50.37423",
        "longt": "5.1274",
        "address": "USNS MartineznFPO AE 15719"
    },
    {
        "state": "BE",
        "name": "Zevenbergen",
        "city": "Ranst",
        "prov": "Flanders",
        "region": "Provincie Antwerpen",
        "latt": "51.19443",
        "longt": "4.55721",
        "address": "4601 Eric GrovenOrtegaside, WA 69454"
    },
    {
        "state": "BE",
        "name": "Vogelsberg",
        "city": "Wellen",
        "prov": "Flanders",
        "region": "Provincie Limburg",
        "latt": "50.83333",
        "longt": "5.36667",
        "address": "021 Brown Valleys Apt. 805nLake Phillip, NC 37138"
    },
    {
        "state": "BE",
        "name": "Vijver",
        "city": "Ichtegem",
        "prov": "Flanders",
        "region": "Provincie West-Vlaanderen",
        "latt": "51.1",
        "longt": "3",
        "address": "6314 Stephen Falls Apt. 460nTerrancetown, MT 65429"
    },
    {
        "state": "BE",
        "name": "Heikant",
        "city": "Sint-Amands",
        "prov": "Flanders",
        "region": "Provincie Antwerpen",
        "latt": "51.063934",
        "longt": "4.207337",
        "address": "PSC 1415, Box 4564nAPO AE 61336"
    },
    {
        "state": "BE",
        "name": "Parkbosbeek",
        "city": "Geraardsbergen",
        "prov": "Flanders",
        "region": "Provincie Oost-Vlaanderen",
        "latt": "50.79694",
        "longt": "3.84106",
        "address": "149 Moore LoopnJulieview, CT 91643"
    },
    {
        "state": "BE",
        "name": "Sonnis",
        "city": "Helchteren",
        "prov": "Flanders",
        "region": "Provincie Limburg",
        "latt": "51.06717",
        "longt": "5.41709",
        "address": "7846 Gonzalez EstatenNorth Jessica, ID 89693"
    },
    {
        "state": "BE",
        "name": "Farinette",
        "city": "Celles",
        "prov": "Wallonia",
        "region": "Province du Hainaut",
        "latt": "50.67751",
        "longt": "3.43359",
        "address": "1537 Shaffer PrairienAdamsview, VT 37837"
    },
    {
        "state": "BE",
        "name": "Pepinster",
        "city": "Pepinster",
        "prov": "Wallonia",
        "region": "Province de Liu00e8ge",
        "latt": "50.57408",
        "longt": "5.80748",
        "address": "8867 Patrick Street Apt. 276nSouth Ellenborough, IN 99394"
    },
    {
        "state": "BE",
        "name": "Lotria",
        "city": "Chatelet",
        "prov": "Wallonia",
        "region": "Province de Namur",
        "latt": "50.4",
        "longt": "4.6",
        "address": "47975 Jackson Extension Suite 411nCynthiabury, MO 10599"
    },
    {
        "state": "BE",
        "name": "Marniu00e8re",
        "city": "Tournai",
        "prov": "Wallonia",
        "region": "Province du Hainaut",
        "latt": "50.56667",
        "longt": "3.33333",
        "address": "4329 Brian Trace Suite 482nLake Tarahaven, DE 25311"
    },
    {
        "state": "BE",
        "name": "Heikant",
        "city": "Sint-Amands",
        "prov": "Flanders",
        "region": "Provincie Antwerpen",
        "latt": "51.063934",
        "longt": "4.207337",
        "address": "945 Linda Park Apt. 444nDavidmouth, LA 06987"
    },
    {
        "state": "BE",
        "name": "Vaux sous Olne",
        "city": "Soumagne",
        "prov": "Wallonia",
        "region": "Province de Liu00e8ge",
        "latt": "50.58172",
        "longt": "5.74",
        "address": "PSC 3270, Box 8910nAPO AP 70861"
    },
    {
        "state": "BE",
        "name": "Konkel",
        "city": "Dendermonde",
        "prov": "Flanders",
        "region": "Provincie Oost-Vlaanderen",
        "latt": "51.01667",
        "longt": "4.01667",
        "address": "3306 Patterson Crossing Suite 945nLopezborough, NE 20807"
    },
    {
        "state": "BE",
        "name": "Gros Bois de Biu00e8vre",
        "city": "Gedinne",
        "prov": "Wallonia",
        "region": "Province de Namur",
        "latt": "49.99647",
        "longt": "5.00082",
        "address": "1282 Stephen StreetnSarahchester, OH 50716"
    },
    {
        "state": "BE",
        "name": "Ham",
        "city": "Waregem",
        "prov": "Flanders",
        "region": "Provincie Oost-Vlaanderen",
        "latt": "50.94066",
        "longt": "3.45852",
        "address": "18047 Patricia PointnLake Sarah, DC 54634"
    },
    {
        "state": "BE",
        "name": "De Reydt",
        "city": "Tessenderlo",
        "prov": "Flanders",
        "region": "Provincie Limburg",
        "latt": "51.083333",
        "longt": "5.1",
        "address": "79986 Martinez PinenFisherbury, DC 03273"
    },
    {
        "state": "BE",
        "name": "De Reydt",
        "city": "Tessenderlo",
        "prov": "Flanders",
        "region": "Provincie Limburg",
        "latt": "51.083333",
        "longt": "5.1",
        "address": "620 Lambert Glen Apt. 148nLake Georgeville, NV 67490"
    },
    {
        "state": "BE",
        "name": "Parkbosbeek",
        "city": "Geraardsbergen",
        "prov": "Flanders",
        "region": "Provincie Oost-Vlaanderen",
        "latt": "50.79694",
        "longt": "3.84106",
        "address": "88157 Hamilton Station Apt. 542nNewtonland, RI 03348"
    },
    {
        "state": "BE",
        "name": "Holzwarche",
        "city": "Marchin",
        "prov": "Wallonia",
        "region": "Province de Liu00e8ge",
        "latt": "50.43333",
        "longt": "5.25",
        "address": "13125 Wilkinson Valley Apt. 578nLindahaven, RI 23598"
    },
    {
        "state": "BE",
        "name": "Houdemont",
        "city": "Habay-la-Vieille",
        "prov": "Wallonia",
        "region": "Province du Luxembourg",
        "latt": "49.71872",
        "longt": "5.58376",
        "address": "2002 Fisher LodgenLake Lisa, AR 75540"
    },
    {
        "state": "BE",
        "name": "Gros Bois de Biu00e8vre",
        "city": "Gedinne",
        "prov": "Wallonia",
        "region": "Province de Namur",
        "latt": "49.99647",
        "longt": "5.00082",
        "address": "PSC 0028, Box 8073nAPO AE 00524"
    },
    {
        "state": "BE",
        "name": "Vogelsberg",
        "city": "Wellen",
        "prov": "Flanders",
        "region": "Provincie Limburg",
        "latt": "50.83333",
        "longt": "5.36667",
        "address": "2840 Bailey Station Apt. 780nLake Jill, NH 00651"
    },
    {
        "state": "BE",
        "name": "Flu00e9nu",
        "city": "Mons",
        "prov": "Wallonia",
        "region": "Province du Hainaut",
        "latt": "50.43673",
        "longt": "3.88573",
        "address": "4028 Wilson Heights Apt. 493nEast Michelle, MD 85110"
    },
    {
        "state": "BE",
        "name": "Monceau",
        "city": "Stoumont",
        "prov": "Wallonia",
        "region": "Province de Liu00e8ge",
        "latt": "50.39208",
        "longt": "5.82219",
        "address": "86745 Roger PointnMendeztown, IN 77568"
    },
    {
        "state": "BE",
        "name": "Heikant",
        "city": "Sint-Amands",
        "prov": "Flanders",
        "region": "Provincie Antwerpen",
        "latt": "51.063934",
        "longt": "4.207337",
        "address": "3745 Hartman PikenAguilarmouth, TN 28862"
    },
    {
        "state": "BE",
        "name": "Heikant",
        "city": "Sint-Amands",
        "prov": "Flanders",
        "region": "Provincie Antwerpen",
        "latt": "51.063934",
        "longt": "4.207337",
        "address": "552 Chavez LandingnJonesberg, TX 11603"
    },
    {
        "state": "BE",
        "name": "Terlindenhof",
        "city": "Edegem",
        "prov": "Flanders",
        "region": "Provincie Antwerpen",
        "latt": "51.15983",
        "longt": "4.43679",
        "address": "885 Mcmahon CentersnDianamouth, NM 51882"
    },
    {
        "state": "BE",
        "name": "Holzwarche",
        "city": "Marchin",
        "prov": "Wallonia",
        "region": "Province de Liu00e8ge",
        "latt": "50.43333",
        "longt": "5.25",
        "address": "2225 Rachel MountainnJeffreyhaven, KY 79881"
    },
    {
        "state": "BE",
        "name": "u00c9pinois",
        "city": "Binche",
        "prov": "Wallonia",
        "region": "Province du Hainaut",
        "latt": "50.406",
        "longt": "4.20666",
        "address": "204 Katherine Lakes Apt. 115nWest Melanieview, WI 27997"
    },
    {
        "state": "BE",
        "name": "Holzwarche",
        "city": "Marchin",
        "prov": "Wallonia",
        "region": "Province de Liu00e8ge",
        "latt": "50.43333",
        "longt": "5.25",
        "address": "299 Williams Spurs Apt. 287nNorth Erica, MD 97380"
    },
    {
        "state": "BE",
        "name": "Lovie",
        "city": "Middelkerke",
        "prov": "Flanders",
        "region": "Provincie West-Vlaanderen",
        "latt": "51.15722",
        "longt": "2.80113",
        "address": "USCGC SmithnFPO AA 22466"
    },
    {
        "state": "BE",
        "name": "Vijver",
        "city": "Ichtegem",
        "prov": "Flanders",
        "region": "Provincie West-Vlaanderen",
        "latt": "51.1",
        "longt": "3",
        "address": "482 David BurgnCalebbury, KY 88549"
    },
    {
        "state": "BE",
        "name": "Farinette",
        "city": "Celles",
        "prov": "Wallonia",
        "region": "Province du Hainaut",
        "latt": "50.67751",
        "longt": "3.43359",
        "address": "PSC 8820, Box 6639nAPO AA 95609"
    },
    {
        "state": "BE",
        "name": "Vogelsberg",
        "city": "Wellen",
        "prov": "Flanders",
        "region": "Provincie Limburg",
        "latt": "50.83333",
        "longt": "5.36667",
        "address": "42603 Carr Camp Apt. 485nHeatherside, HI 79786"
    },
    {
        "state": "BE",
        "name": "Kijkuithoek",
        "city": "Wevelgem",
        "prov": "Flanders",
        "region": "Provincie West-Vlaanderen",
        "latt": "50.81667",
        "longt": "3.16667",
        "address": "2425 Watson Plains Suite 311nJenniferton, GA 21905"
    },
    {
        "state": "BE",
        "name": "Konkel",
        "city": "Dendermonde",
        "prov": "Flanders",
        "region": "Provincie Oost-Vlaanderen",
        "latt": "51.01667",
        "longt": "4.01667",
        "address": "6683 Jason GardennJennyview, VA 42594"
    },
    {
        "state": "BE",
        "name": "Strikken",
        "city": "Merksplas",
        "prov": "Flanders",
        "region": "Provincie Antwerpen",
        "latt": "51.39647",
        "longt": "4.86332",
        "address": "95540 Mcfarland LanenSouth Michaelfort, TX 78125"
    },
    {
        "state": "BE",
        "name": "Flu00e9nu",
        "city": "Mons",
        "prov": "Wallonia",
        "region": "Province du Hainaut",
        "latt": "50.43673",
        "longt": "3.88573",
        "address": "7745 Lisa FallnLake Melanie, AR 41507"
    },
    {
        "state": "BE",
        "name": "Monceau",
        "city": "Stoumont",
        "prov": "Wallonia",
        "region": "Province de Liu00e8ge",
        "latt": "50.39208",
        "longt": "5.82219",
        "address": "85896 Henry MillnWest Judith, DE 27247"
    },
    {
        "state": "BE",
        "name": "Houffalize",
        "city": "Houffalize",
        "prov": "Wallonia",
        "region": "Province du Luxembourg",
        "latt": "50.13323",
        "longt": "5.78889",
        "address": "19083 Johnny Trail Apt. 594nNorth Jo, NH 07204"
    },
    {
        "state": "BE",
        "name": "Zevenbergen",
        "city": "Ranst",
        "prov": "Flanders",
        "region": "Provincie Antwerpen",
        "latt": "51.19443",
        "longt": "4.55721",
        "address": "PSC 4281, Box 8957nAPO AE 09870"
    },
    {
        "state": "BE",
        "name": "Houdemont",
        "city": "Habay-la-Vieille",
        "prov": "Wallonia",
        "region": "Province du Luxembourg",
        "latt": "49.71872",
        "longt": "5.58376",
        "address": "3810 Daniel Vista Apt. 080nMcintoshburgh, NM 07037"
    },
    {
        "state": "BE",
        "name": "Hauts Marais",
        "city": "Hauts Marais",
        "prov": "Wallonia",
        "region": "Province du Hainaut",
        "latt": "49.96667",
        "longt": "4.4",
        "address": "97603 Brent Knoll Apt. 688nNorth Christine, WV 97323"
    },
    {
        "state": "BE",
        "name": "Parkbosbeek",
        "city": "Geraardsbergen",
        "prov": "Flanders",
        "region": "Provincie Oost-Vlaanderen",
        "latt": "50.79694",
        "longt": "3.84106",
        "address": "8621 Tara GrovesnPort John, IL 41716"
    },
    {
        "state": "BE",
        "name": "Vijver",
        "city": "Ichtegem",
        "prov": "Flanders",
        "region": "Provincie West-Vlaanderen",
        "latt": "51.1",
        "longt": "3",
        "address": "5554 Mark DividenWest Melissa, WV 42658"
    },
    {
        "state": "BE",
        "name": "Ottignies-Louvain-la-Neuve",
        "city": "Louvain-la-Neuve",
        "prov": "Wallonia",
        "region": "Province du Brabant Wallon",
        "latt": "50.66714",
        "longt": "4.55023",
        "address": "46008 Goodman CrestnPort Jamie, NJ 99315"
    },
    {
        "state": "BE",
        "name": "Marniu00e8re",
        "city": "Tournai",
        "prov": "Wallonia",
        "region": "Province du Hainaut",
        "latt": "50.56667",
        "longt": "3.33333",
        "address": "67647 Collins Heights Apt. 774nDavidside, ME 47262"
    },
    {
        "state": "BE",
        "name": "Zevenbergen",
        "city": "Ranst",
        "prov": "Flanders",
        "region": "Provincie Antwerpen",
        "latt": "51.19443",
        "longt": "4.55721",
        "address": "9343 Nelson RoadnSouth Julie, UT 91648"
    },
    {
        "state": "BE",
        "name": "Vaux sous Olne",
        "city": "Soumagne",
        "prov": "Wallonia",
        "region": "Province de Liu00e8ge",
        "latt": "50.58172",
        "longt": "5.74",
        "address": "83119 Wilson Valleys Suite 085nJoannastad, DE 95414"
    },
    {
        "state": "BE",
        "name": "Flu00e9nu",
        "city": "Mons",
        "prov": "Wallonia",
        "region": "Province du Hainaut",
        "latt": "50.43673",
        "longt": "3.88573",
        "address": "1405 Burns Crossing Apt. 560nJosephview, DC 75257"
    },
    {
        "state": "BE",
        "name": "u00c9pinois",
        "city": "Binche",
        "prov": "Wallonia",
        "region": "Province du Hainaut",
        "latt": "50.406",
        "longt": "4.20666",
        "address": "157 Martinez Rapids Suite 000nJohnsonborough, WV 55874"
    },
    {
        "state": "BE",
        "name": "Terlindenhof",
        "city": "Edegem",
        "prov": "Flanders",
        "region": "Provincie Antwerpen",
        "latt": "51.15983",
        "longt": "4.43679",
        "address": "PSC 4116, Box 7624nAPO AE 29199"
    },
    {
        "state": "BE",
        "name": "Houdemont",
        "city": "Habay-la-Vieille",
        "prov": "Wallonia",
        "region": "Province du Luxembourg",
        "latt": "49.71872",
        "longt": "5.58376",
        "address": "28857 Christina AlleynAaronmouth, RI 36718"
    },
    {
        "state": "BE",
        "name": "Terlindenhof",
        "city": "Edegem",
        "prov": "Flanders",
        "region": "Provincie Antwerpen",
        "latt": "51.15983",
        "longt": "4.43679",
        "address": "442 Sarah Coves Suite 650nPenaland, OK 44494"
    },
    {
        "state": "BE",
        "name": "Fange Jean-Jacques",
        "city": "Chiny",
        "prov": "Wallonia",
        "region": "Province du Luxembourg",
        "latt": "49.75741",
        "longt": "5.34975",
        "address": "49702 Michelle Cliff Apt. 946nThompsonborough, MS 25890"
    },
    {
        "state": "BE",
        "name": "Munsterbilzen",
        "city": "Bilzen",
        "prov": "Flanders",
        "region": "Provincie Limburg",
        "latt": "50.886349",
        "longt": "5.533343",
        "address": "748 Jennifer CourtsnEast Jenniferton, MI 50221"
    },
    {
        "state": "BE",
        "name": "Vaux sous Olne",
        "city": "Soumagne",
        "prov": "Wallonia",
        "region": "Province de Liu00e8ge",
        "latt": "50.58172",
        "longt": "5.74",
        "address": "414 Michael PinenLake Joseph, KY 69192"
    },
    {
        "state": "BE",
        "name": "Farinette",
        "city": "Celles",
        "prov": "Wallonia",
        "region": "Province du Hainaut",
        "latt": "50.67751",
        "longt": "3.43359",
        "address": "18542 Harrison Fall Apt. 000nDavisberg, NM 80461"
    },
    {
        "state": "BE",
        "name": "Strikken",
        "city": "Merksplas",
        "prov": "Flanders",
        "region": "Provincie Antwerpen",
        "latt": "51.39647",
        "longt": "4.86332",
        "address": "8114 Amy StreetnNew Daltonland, CA 50268"
    },
    {
        "state": "BE",
        "name": "Konkel",
        "city": "Dendermonde",
        "prov": "Flanders",
        "region": "Provincie Oost-Vlaanderen",
        "latt": "51.01667",
        "longt": "4.01667",
        "address": "USNS GarcianFPO AA 50384"
    },
    {
        "state": "BE",
        "name": "Sonnis",
        "city": "Helchteren",
        "prov": "Flanders",
        "region": "Provincie Limburg",
        "latt": "51.06717",
        "longt": "5.41709",
        "address": "59839 Paige Canyon Apt. 179nBarkerburgh, TN 48065"
    },
    {
        "state": "BE",
        "name": "Beekhoek",
        "city": "Wingene",
        "prov": "Flanders",
        "region": "Provincie West-Vlaanderen",
        "latt": "51.06667",
        "longt": "3.26667",
        "address": "185 Baker Dale Apt. 777nStephanieberg, CT 30202"
    },
    {
        "state": "BE",
        "name": "Ketstraat",
        "city": "De Pinte",
        "prov": "Flanders",
        "region": "Provincie Oost-Vlaanderen",
        "latt": "51",
        "longt": "3.65",
        "address": "83014 Brown CausewaynNorth Kathrynbury, DE 50860"
    },
    {
        "state": "BE",
        "name": "Zevenbergen",
        "city": "Ranst",
        "prov": "Flanders",
        "region": "Provincie Antwerpen",
        "latt": "51.19443",
        "longt": "4.55721",
        "address": "0779 Brian PortnSouth Manuelside, MT 77640"
    },
    {
        "state": "BE",
        "name": "Hagaard",
        "city": "Overijse",
        "prov": "Flanders",
        "region": "Provincie Vlaams-Brabant",
        "latt": "50.7592",
        "longt": "4.51997",
        "address": "933 Lauren RadialnNorth Jasonburgh, NE 86869"
    },
    {
        "state": "BE",
        "name": "Petit Sart",
        "city": "Eghezee",
        "prov": "Wallonia",
        "region": "Province de Namur",
        "latt": "50.54829",
        "longt": "4.86926",
        "address": "62585 Thomas GatewaynWest Jacobside, NJ 72264"
    },
    {
        "state": "BE",
        "name": "Sonnis",
        "city": "Helchteren",
        "prov": "Flanders",
        "region": "Provincie Limburg",
        "latt": "51.06717",
        "longt": "5.41709",
        "address": "470 Smith Pass Apt. 414nEast Markstad, DC 21135"
    },
    {
        "state": "BE",
        "name": "Vogelsberg",
        "city": "Wellen",
        "prov": "Flanders",
        "region": "Provincie Limburg",
        "latt": "50.83333",
        "longt": "5.36667",
        "address": "90921 Watson OverpassnJaimeview, DC 59059"
    },
    {
        "state": "BE",
        "name": "Petit Sart",
        "city": "Eghezee",
        "prov": "Wallonia",
        "region": "Province de Namur",
        "latt": "50.54829",
        "longt": "4.86926",
        "address": "USCGC JacksonnFPO AP 80885"
    },
    {
        "state": "BE",
        "name": "Monceau",
        "city": "Stoumont",
        "prov": "Wallonia",
        "region": "Province de Liu00e8ge",
        "latt": "50.39208",
        "longt": "5.82219",
        "address": "921 Juan ViewsnNew Raymond, MT 60729"
    },
    {
        "state": "BE",
        "name": "Strikken",
        "city": "Merksplas",
        "prov": "Flanders",
        "region": "Provincie Antwerpen",
        "latt": "51.39647",
        "longt": "4.86332",
        "address": "953 Bailey Lodge Apt. 926nSouth Maria, WV 12773"
    },
    {
        "state": "BE",
        "name": "Flu00e9nu",
        "city": "Mons",
        "prov": "Wallonia",
        "region": "Province du Hainaut",
        "latt": "50.43673",
        "longt": "3.88573",
        "address": "45031 Rhodes ExtensionnNorth Hannahside, IN 58531"
    },
    {
        "state": "BE",
        "name": "Monceau",
        "city": "Stoumont",
        "prov": "Wallonia",
        "region": "Province de Liu00e8ge",
        "latt": "50.39208",
        "longt": "5.82219",
        "address": "0583 Dustin Mews Suite 575nAlyssamouth, MO 32204"
    },
    {
        "state": "BE",
        "name": "Ketstraat",
        "city": "De Pinte",
        "prov": "Flanders",
        "region": "Provincie Oost-Vlaanderen",
        "latt": "51",
        "longt": "3.65",
        "address": "239 Alex Junctions Apt. 008nNorth Ethan, NE 76135"
    },
    {
        "state": "BE",
        "name": "Ketstraat",
        "city": "De Pinte",
        "prov": "Flanders",
        "region": "Provincie Oost-Vlaanderen",
        "latt": "51",
        "longt": "3.65",
        "address": "3776 Butler SummitnGuerreroville, IL 13400"
    },
    {
        "state": "BE",
        "name": "Hoogboom",
        "city": "Kapellen",
        "prov": "Flanders",
        "region": "Provincie Antwerpen",
        "latt": "51.31595",
        "longt": "4.46122",
        "address": "34275 Harper Groves Apt. 060nPamelabury, NM 08091"
    },
    {
        "state": "BE",
        "name": "Terlindenhof",
        "city": "Edegem",
        "prov": "Flanders",
        "region": "Provincie Antwerpen",
        "latt": "51.15983",
        "longt": "4.43679",
        "address": "0035 Anne BrooksnDavidland, NC 94259"
    },
    {
        "state": "BE",
        "name": "Terlindenhof",
        "city": "Edegem",
        "prov": "Flanders",
        "region": "Provincie Antwerpen",
        "latt": "51.15983",
        "longt": "4.43679",
        "address": "141 Nathan Knoll Suite 607nDavidville, MD 67057"
    },
    {
        "state": "BE",
        "name": "Monceau",
        "city": "Stoumont",
        "prov": "Wallonia",
        "region": "Province de Liu00e8ge",
        "latt": "50.39208",
        "longt": "5.82219",
        "address": "45784 Emily Pass Apt. 857nAnthonyview, LA 53076"
    },
    {
        "state": "BE",
        "name": "Parkbosbeek",
        "city": "Geraardsbergen",
        "prov": "Flanders",
        "region": "Provincie Oost-Vlaanderen",
        "latt": "50.79694",
        "longt": "3.84106",
        "address": "9068 Michael Trail Apt. 840nGreenshire, AZ 35650"
    },
    {
        "state": "BE",
        "name": "Sonnis",
        "city": "Helchteren",
        "prov": "Flanders",
        "region": "Provincie Limburg",
        "latt": "51.06717",
        "longt": "5.41709",
        "address": "5672 Mendez PathnTylerview, NM 55269"
    },
    {
        "state": "BE",
        "name": "Vogelsberg",
        "city": "Wellen",
        "prov": "Flanders",
        "region": "Provincie Limburg",
        "latt": "50.83333",
        "longt": "5.36667",
        "address": "126 Patricia SquaresnEast Regina, ID 32290"
    },
    {
        "state": "BE",
        "name": "Petit Sart",
        "city": "Eghezee",
        "prov": "Wallonia",
        "region": "Province de Namur",
        "latt": "50.54829",
        "longt": "4.86926",
        "address": "277 Hill Fort Suite 727nWest Nicolemouth, TN 99669"
    },
    {
        "state": "BE",
        "name": "Vroilandhoek",
        "city": "Vroilandhoek",
        "prov": "Flanders",
        "region": "Provincie West-Vlaanderen",
        "latt": "50.76667",
        "longt": "2.85",
        "address": "99651 Ritter RapidnToddview, IL 92144"
    },
    {
        "state": "BE",
        "name": "Vogelsberg",
        "city": "Wellen",
        "prov": "Flanders",
        "region": "Provincie Limburg",
        "latt": "50.83333",
        "longt": "5.36667",
        "address": "08075 Hendrix Mountain Apt. 042nSouth Heather, DC 98776"
    },
    {
        "state": "BE",
        "name": "Vaux sous Olne",
        "city": "Soumagne",
        "prov": "Wallonia",
        "region": "Province de Liu00e8ge",
        "latt": "50.58172",
        "longt": "5.74",
        "address": "46883 Sutton Spurs Suite 589nPort Mandy, ME 19155"
    },
    {
        "state": "BE",
        "name": "Fange Jean-Jacques",
        "city": "Chiny",
        "prov": "Wallonia",
        "region": "Province du Luxembourg",
        "latt": "49.75741",
        "longt": "5.34975",
        "address": "USNV SimpsonnFPO AA 28227"
    },
    {
        "state": "BE",
        "name": "Monceau",
        "city": "Stoumont",
        "prov": "Wallonia",
        "region": "Province de Liu00e8ge",
        "latt": "50.39208",
        "longt": "5.82219",
        "address": "964 Diaz Fort Apt. 149nLisaview, ND 81112"
    },
    {
        "state": "BE",
        "name": "Hauts Marais",
        "city": "Hauts Marais",
        "prov": "Wallonia",
        "region": "Province du Hainaut",
        "latt": "49.96667",
        "longt": "4.4",
        "address": "943 Lang Island Suite 397nBrooketown, ID 52401"
    },
    {
        "state": "BE",
        "name": "Lovie",
        "city": "Middelkerke",
        "prov": "Flanders",
        "region": "Provincie West-Vlaanderen",
        "latt": "51.15722",
        "longt": "2.80113",
        "address": "PSC 8665, Box 3960nAPO AA 51988"
    },
    {
        "state": "BE",
        "name": "Konkel",
        "city": "Dendermonde",
        "prov": "Flanders",
        "region": "Provincie Oost-Vlaanderen",
        "latt": "51.01667",
        "longt": "4.01667",
        "address": "2536 Christopher Way Suite 365nWest Brenda, TX 39214"
    },
    {
        "state": "BE",
        "name": "Flu00e9nu",
        "city": "Mons",
        "prov": "Wallonia",
        "region": "Province du Hainaut",
        "latt": "50.43673",
        "longt": "3.88573",
        "address": "7184 Timothy ForestnMcintyreville, AL 66316"
    },
    {
        "state": "BE",
        "name": "Vaux sous Olne",
        "city": "Soumagne",
        "prov": "Wallonia",
        "region": "Province de Liu00e8ge",
        "latt": "50.58172",
        "longt": "5.74",
        "address": "90409 Monica LightnJohntown, ME 57325"
    },
    {
        "state": "BE",
        "name": "Sonnis",
        "city": "Helchteren",
        "prov": "Flanders",
        "region": "Provincie Limburg",
        "latt": "51.06717",
        "longt": "5.41709",
        "address": "55497 Buchanan Ways Apt. 675nPort Davidburgh, RI 96238"
    },
    {
        "state": "BE",
        "name": "Lovie",
        "city": "Middelkerke",
        "prov": "Flanders",
        "region": "Provincie West-Vlaanderen",
        "latt": "51.15722",
        "longt": "2.80113",
        "address": "220 Marie Prairie Apt. 398nJessicamouth, NY 32302"
    },
    {
        "state": "BE",
        "name": "Flu00e9nu",
        "city": "Mons",
        "prov": "Wallonia",
        "region": "Province du Hainaut",
        "latt": "50.43673",
        "longt": "3.88573",
        "address": "87988 Williams Ways Suite 058nWest Andrew, TX 68390"
    },
    {
        "state": "BE",
        "name": "Zevenbergen",
        "city": "Ranst",
        "prov": "Flanders",
        "region": "Provincie Antwerpen",
        "latt": "51.19443",
        "longt": "4.55721",
        "address": "397 Thomas Brooks Suite 841nWilliamsonberg, SC 51573"
    },
    {
        "state": "BE",
        "name": "De Reydt",
        "city": "Tessenderlo",
        "prov": "Flanders",
        "region": "Provincie Limburg",
        "latt": "51.083333",
        "longt": "5.1",
        "address": "074 William JunctionnDavisland, WY 81894"
    },
    {
        "state": "BE",
        "name": "Farinette",
        "city": "Celles",
        "prov": "Wallonia",
        "region": "Province du Hainaut",
        "latt": "50.67751",
        "longt": "3.43359",
        "address": "946 Berger CoursenJonathanview, SD 88985"
    },
    {
        "state": "BE",
        "name": "Ottignies-Louvain-la-Neuve",
        "city": "Louvain-la-Neuve",
        "prov": "Wallonia",
        "region": "Province du Brabant Wallon",
        "latt": "50.66714",
        "longt": "4.55023",
        "address": "9504 Erin Loaf Suite 306nToddstad, CT 16636"
    },
    {
        "state": "BE",
        "name": "Fayt-le-Franc",
        "city": "Dour",
        "prov": "Wallonia",
        "region": "Province du Hainaut",
        "latt": "50.35652",
        "longt": "3.77501",
        "address": "6060 Davis Mountain Apt. 827nNew Craig, UT 90284"
    },
    {
        "state": "BE",
        "name": "Ottignies-Louvain-la-Neuve",
        "city": "Louvain-la-Neuve",
        "prov": "Wallonia",
        "region": "Province du Brabant Wallon",
        "latt": "50.66714",
        "longt": "4.55023",
        "address": "56561 Baker CapenMichaelhaven, KS 87639"
    },
    {
        "state": "BE",
        "name": "Vroilandhoek",
        "city": "Vroilandhoek",
        "prov": "Flanders",
        "region": "Provincie West-Vlaanderen",
        "latt": "50.76667",
        "longt": "2.85",
        "address": "6181 Steve CovenLake Ryantown, MI 31572"
    },
    {
        "state": "BE",
        "name": "Munsterbilzen",
        "city": "Bilzen",
        "prov": "Flanders",
        "region": "Provincie Limburg",
        "latt": "50.886349",
        "longt": "5.533343",
        "address": "08520 Harris CrossroadnWest Eric, RI 36330"
    },
    {
        "state": "BE",
        "name": "Fange Jean-Jacques",
        "city": "Chiny",
        "prov": "Wallonia",
        "region": "Province du Luxembourg",
        "latt": "49.75741",
        "longt": "5.34975",
        "address": "13789 Mckenzie HeightsnEast Amanda, MA 83577"
    },
    {
        "state": "BE",
        "name": "Flu00e9nu",
        "city": "Mons",
        "prov": "Wallonia",
        "region": "Province du Hainaut",
        "latt": "50.43673",
        "longt": "3.88573",
        "address": "9416 Thomas Burg Suite 190nSouth Kellyburgh, AZ 04399"
    },
    {
        "state": "BE",
        "name": "Flu00e9nu",
        "city": "Mons",
        "prov": "Wallonia",
        "region": "Province du Hainaut",
        "latt": "50.43673",
        "longt": "3.88573",
        "address": "2060 Cross GrovenJennifermouth, MT 81881"
    },
    {
        "state": "BE",
        "name": "Baseilles",
        "city": "Tenneville",
        "prov": "Wallonia",
        "region": "Province du Luxembourg",
        "latt": "50.08333",
        "longt": "5.51667",
        "address": "PSC 1164, Box 7919nAPO AP 69699"
    },
    {
        "state": "BE",
        "name": "Ketstraat",
        "city": "De Pinte",
        "prov": "Flanders",
        "region": "Provincie Oost-Vlaanderen",
        "latt": "51",
        "longt": "3.65",
        "address": "360 William Islands Suite 105nKimburgh, AZ 60504"
    },
    {
        "state": "BE",
        "name": "Strikken",
        "city": "Merksplas",
        "prov": "Flanders",
        "region": "Provincie Antwerpen",
        "latt": "51.39647",
        "longt": "4.86332",
        "address": "962 Myers GrovenNew Perry, VT 95661"
    },
    {
        "state": "BE",
        "name": "Flu00e9nu",
        "city": "Mons",
        "prov": "Wallonia",
        "region": "Province du Hainaut",
        "latt": "50.43673",
        "longt": "3.88573",
        "address": "321 Gary Ferry Apt. 151nAllenview, MD 12168"
    },
    {
        "state": "BE",
        "name": "Farinette",
        "city": "Celles",
        "prov": "Wallonia",
        "region": "Province du Hainaut",
        "latt": "50.67751",
        "longt": "3.43359",
        "address": "4186 Lowery HeightsnNew Donnaside, SD 15728"
    },
    {
        "state": "BE",
        "name": "Bois de Miaimonts",
        "city": "Gedinne",
        "prov": "Wallonia",
        "region": "Province de Namur",
        "latt": "50.033333",
        "longt": "4.933333",
        "address": "87978 Michelle Fields Suite 012nLake Christophermouth, IA 54212"
    },
    {
        "state": "BE",
        "name": "Vogelsberg",
        "city": "Wellen",
        "prov": "Flanders",
        "region": "Provincie Limburg",
        "latt": "50.83333",
        "longt": "5.36667",
        "address": "04699 Jones RoadsnLake Kelly, MD 99460"
    },
    {
        "state": "BE",
        "name": "Molenheiken",
        "city": "Ravels",
        "prov": "Flanders",
        "region": "Provincie Antwerpen",
        "latt": "51.4048",
        "longt": "5.02427",
        "address": "82541 Thomas MissionnNorth Williamstad, MT 75378"
    },
    {
        "state": "BE",
        "name": "Vaux sous Olne",
        "city": "Soumagne",
        "prov": "Wallonia",
        "region": "Province de Liu00e8ge",
        "latt": "50.58172",
        "longt": "5.74",
        "address": "511 Robinson PlainsnParkerstad, ND 11849"
    },
    {
        "state": "BE",
        "name": "Marniu00e8re",
        "city": "Tournai",
        "prov": "Wallonia",
        "region": "Province du Hainaut",
        "latt": "50.56667",
        "longt": "3.33333",
        "address": "652 Guzman Isle Apt. 840nWest Bethanyton, MT 89686"
    },
    {
        "state": "BE",
        "name": "Frisu00e9e",
        "city": "Hamois",
        "prov": "Wallonia",
        "region": "Province de Namur",
        "latt": "50.37423",
        "longt": "5.1274",
        "address": "71747 Caleb IslenRosalesmouth, MO 81119"
    },
    {
        "state": "BE",
        "name": "Houffalize",
        "city": "Houffalize",
        "prov": "Wallonia",
        "region": "Province du Luxembourg",
        "latt": "50.13323",
        "longt": "5.78889",
        "address": "74562 Craig PlazanSouth Brandon, TX 61414"
    },
    {
        "state": "BE",
        "name": "Petit Sart",
        "city": "Eghezee",
        "prov": "Wallonia",
        "region": "Province de Namur",
        "latt": "50.54829",
        "longt": "4.86926",
        "address": "74244 Moore ManornDavidfort, MN 63234"
    },
    {
        "state": "BE",
        "name": "Beekhoek",
        "city": "Wingene",
        "prov": "Flanders",
        "region": "Provincie West-Vlaanderen",
        "latt": "51.06667",
        "longt": "3.26667",
        "address": "676 Keller MountainsnNorth Catherine, VA 97438"
    },
    {
        "state": "BE",
        "name": "Kraaienboshof",
        "city": "Maaseik",
        "prov": "Flanders",
        "region": "Provincie Limburg",
        "latt": "51.08333",
        "longt": "5.76667",
        "address": "58325 Acevedo KnollnBaileyside, FL 55525"
    },
    {
        "state": "BE",
        "name": "Holzwarche",
        "city": "Marchin",
        "prov": "Wallonia",
        "region": "Province de Liu00e8ge",
        "latt": "50.43333",
        "longt": "5.25",
        "address": "02715 Joanna CirclenPort Brenda, MT 36963"
    },
    {
        "state": "BE",
        "name": "Hagaard",
        "city": "Overijse",
        "prov": "Flanders",
        "region": "Provincie Vlaams-Brabant",
        "latt": "50.7592",
        "longt": "4.51997",
        "address": "69257 Frances Square Suite 032nPort Wesleyborough, IL 05392"
    },
    {
        "state": "BE",
        "name": "Frisu00e9e",
        "city": "Hamois",
        "prov": "Wallonia",
        "region": "Province de Namur",
        "latt": "50.37423",
        "longt": "5.1274",
        "address": "389 Alyssa IslandnNorth Jenniferview, DE 46022"
    },
    {
        "state": "BE",
        "name": "Lotria",
        "city": "Chatelet",
        "prov": "Wallonia",
        "region": "Province de Namur",
        "latt": "50.4",
        "longt": "4.6",
        "address": "PSC 5108, Box 6712nAPO AA 33452"
    },
    {
        "state": "BE",
        "name": "Houdemont",
        "city": "Habay-la-Vieille",
        "prov": "Wallonia",
        "region": "Province du Luxembourg",
        "latt": "49.71872",
        "longt": "5.58376",
        "address": "1014 Timothy Forge Apt. 215nWest Kaylee, LA 15503"
    },
    {
        "state": "BE",
        "name": "Sonnis",
        "city": "Helchteren",
        "prov": "Flanders",
        "region": "Provincie Limburg",
        "latt": "51.06717",
        "longt": "5.41709",
        "address": "5586 Reid FallsnDaniellehaven, KS 13065"
    },
    {
        "state": "BE",
        "name": "Hagaard",
        "city": "Overijse",
        "prov": "Flanders",
        "region": "Provincie Vlaams-Brabant",
        "latt": "50.7592",
        "longt": "4.51997",
        "address": "080 Mark LandnEast Valeriestad, TN 51955"
    },
    {
        "state": "BE",
        "name": "Ottignies-Louvain-la-Neuve",
        "city": "Louvain-la-Neuve",
        "prov": "Wallonia",
        "region": "Province du Brabant Wallon",
        "latt": "50.66714",
        "longt": "4.55023",
        "address": "842 Chan ViewsnWest Ashleyburgh, SC 98025"
    },
    {
        "state": "BE",
        "name": "De Reydt",
        "city": "Tessenderlo",
        "prov": "Flanders",
        "region": "Provincie Limburg",
        "latt": "51.083333",
        "longt": "5.1",
        "address": "097 Miller Parks Suite 919nNew Christineport, NH 90960"
    },
    {
        "state": "BE",
        "name": "Baseilles",
        "city": "Tenneville",
        "prov": "Wallonia",
        "region": "Province du Luxembourg",
        "latt": "50.08333",
        "longt": "5.51667",
        "address": "402 Jonathan Brooks Suite 921nYoungmouth, OH 60872"
    },
    {
        "state": "BE",
        "name": "Flu00e9nu",
        "city": "Mons",
        "prov": "Wallonia",
        "region": "Province du Hainaut",
        "latt": "50.43673",
        "longt": "3.88573",
        "address": "442 Johnson LanenPort Logan, MI 04282"
    },
    {
        "state": "BE",
        "name": "Zevenbergen",
        "city": "Ranst",
        "prov": "Flanders",
        "region": "Provincie Antwerpen",
        "latt": "51.19443",
        "longt": "4.55721",
        "address": "346 Ivan DrivenNew Loretta, MO 85611"
    },
    {
        "state": "BE",
        "name": "Hoogboom",
        "city": "Kapellen",
        "prov": "Flanders",
        "region": "Provincie Antwerpen",
        "latt": "51.31595",
        "longt": "4.46122",
        "address": "0311 Christina Pass Suite 288nBrowntown, TN 95353"
    },
    {
        "state": "BE",
        "name": "Beekhoek",
        "city": "Wingene",
        "prov": "Flanders",
        "region": "Provincie West-Vlaanderen",
        "latt": "51.06667",
        "longt": "3.26667",
        "address": "60270 Gonzalez MountnLake Robertstad, FL 52708"
    },
    {
        "state": "BE",
        "name": "Ottignies-Louvain-la-Neuve",
        "city": "Louvain-la-Neuve",
        "prov": "Wallonia",
        "region": "Province du Brabant Wallon",
        "latt": "50.66714",
        "longt": "4.55023",
        "address": "696 Walter CornernStevenborough, NV 96581"
    },
    {
        "state": "BE",
        "name": "De Reydt",
        "city": "Tessenderlo",
        "prov": "Flanders",
        "region": "Provincie Limburg",
        "latt": "51.083333",
        "longt": "5.1",
        "address": "66701 Harper Overpass Apt. 071nEast Johnbury, VA 93795"
    },
    {
        "state": "BE",
        "name": "Ketstraat",
        "city": "De Pinte",
        "prov": "Flanders",
        "region": "Provincie Oost-Vlaanderen",
        "latt": "51",
        "longt": "3.65",
        "address": "0494 Daniel VillagenNew Toddchester, VT 66187"
    },
    {
        "state": "BE",
        "name": "Baseilles",
        "city": "Tenneville",
        "prov": "Wallonia",
        "region": "Province du Luxembourg",
        "latt": "50.08333",
        "longt": "5.51667",
        "address": "150 Hines Mill Apt. 185nNorth Corey, TN 80965"
    },
    {
        "state": "BE",
        "name": "u00c9pinois",
        "city": "Binche",
        "prov": "Wallonia",
        "region": "Province du Hainaut",
        "latt": "50.406",
        "longt": "4.20666",
        "address": "7248 Miller Summit Suite 915nWest Jason, MD 51652"
    },
    {
        "state": "BE",
        "name": "Gros Bois de Biu00e8vre",
        "city": "Gedinne",
        "prov": "Wallonia",
        "region": "Province de Namur",
        "latt": "49.99647",
        "longt": "5.00082",
        "address": "Unit 0197 Box 7748nDPO AP 95550"
    },
    {
        "state": "BE",
        "name": "Flu00e9nu",
        "city": "Mons",
        "prov": "Wallonia",
        "region": "Province du Hainaut",
        "latt": "50.43673",
        "longt": "3.88573",
        "address": "PSC 3813, Box 3747nAPO AP 77361"
    },
    {
        "state": "BE",
        "name": "Zevenbergen",
        "city": "Ranst",
        "prov": "Flanders",
        "region": "Provincie Antwerpen",
        "latt": "51.19443",
        "longt": "4.55721",
        "address": "832 Morrison Flat Suite 715nPort Johnton, MT 96706"
    },
    {
        "state": "BE",
        "name": "Lotria",
        "city": "Chatelet",
        "prov": "Wallonia",
        "region": "Province de Namur",
        "latt": "50.4",
        "longt": "4.6",
        "address": "0877 Cody Mountains Suite 024nMarkborough, FL 16666"
    },
    {
        "state": "BE",
        "name": "Houffalize",
        "city": "Houffalize",
        "prov": "Wallonia",
        "region": "Province du Luxembourg",
        "latt": "50.13323",
        "longt": "5.78889",
        "address": "6467 Marshall GlensnJulietown, NY 64847"
    },
    {
        "state": "BE",
        "name": "Kraaienboshof",
        "city": "Maaseik",
        "prov": "Flanders",
        "region": "Provincie Limburg",
        "latt": "51.08333",
        "longt": "5.76667",
        "address": "513 Paul LoafnWest Crystal, PA 00763"
    },
    {
        "state": "BE",
        "name": "Parkbosbeek",
        "city": "Geraardsbergen",
        "prov": "Flanders",
        "region": "Provincie Oost-Vlaanderen",
        "latt": "50.79694",
        "longt": "3.84106",
        "address": "457 Green Rest Apt. 604nRodriguezborough, NE 47054"
    },
    {
        "state": "BE",
        "name": "Froidchapelle",
        "city": "Froidchapelle",
        "prov": "Wallonia",
        "region": "Province du Hainaut",
        "latt": "50.1515",
        "longt": "4.32964",
        "address": "313 Tammy Hollow Apt. 261nWest Rachelstad, DC 63333"
    },
    {
        "state": "BE",
        "name": "Houdemont",
        "city": "Habay-la-Vieille",
        "prov": "Wallonia",
        "region": "Province du Luxembourg",
        "latt": "49.71872",
        "longt": "5.58376",
        "address": "929 Lopez Lights Apt. 561nLanemouth, NV 31827"
    },
    {
        "state": "BE",
        "name": "Frisu00e9e",
        "city": "Hamois",
        "prov": "Wallonia",
        "region": "Province de Namur",
        "latt": "50.37423",
        "longt": "5.1274",
        "address": "Unit 9315 Box 6850nDPO AE 23680"
    },
    {
        "state": "BE",
        "name": "Pepinster",
        "city": "Pepinster",
        "prov": "Wallonia",
        "region": "Province de Liu00e8ge",
        "latt": "50.57408",
        "longt": "5.80748",
        "address": "364 Ryan ShorenNew Rebeccatown, AZ 07846"
    },
    {
        "state": "BE",
        "name": "Monceau",
        "city": "Stoumont",
        "prov": "Wallonia",
        "region": "Province de Liu00e8ge",
        "latt": "50.39208",
        "longt": "5.82219",
        "address": "Unit 7624 Box 9363nDPO AA 18478"
    },
    {
        "state": "BE",
        "name": "Ham",
        "city": "Waregem",
        "prov": "Flanders",
        "region": "Provincie Oost-Vlaanderen",
        "latt": "50.94066",
        "longt": "3.45852",
        "address": "09644 Pacheco TerracenNorth Ashley, KY 18255"
    },
    {
        "state": "BE",
        "name": "Farinette",
        "city": "Celles",
        "prov": "Wallonia",
        "region": "Province du Hainaut",
        "latt": "50.67751",
        "longt": "3.43359",
        "address": "3111 Stevens GrovesnJohnsonburgh, NY 53289"
    },
    {
        "state": "BE",
        "name": "Lovie",
        "city": "Middelkerke",
        "prov": "Flanders",
        "region": "Provincie West-Vlaanderen",
        "latt": "51.15722",
        "longt": "2.80113",
        "address": "777 Michele LodgenMoorebury, TN 05748"
    },
    {
        "state": "BE",
        "name": "Hagaard",
        "city": "Overijse",
        "prov": "Flanders",
        "region": "Provincie Vlaams-Brabant",
        "latt": "50.7592",
        "longt": "4.51997",
        "address": "83951 Mayo Alley Apt. 165nEast Trevor, NY 29336"
    },
    {
        "state": "BE",
        "name": "u00c9pinois",
        "city": "Binche",
        "prov": "Wallonia",
        "region": "Province du Hainaut",
        "latt": "50.406",
        "longt": "4.20666",
        "address": "739 Chase TracenHeatherfort, NH 12805"
    },
    {
        "state": "BE",
        "name": "Flu00e9nu",
        "city": "Mons",
        "prov": "Wallonia",
        "region": "Province du Hainaut",
        "latt": "50.43673",
        "longt": "3.88573",
        "address": "02605 Allen Fall Apt. 238nNorth Luis, ND 78990"
    },
    {
        "state": "BE",
        "name": "Farinette",
        "city": "Celles",
        "prov": "Wallonia",
        "region": "Province du Hainaut",
        "latt": "50.67751",
        "longt": "3.43359",
        "address": "3596 Smith Skyway Apt. 870nPort Brycemouth, GA 79455"
    },
    {
        "state": "BE",
        "name": "Hagaard",
        "city": "Overijse",
        "prov": "Flanders",
        "region": "Provincie Vlaams-Brabant",
        "latt": "50.7592",
        "longt": "4.51997",
        "address": "90756 Jackson Spurs Apt. 026nLake Veronica, TN 42087"
    },
    {
        "state": "BE",
        "name": "Konkel",
        "city": "Dendermonde",
        "prov": "Flanders",
        "region": "Provincie Oost-Vlaanderen",
        "latt": "51.01667",
        "longt": "4.01667",
        "address": "73538 Pierce LoopnMirandafort, AK 09936"
    },
    {
        "state": "BE",
        "name": "Ottignies-Louvain-la-Neuve",
        "city": "Louvain-la-Neuve",
        "prov": "Wallonia",
        "region": "Province du Brabant Wallon",
        "latt": "50.66714",
        "longt": "4.55023",
        "address": "77448 Steven Tunnel Apt. 784nSouth Catherine, WY 26754"
    },
    {
        "state": "BE",
        "name": "Marniu00e8re",
        "city": "Tournai",
        "prov": "Wallonia",
        "region": "Province du Hainaut",
        "latt": "50.56667",
        "longt": "3.33333",
        "address": "70720 Lewis PlainsnSmithtown, AZ 46640"
    },
    {
        "state": "BE",
        "name": "Petit Sart",
        "city": "Eghezee",
        "prov": "Wallonia",
        "region": "Province de Namur",
        "latt": "50.54829",
        "longt": "4.86926",
        "address": "168 Marvin Radial Suite 561nEast Richardshire, TN 67147"
    },
    {
        "state": "BE",
        "name": "Monceau",
        "city": "Stoumont",
        "prov": "Wallonia",
        "region": "Province de Liu00e8ge",
        "latt": "50.39208",
        "longt": "5.82219",
        "address": "58307 Stevens Isle Suite 446nJuliafurt, MT 78911"
    },
    {
        "state": "BE",
        "name": "Fayt-le-Franc",
        "city": "Dour",
        "prov": "Wallonia",
        "region": "Province du Hainaut",
        "latt": "50.35652",
        "longt": "3.77501",
        "address": "29732 Day Drive Apt. 172nNew Daniel, ME 39914"
    },
    {
        "state": "BE",
        "name": "Farinette",
        "city": "Celles",
        "prov": "Wallonia",
        "region": "Province du Hainaut",
        "latt": "50.67751",
        "longt": "3.43359",
        "address": "3429 Strong Park Suite 315nPort Brendaland, NE 05574"
    },
    {
        "state": "BE",
        "name": "Terlindenhof",
        "city": "Edegem",
        "prov": "Flanders",
        "region": "Provincie Antwerpen",
        "latt": "51.15983",
        "longt": "4.43679",
        "address": "7786 Holly Station Suite 197nAshleytown, ME 32483"
    },
    {
        "state": "BE",
        "name": "Parkbosbeek",
        "city": "Geraardsbergen",
        "prov": "Flanders",
        "region": "Provincie Oost-Vlaanderen",
        "latt": "50.79694",
        "longt": "3.84106",
        "address": "2752 Mullen UnderpassnWest Nicholas, TX 44478"
    },
    {
        "state": "BE",
        "name": "Vogelsberg",
        "city": "Wellen",
        "prov": "Flanders",
        "region": "Provincie Limburg",
        "latt": "50.83333",
        "longt": "5.36667",
        "address": "3711 Levine RadialnKruegerport, NH 70353"
    },
    {
        "state": "BE",
        "name": "Marniu00e8re",
        "city": "Tournai",
        "prov": "Wallonia",
        "region": "Province du Hainaut",
        "latt": "50.56667",
        "longt": "3.33333",
        "address": "77268 Garcia Locks Apt. 676nAlishaside, AK 66173"
    },
    {
        "state": "BE",
        "name": "Flu00e9nu",
        "city": "Mons",
        "prov": "Wallonia",
        "region": "Province du Hainaut",
        "latt": "50.43673",
        "longt": "3.88573",
        "address": "847 Denise PassnSouth Michellestad, NY 48320"
    },
    {
        "state": "BE",
        "name": "Vijver",
        "city": "Ichtegem",
        "prov": "Flanders",
        "region": "Provincie West-Vlaanderen",
        "latt": "51.1",
        "longt": "3",
        "address": "3759 Yvonne Circle Suite 441nSouth Emily, ID 21500"
    },
    {
        "state": "BE",
        "name": "Hagaard",
        "city": "Overijse",
        "prov": "Flanders",
        "region": "Provincie Vlaams-Brabant",
        "latt": "50.7592",
        "longt": "4.51997",
        "address": "13266 Duarte HavennSouth Sean, AK 70921"
    },
    {
        "state": "BE",
        "name": "Farinette",
        "city": "Celles",
        "prov": "Wallonia",
        "region": "Province du Hainaut",
        "latt": "50.67751",
        "longt": "3.43359",
        "address": "769 Hubbard HollownRichardmouth, IL 15680"
    },
    {
        "state": "BE",
        "name": "Gros Bois de Biu00e8vre",
        "city": "Gedinne",
        "prov": "Wallonia",
        "region": "Province de Namur",
        "latt": "49.99647",
        "longt": "5.00082",
        "address": "79378 Moran Mountain Suite 228nSouth Joshua, VA 11153"
    },
    {
        "state": "BE",
        "name": "Haut des Miniu00e8res",
        "city": "Tintigny",
        "prov": "Wallonia",
        "region": "Province du Luxembourg",
        "latt": "49.65401",
        "longt": "5.52398",
        "address": "48667 Hannah Spur Suite 231nLake Renee, MA 93800"
    },
    {
        "state": "BE",
        "name": "Monceau",
        "city": "Stoumont",
        "prov": "Wallonia",
        "region": "Province de Liu00e8ge",
        "latt": "50.39208",
        "longt": "5.82219",
        "address": "30495 Sanchez RivernLake Ashley, WY 51008"
    },
    {
        "state": "BE",
        "name": "Vogelsberg",
        "city": "Wellen",
        "prov": "Flanders",
        "region": "Provincie Limburg",
        "latt": "50.83333",
        "longt": "5.36667",
        "address": "70433 Mia SquaresnMooreton, SD 38180"
    },
    {
        "state": "BE",
        "name": "Kijkuithoek",
        "city": "Wevelgem",
        "prov": "Flanders",
        "region": "Provincie West-Vlaanderen",
        "latt": "50.81667",
        "longt": "3.16667",
        "address": "530 Smith Field Suite 436nHansenland, NJ 21851"
    },
    {
        "state": "BE",
        "name": "Baseilles",
        "city": "Tenneville",
        "prov": "Wallonia",
        "region": "Province du Luxembourg",
        "latt": "50.08333",
        "longt": "5.51667",
        "address": "531 James Port Apt. 803nJenniferstad, IN 12231"
    },
    {
        "state": "BE",
        "name": "Zevenbergen",
        "city": "Ranst",
        "prov": "Flanders",
        "region": "Provincie Antwerpen",
        "latt": "51.19443",
        "longt": "4.55721",
        "address": "65051 Smith Forest Apt. 535nClarkburgh, OH 39548"
    },
    {
        "state": "BE",
        "name": "Hagaard",
        "city": "Overijse",
        "prov": "Flanders",
        "region": "Provincie Vlaams-Brabant",
        "latt": "50.7592",
        "longt": "4.51997",
        "address": "1735 Joseph LakenPort Linda, TN 26450"
    },
    {
        "state": "BE",
        "name": "Gros Bois de Biu00e8vre",
        "city": "Gedinne",
        "prov": "Wallonia",
        "region": "Province de Namur",
        "latt": "49.99647",
        "longt": "5.00082",
        "address": "599 Johnson Causeway Suite 537nSouth Robert, CT 54115"
    },
    {
        "state": "BE",
        "name": "Flu00e9nu",
        "city": "Mons",
        "prov": "Wallonia",
        "region": "Province du Hainaut",
        "latt": "50.43673",
        "longt": "3.88573",
        "address": "56622 Rose Terrace Suite 576nNew Jonathantown, OH 45914"
    },
    {
        "state": "BE",
        "name": "Hagaard",
        "city": "Overijse",
        "prov": "Flanders",
        "region": "Provincie Vlaams-Brabant",
        "latt": "50.7592",
        "longt": "4.51997",
        "address": "63148 Davis ManornEast Michaelside, LA 61150"
    },
    {
        "state": "BE",
        "name": "Houdemont",
        "city": "Habay-la-Vieille",
        "prov": "Wallonia",
        "region": "Province du Luxembourg",
        "latt": "49.71872",
        "longt": "5.58376",
        "address": "5313 Cynthia ForgesnAnthonyville, AL 82230"
    },
    {
        "state": "BE",
        "name": "Terlindenhof",
        "city": "Edegem",
        "prov": "Flanders",
        "region": "Provincie Antwerpen",
        "latt": "51.15983",
        "longt": "4.43679",
        "address": "168 Banks Ports Suite 047nNew Tyroneburgh, HI 28254"
    },
    {
        "state": "BE",
        "name": "Kijkuithoek",
        "city": "Wevelgem",
        "prov": "Flanders",
        "region": "Provincie West-Vlaanderen",
        "latt": "50.81667",
        "longt": "3.16667",
        "address": "943 Zimmerman Falls Apt. 115nEast Johnview, KY 65735"
    },
    {
        "state": "BE",
        "name": "Monceau",
        "city": "Stoumont",
        "prov": "Wallonia",
        "region": "Province de Liu00e8ge",
        "latt": "50.39208",
        "longt": "5.82219",
        "address": "462 Briggs Skyway Apt. 432nPort Jeanettefurt, WV 05120"
    },
    {
        "state": "BE",
        "name": "Flu00e9nu",
        "city": "Mons",
        "prov": "Wallonia",
        "region": "Province du Hainaut",
        "latt": "50.43673",
        "longt": "3.88573",
        "address": "7158 Burns BrooksnDianeland, FL 64551"
    },
    {
        "state": "BE",
        "name": "De Reydt",
        "city": "Tessenderlo",
        "prov": "Flanders",
        "region": "Provincie Limburg",
        "latt": "51.083333",
        "longt": "5.1",
        "address": "PSC 3620, Box 3314nAPO AA 18277"
    },
    {
        "state": "BE",
        "name": "Vijver",
        "city": "Ichtegem",
        "prov": "Flanders",
        "region": "Provincie West-Vlaanderen",
        "latt": "51.1",
        "longt": "3",
        "address": "947 Lynch DrivenSouth William, MT 71378"
    },
    {
        "state": "BE",
        "name": "Flu00e9nu",
        "city": "Mons",
        "prov": "Wallonia",
        "region": "Province du Hainaut",
        "latt": "50.43673",
        "longt": "3.88573",
        "address": "542 Julia Meadow Suite 735nLauraview, OH 92001"
    },
    {
        "state": "BE",
        "name": "Ketstraat",
        "city": "De Pinte",
        "prov": "Flanders",
        "region": "Provincie Oost-Vlaanderen",
        "latt": "51",
        "longt": "3.65",
        "address": "35835 Brittney Cliff Suite 917nByrdport, PA 51181"
    },
    {
        "state": "BE",
        "name": "Baseilles",
        "city": "Tenneville",
        "prov": "Wallonia",
        "region": "Province du Luxembourg",
        "latt": "50.08333",
        "longt": "5.51667",
        "address": "82178 Sonya Junction Suite 348nPort Mark, ID 64768"
    },
    {
        "state": "BE",
        "name": "Terlindenhof",
        "city": "Edegem",
        "prov": "Flanders",
        "region": "Provincie Antwerpen",
        "latt": "51.15983",
        "longt": "4.43679",
        "address": "842 Brianna BypassnSouth Felicialand, IL 57501"
    },