[
    {
        "state": "BG",
        "name": "Gaydarush",
        "city": "Varnik",
        "prov": "Khaskovo",
        "region": "Obshtina Svilengrad",
        "latt": "41.8742",
        "longt": "26.53029",
        "address": "75815 Jeffrey Shores Apt. 399nMasonchester, DE 68455"
    },
    {
        "state": "BG",
        "name": "Teshel",
        "city": "Borino",
        "prov": "Smolyan",
        "region": "Obshtina Devin",
        "latt": "41.67882",
        "longt": "24.34944",
        "address": "1543 Orr ShorenLake Erikashire, NV 80394"
    },
    {
        "state": "BG",
        "name": "Gramatitsi",
        "city": "Gramatitsi",
        "prov": "Veliko Tu016drnovo",
        "region": "Obshtina Elena",
        "latt": "42.9",
        "longt": "25.98333",
        "address": "023 Strickland Fords Apt. 826nNorth Charles, SC 85211"
    },
    {
        "state": "BG",
        "name": "Sredna Mahala",
        "city": "Ruen",
        "prov": "Burgas",
        "region": "Obshtina Ruen",
        "latt": "42.85",
        "longt": "27.31667",
        "address": "1114 Danielle Bridge Suite 224nJeremiahfurt, IA 15172"
    },
    {
        "state": "BG",
        "name": "Trestle",
        "city": "Trestle",
        "prov": "Ku016drdzhali",
        "region": null,
        "latt": "41.63333",
        "longt": "25.51667",
        "address": "165 Campbell Underpass Suite 215nMichaelville, WI 83753"
    },
    {
        "state": "BG",
        "name": "Kazashko",
        "city": "Aksakovo",
        "prov": "Varna",
        "region": "Obshtina Varna",
        "latt": "43.19806",
        "longt": "27.82229",
        "address": "2022 Benjamin ParkwaysnEast Matthew, UT 95105"
    },
    {
        "state": "BG",
        "name": "Stavretsite",
        "city": "Gabrovo",
        "prov": "Gabrovo",
        "region": "Obshtina Gabrovo",
        "latt": "42.93333",
        "longt": "25.35",
        "address": "036 Jones StreetsnJimenezport, NJ 70645"
    },
    {
        "state": "BG",
        "name": "Mum Tepe",
        "city": "Svilengrad",
        "prov": "Khaskovo",
        "region": "Obshtina Svilengrad",
        "latt": "41.79906",
        "longt": "26.1921",
        "address": "Unit 1148 Box 6418nDPO AP 75389"
    },
    {
        "state": "BG",
        "name": "Marafta",
        "city": "Morava",
        "prov": "Burgas",
        "region": null,
        "latt": "42.883333",
        "longt": "27.033333",
        "address": "94552 Richard Ford Suite 823nMichelleshire, PA 03151"
    },
    {
        "state": "BG",
        "name": "Vinarsko",
        "city": "Vinarsko",
        "prov": "Burgas",
        "region": "Obshtina Kameno",
        "latt": "42.60704",
        "longt": "27.19998",
        "address": "USNS HubbardnFPO AP 61242"
    },
    {
        "state": "BG",
        "name": "Dalbok Izvor",
        "city": "Dalbok Izvor",
        "prov": "Plovdiv",
        "region": "Obshtina Parvomay",
        "latt": "42.03333",
        "longt": "25.1",
        "address": "4634 Lawrence Road Suite 002nCharlesfurt, UT 63110"
    },
    {
        "state": "BG",
        "name": "Snegotin",
        "city": "Snegotin",
        "prov": "Ku016drdzhali",
        "region": "Obshtina Krumovgrad",
        "latt": "41.53333",
        "longt": "25.71667",
        "address": "74987 Baker FerrynHaleshire, WA 50813"
    },
    {
        "state": "BG",
        "name": "Bogdanova Mahala",
        "city": "Bogdanova Mahala",
        "prov": "Kyustendil",
        "region": "Obshtina Treklyano",
        "latt": "42.548",
        "longt": "22.50961",
        "address": "3615 Hill Loaf Suite 144nPort Danielbury, IA 90695"
    },
    {
        "state": "BG",
        "name": "Sredna Mahala",
        "city": "Ruen",
        "prov": "Burgas",
        "region": "Obshtina Ruen",
        "latt": "42.85",
        "longt": "27.31667",
        "address": "USCGC NixonnFPO AA 48687"
    },
    {
        "state": "BG",
        "name": "Chukar",
        "city": "Brashlyan",
        "prov": "Burgas",
        "region": "Obshtina Malko Tarnovo",
        "latt": "42.05267",
        "longt": "27.40521",
        "address": "85651 Kevin StreetsnSouth Eric, PA 44483"
    },
    {
        "state": "BG",
        "name": "Monastu00edryia",
        "city": "Sarnitsa",
        "prov": "Pazardzhik",
        "region": "Obshtina Velingrad",
        "latt": "41.729973",
        "longt": "24.007187",
        "address": "5986 Patricia AvenuenLaurenside, AL 03379"
    },
    {
        "state": "BG",
        "name": "Aivatchioi",
        "city": "Malak Zvenimir",
        "prov": "Silistra",
        "region": null,
        "latt": "43.816667",
        "longt": "26.933333",
        "address": "26526 Rodriguez CliffsnSheltonport, WI 18812"
    },
    {
        "state": "BG",
        "name": "Gramatitsi",
        "city": "Gramatitsi",
        "prov": "Veliko Tu016drnovo",
        "region": "Obshtina Elena",
        "latt": "42.9",
        "longt": "25.98333",
        "address": "5494 Perez Plains Apt. 060nDwayneberg, SD 03938"
    },
    {
        "state": "BG",
        "name": "Bogdanova Mahala",
        "city": "Bogdanova Mahala",
        "prov": "Kyustendil",
        "region": "Obshtina Treklyano",
        "latt": "42.548",
        "longt": "22.50961",
        "address": "922 Heather Glen Suite 087nOlsonland, KY 93049"
    },
    {
        "state": "BG",
        "name": "Zmeyovski Prohod",
        "city": "Zmeyovo",
        "prov": "Stara Zagora",
        "region": "Obshtina Stara Zagora",
        "latt": "42.51667",
        "longt": "25.61667",
        "address": "66855 Rogers Harbors Apt. 090nWest Juliafurt, NE 75542"
    },
    {
        "state": "BG",
        "name": "Harmanli",
        "city": "Harmanli",
        "prov": "Khaskovo",
        "region": "Obshtina Harmanli",
        "latt": "41.93333",
        "longt": "25.9",
        "address": "48318 Thomas ViaductnAtkinsonmouth, CT 92202"
    },
    {
        "state": "BG",
        "name": "Bogdanova Mahala",
        "city": "Bogdanova Mahala",
        "prov": "Kyustendil",
        "region": "Obshtina Treklyano",
        "latt": "42.548",
        "longt": "22.50961",
        "address": "929 Dorsey Villages Suite 061nMorenoland, LA 19776"
    },
    {
        "state": "BG",
        "name": "Syuyutliyka",
        "city": "Radnevo",
        "prov": "Stara Zagora",
        "region": "Obshtina Radnevo",
        "latt": "42.28333",
        "longt": "25.91667",
        "address": "6844 Ashley Tunnel Apt. 684nStanleyport, ME 80980"
    },
    {
        "state": "BG",
        "name": "Karkariya",
        "city": "Dorkovo",
        "prov": "Pazardzhik",
        "region": "Obshtina Rakitovo",
        "latt": "42.078419",
        "longt": "24.170636",
        "address": "2977 Obrien Village Suite 648nNorth Aaron, NE 95155"
    },
    {
        "state": "BG",
        "name": "Piperkov Chiflik",
        "city": "Kyustendil",
        "prov": "Kyustendil",
        "region": "Obshtina Kyustendil",
        "latt": "42.27664",
        "longt": "22.73506",
        "address": "0579 Johnson Light Suite 450nWest Keithchester, KS 06975"
    },
    {
        "state": "BG",
        "name": "Targoviste",
        "city": "Targovishte",
        "prov": "Razgrad",
        "region": null,
        "latt": "43.2592",
        "longt": "26.5892",
        "address": "3867 Cindy Walks Suite 415nWest Christinechester, MA 78849"
    },
    {
        "state": "BG",
        "name": "Kubadin",
        "city": "Kubadin",
        "prov": "Burgas",
        "region": "Obshtina Sredets",
        "latt": "42.3",
        "longt": "26.95",
        "address": "8930 Donald RoadsnNew Deborahland, NV 91841"
    },
    {
        "state": "BG",
        "name": "Khatibolar",
        "city": "Fotinovo",
        "prov": "Ku016drdzhali",
        "region": "Obshtina Kirkovo",
        "latt": "41.378643",
        "longt": "25.344274",
        "address": "43833 Daniel Mills Apt. 428nWest Lindsay, OH 38528"
    },
    {
        "state": "BG",
        "name": "Razvalini Slatina",
        "city": "Slatina",
        "prov": "Plovdiv",
        "region": "Obshtina Karlovo",
        "latt": "42.683333",
        "longt": "24.583333",
        "address": "85144 Christopher Ports Suite 868nHollandmouth, AK 93666"
    },
    {
        "state": "BG",
        "name": "Dobri Dol",
        "city": "Dobri Dol",
        "prov": "Kyustendil",
        "region": "Obshtina Treklyano",
        "latt": "42.49641",
        "longt": "22.66569",
        "address": "122 Michelle Knolls Suite 109nEast Davidmouth, AR 70820"
    },
    {
        "state": "BG",
        "name": "Blagovets",
        "city": "Blagovets",
        "prov": "Khaskovo",
        "region": null,
        "latt": "41.38159",
        "longt": "25.90341",
        "address": "USNV BrownnFPO AP 94607"
    },
    {
        "state": "BG",
        "name": "Bistrec",
        "city": "Krushari",
        "prov": "Dobrich",
        "region": "Obshtina Krushari",
        "latt": "43.83333",
        "longt": "27.73333",
        "address": "PSC 2450, Box 0172nAPO AA 32371"
    },
    {
        "state": "BG",
        "name": "Trestle",
        "city": "Trestle",
        "prov": "Ku016drdzhali",
        "region": null,
        "latt": "41.63333",
        "longt": "25.51667",
        "address": "8091 Jeff LoopnTuckerchester, HI 51291"
    },
    {
        "state": "BG",
        "name": "Tsiganovo",
        "city": "Gorna Oryahovitsa",
        "prov": "Veliko Tu016drnovo",
        "region": "Obshtina Gorna Oryahovitsa",
        "latt": "43.15",
        "longt": "25.666667",
        "address": "910 Spencer Skyway Apt. 793nSeanhaven, AZ 76028"
    },
    {
        "state": "BG",
        "name": "Harmanli",
        "city": "Harmanli",
        "prov": "Khaskovo",
        "region": "Obshtina Harmanli",
        "latt": "41.93333",
        "longt": "25.9",
        "address": "334 Thomas Point Suite 955nBowerston, CT 20444"
    },
    {
        "state": "BG",
        "name": "Lozheto",
        "city": "Lozheto",
        "prov": "Khaskovo",
        "region": "Obshtina Ivaylovgrad",
        "latt": "41.45729",
        "longt": "26.06009",
        "address": "Unit 1562 Box 1436nDPO AP 93747"
    },
    {
        "state": "BG",
        "name": "Natsovtsi",
        "city": "Kilifarevo",
        "prov": "Veliko Tu016drnovo",
        "region": "Obshtina Veliko Tu016drnovo",
        "latt": "42.96667",
        "longt": "25.61667",
        "address": "95764 David Shoals Suite 110nAlexanderchester, NH 63941"
    },
    {
        "state": "BG",
        "name": "Kubadin",
        "city": "Kubadin",
        "prov": "Burgas",
        "region": "Obshtina Sredets",
        "latt": "42.3",
        "longt": "26.95",
        "address": "488 Susan ForestnJohnfort, SD 51804"
    },
    {
        "state": "BG",
        "name": "Podvrah",
        "city": "Dzhebel",
        "prov": "Ku016drdzhali",
        "region": "Obshtina Dzhebel",
        "latt": "41.49817",
        "longt": "25.33549",
        "address": "94404 William ShoalsnHoberg, IN 23936"
    },
    {
        "state": "GR",
        "name": "Saplu00ed Ru00e9ma",
        "city": "Mesimvru00eda",
        "prov": "East Macedonia and Thrace",
        "region": "Nomu00f3s u00c9vrou",
        "latt": "40.86667",
        "longt": "25.63333",
        "address": "70277 Tiffany PinenLewismouth, SD 93593"
    },
    {
        "state": "BG",
        "name": "Polkovnik Savovo",
        "city": "Tervel",
        "prov": "Dobrich",
        "region": "Obshtina Tervel",
        "latt": "43.7",
        "longt": "27.38333",
        "address": "38023 Harris Lock Suite 243nLake Melissa, NY 77622"
    },
    {
        "state": "BG",
        "name": "Knezhki Dol",
        "city": "Krushovitsa",
        "prov": "Vratsa",
        "region": "Obshtina Mizia",
        "latt": "43.6193",
        "longt": "23.85325",
        "address": "5255 Roberts VillagesnWilliamsburgh, MS 76656"
    },
    {
        "state": "BG",
        "name": "Dalgia Bair",
        "city": "Zlatinitsa",
        "prov": "Yambol",
        "region": "Obshtina Bolyarovo",
        "latt": "42.16747",
        "longt": "26.70397",
        "address": "44364 Ashley ForgesnPort Deanna, AZ 62647"
    },
    {
        "state": "BG",
        "name": "Blagovets",
        "city": "Blagovets",
        "prov": "Khaskovo",
        "region": null,
        "latt": "41.38159",
        "longt": "25.90341",
        "address": "4915 Shannon MissionnRobertsland, TX 78510"
    },
    {
        "state": "BG",
        "name": "Kubadin",
        "city": "Kubadin",
        "prov": "Burgas",
        "region": "Obshtina Sredets",
        "latt": "42.3",
        "longt": "26.95",
        "address": "217 Scott Heights Suite 127nSouth Brenda, PA 17730"
    },
    {
        "state": "BG",
        "name": "Labets",
        "city": "Labets",
        "prov": "Montana",
        "region": null,
        "latt": "43.83333",
        "longt": "23.45",
        "address": "050 Xavier Trail Apt. 729nWest Glenda, HI 27348"
    },
    {
        "state": "BG",
        "name": "Leshnikovtsi",
        "city": "Leshnikovtsi",
        "prov": "Pernik",
        "region": "Tran",
        "latt": "42.78111",
        "longt": "22.53806",
        "address": "4168 Felicia RapidsnWest Megan, OH 82686"
    },
    {
        "state": "BG",
        "name": "Talasakra",
        "city": "Chernomorets",
        "prov": "Burgas",
        "region": "Obshtina Sozopol",
        "latt": "42.44873",
        "longt": "27.64801",
        "address": "15781 Miller FallnCarrland, DE 72772"
    },
    {
        "state": "BG",
        "name": "Targoviste",
        "city": "Targovishte",
        "prov": "Razgrad",
        "region": null,
        "latt": "43.2592",
        "longt": "26.5892",
        "address": "2533 Mcmillan Gateway Suite 421nCynthiaberg, TN 51464"
    },
    {
        "state": "BG",
        "name": "Snegotin",
        "city": "Snegotin",
        "prov": "Ku016drdzhali",
        "region": "Obshtina Krumovgrad",
        "latt": "41.53333",
        "longt": "25.71667",
        "address": "70540 Woods HeightsnThomastown, AZ 03600"
    },
    {
        "state": "BG",
        "name": "Vinarsko",
        "city": "Vinarsko",
        "prov": "Burgas",
        "region": "Obshtina Kameno",
        "latt": "42.60704",
        "longt": "27.19998",
        "address": "962 Michelle Forest Apt. 614nEast Anthonyberg, OR 58410"
    },
    {
        "state": "BG",
        "name": "Kolibi Prespa",
        "city": "Prespa",
        "prov": "Sofia",
        "region": "Obshtina Mirkovo",
        "latt": "42.583333",
        "longt": "24",
        "address": "0699 Samantha Mount Suite 651nLake Nathan, MS 32665"
    },
    {
        "state": "BG",
        "name": "Talasakra",
        "city": "Chernomorets",
        "prov": "Burgas",
        "region": "Obshtina Sozopol",
        "latt": "42.44873",
        "longt": "27.64801",
        "address": "326 Catherine LandnWilliamsland, MS 73019"
    },
    {
        "state": "BG",
        "name": "Turokovtsi",
        "city": "Tran",
        "prov": "Pernik",
        "region": "Tran",
        "latt": "42.82528",
        "longt": "22.60444",
        "address": "5123 Taylor Skyway Suite 552nJennifershire, KY 91034"
    },
    {
        "state": "BG",
        "name": "Sushitsa",
        "city": "Laki",
        "prov": "Plovdiv",
        "region": "Obshtina Laki",
        "latt": "41.86667",
        "longt": "24.81667",
        "address": "58112 Shaffer Isle Suite 931nEast Kaylahaven, KS 99931"
    },
    {
        "state": "BG",
        "name": "Stolska Reka",
        "city": "Chavdar",
        "prov": "Sofia",
        "region": "Obshtina Chavdar",
        "latt": "42.61667",
        "longt": "24.01667",
        "address": "3762 Williams Harbors Apt. 916nMcphersonview, MI 73037"
    },
    {
        "state": "BG",
        "name": "Carevo",
        "city": "Tsarevo",
        "prov": "Burgas",
        "region": "Obshtina Tsarevo",
        "latt": "42.166667",
        "longt": "27.85",
        "address": "267 Mcneil FreewaynGarciaton, IL 93042"
    },
    {
        "state": "BG",
        "name": "Kazashko",
        "city": "Aksakovo",
        "prov": "Varna",
        "region": "Obshtina Varna",
        "latt": "43.19806",
        "longt": "27.82229",
        "address": "248 Jerry GlensnPort Charlesburgh, IL 75792"
    },
    {
        "state": "BG",
        "name": "Targoviste",
        "city": "Targovishte",
        "prov": "Razgrad",
        "region": null,
        "latt": "43.2592",
        "longt": "26.5892",
        "address": "22020 Berry Gardens Apt. 265nWelchmouth, HI 24435"
    },
    {
        "state": "BG",
        "name": "Pepelashka Reka",
        "city": "Hrabrino",
        "prov": "Plovdiv",
        "region": "Obshtina Perushtitsa",
        "latt": "42.03333",
        "longt": "24.63333",
        "address": "9392 Rebekah TrailnEast Heather, MA 79019"
    },
    {
        "state": "BG",
        "name": "Carevo",
        "city": "Tsarevo",
        "prov": "Burgas",
        "region": "Obshtina Tsarevo",
        "latt": "42.166667",
        "longt": "27.85",
        "address": "185 Lori Locks Suite 369nAdamstad, NH 27266"
    },
    {
        "state": "BG",
        "name": "Polatovo",
        "city": "Stamboliyski",
        "prov": "Plovdiv",
        "region": null,
        "latt": "42.15",
        "longt": "24.55",
        "address": "8774 Brenda RadialnToddberg, PA 13017"
    },
    {
        "state": "BG",
        "name": "Dolare",
        "city": "Dolare",
        "prov": "Kyustendil",
        "region": null,
        "latt": "42.28611",
        "longt": "22.44639",
        "address": "8532 Amy FallnNorth Kristinachester, WV 88732"
    },
    {
        "state": "BG",
        "name": "Natsovtsi",
        "city": "Kilifarevo",
        "prov": "Veliko Tu016drnovo",
        "region": "Obshtina Veliko Tu016drnovo",
        "latt": "42.96667",
        "longt": "25.61667",
        "address": "13937 Jensen ParknWest Carolport, UT 14086"
    },
    {
        "state": "BG",
        "name": "Gramatitsi",
        "city": "Gramatitsi",
        "prov": "Veliko Tu016drnovo",
        "region": "Obshtina Elena",
        "latt": "42.9",
        "longt": "25.98333",
        "address": "5332 Steven Roads Suite 737nEast Jose, CO 37115"
    },
    {
        "state": "BG",
        "name": "Gigen",
        "city": "Gigen",
        "prov": "Pleven",
        "region": "Obshtina Gulyantsi",
        "latt": "43.69525",
        "longt": "24.48552",
        "address": "53275 Joseph UnionnNewmanville, CO 27044"
    },
    {
        "state": "BG",
        "name": "Syuyutliyka",
        "city": "Radnevo",
        "prov": "Stara Zagora",
        "region": "Obshtina Radnevo",
        "latt": "42.28333",
        "longt": "25.91667",
        "address": "PSC 3682, Box 6834nAPO AP 45110"
    },
    {
        "state": "BG",
        "name": "Polenitsa",
        "city": "Sandanski",
        "prov": "Blagoevgrad",
        "region": "Obshtina Sandanski",
        "latt": "41.56667",
        "longt": "23.3",
        "address": "01973 Ryan PointsnPort Heather, CO 93781"
    },
    {
        "state": "BG",
        "name": "Kamenna Reka",
        "city": "Kamenna Reka",
        "prov": "Yambol",
        "region": "Obshtina Topolovgrad",
        "latt": "42.16667",
        "longt": "26.28333",
        "address": "73231 Whitehead Fords Apt. 884nMichellefurt, TX 03276"
    },
    {
        "state": "BG",
        "name": "Natsovtsi",
        "city": "Kilifarevo",
        "prov": "Veliko Tu016drnovo",
        "region": "Obshtina Veliko Tu016drnovo",
        "latt": "42.96667",
        "longt": "25.61667",
        "address": "USS PaynenFPO AA 74039"
    },
    {
        "state": "BG",
        "name": "Gorna Beshovitsa",
        "city": "Gorna Beshovitsa",
        "prov": "Vratsa",
        "region": "Obshtina Mezdra",
        "latt": "43.21667",
        "longt": "23.81667",
        "address": "15842 Cynthia Isle Apt. 173nMatthewmouth, MS 89496"
    },
    {
        "state": "BG",
        "name": "Obshtina Valchedram",
        "city": "Valchedram",
        "prov": "Montana",
        "region": "Obshtina Valchedram",
        "latt": "43.71667",
        "longt": "23.51667",
        "address": "4241 Jerry Mount Apt. 877nBarneshaven, MT 71473"
    },
    {
        "state": "BG",
        "name": "Gigen",
        "city": "Gigen",
        "prov": "Pleven",
        "region": "Obshtina Gulyantsi",
        "latt": "43.69525",
        "longt": "24.48552",
        "address": "216 Michael ViaductnChristensenborough, MN 77786"
    },
    {
        "state": "BG",
        "name": "Iskrat",
        "city": "Plovdivtsi",
        "prov": "Smolyan",
        "region": null,
        "latt": "41.41394",
        "longt": "24.79903",
        "address": "931 Rodriguez CurvenJenniferbury, AR 37032"
    },
    {
        "state": "BG",
        "name": "Avramovski Prohod",
        "city": "Mokren",
        "prov": "Sliven",
        "region": "Obshtina Kotel",
        "latt": "42.75",
        "longt": "26.63333",
        "address": "26187 Noah Centers Suite 416nNew Jimmyhaven, OK 59085"
    },
    {
        "state": "BG",
        "name": "Mezdreya",
        "city": "Berkovitsa",
        "prov": "Montana",
        "region": "Obshtina Berkovitsa",
        "latt": "43.24278",
        "longt": "23.18639",
        "address": "935 Alexander Village Suite 176nSouth Brandon, RI 44828"
    },
    {
        "state": "BG",
        "name": "Zeblyashki Dol",
        "city": "Gramada",
        "prov": "Vidin",
        "region": "Obshtina Makresh",
        "latt": "43.79855",
        "longt": "22.71778",
        "address": "54004 Justin Mountain Apt. 557nNorth Katherinemouth, AL 72568"
    },
    {
        "state": "BG",
        "name": "Natsovtsi",
        "city": "Kilifarevo",
        "prov": "Veliko Tu016drnovo",
        "region": "Obshtina Veliko Tu016drnovo",
        "latt": "42.96667",
        "longt": "25.61667",
        "address": "2547 Samuel Shoal Suite 159nPort Robertchester, KY 52225"
    },
    {
        "state": "BG",
        "name": "Khasu016dt",
        "city": "Kazanlak",
        "prov": "Stara Zagora",
        "region": "Obshtina Kazanlu016dk",
        "latt": "42.666667",
        "longt": "25.383333",
        "address": "60893 Wilkins Brooks Apt. 904nMarcochester, NH 17421"
    },
    {
        "state": "BG",
        "name": "Kamenna Reka",
        "city": "Kamenna Reka",
        "prov": "Yambol",
        "region": "Obshtina Topolovgrad",
        "latt": "42.16667",
        "longt": "26.28333",
        "address": "9671 Joel Cape Apt. 761nEast Lancehaven, IL 09757"
    },
    {
        "state": "BG",
        "name": "Piperkov Chiflik",
        "city": "Kyustendil",
        "prov": "Kyustendil",
        "region": "Obshtina Kyustendil",
        "latt": "42.27664",
        "longt": "22.73506",
        "address": "9903 Charles PrairienPort Jeffreyville, OK 42374"
    },
    {
        "state": "BG",
        "name": "Mum Tepe",
        "city": "Svilengrad",
        "prov": "Khaskovo",
        "region": "Obshtina Svilengrad",
        "latt": "41.79906",
        "longt": "26.1921",
        "address": "38806 Anna Lodge Suite 413nPort Brianstad, VA 92442"
    },
    {
        "state": "BG",
        "name": "Trestle",
        "city": "Trestle",
        "prov": "Ku016drdzhali",
        "region": null,
        "latt": "41.63333",
        "longt": "25.51667",
        "address": "1439 Quinn Loop Apt. 190nPort James, NV 39030"
    },
    {
        "state": "BG",
        "name": "Kurnalovo",
        "city": "Karnalovo",
        "prov": "Blagoevgrad",
        "region": "Obshtina Petrich",
        "latt": "41.46667",
        "longt": "23.21667",
        "address": "65507 Bridget Views Suite 743nNew Curtisside, KS 58945"
    },
    {
        "state": "BG",
        "name": "Sredna Mahala",
        "city": "Ruen",
        "prov": "Burgas",
        "region": "Obshtina Ruen",
        "latt": "42.85",
        "longt": "27.31667",
        "address": "3589 Brandon Crossroad Suite 830nRebeccashire, UT 63945"
    },
    {
        "state": "BG",
        "name": "Kolibi Prespa",
        "city": "Prespa",
        "prov": "Sofia",
        "region": "Obshtina Mirkovo",
        "latt": "42.583333",
        "longt": "24",
        "address": "86026 Roth MountainsnWilliamsonview, FL 67372"
    },
    {
        "state": "BG",
        "name": "Talasakra",
        "city": "Chernomorets",
        "prov": "Burgas",
        "region": "Obshtina Sozopol",
        "latt": "42.44873",
        "longt": "27.64801",
        "address": "08464 Michael ValleysnGutierrezburgh, NE 61277"
    },
    {
        "state": "BG",
        "name": "Avramovski Prohod",
        "city": "Mokren",
        "prov": "Sliven",
        "region": "Obshtina Kotel",
        "latt": "42.75",
        "longt": "26.63333",
        "address": "911 Hayes Shoal Apt. 090nLake Richardshire, OK 04197"
    },
    {
        "state": "BG",
        "name": "Zmeyovski Prohod",
        "city": "Zmeyovo",
        "prov": "Stara Zagora",
        "region": "Obshtina Stara Zagora",
        "latt": "42.51667",
        "longt": "25.61667",
        "address": "579 Butler Ridge Suite 775nKevinshire, MA 79402"
    },
    {
        "state": "BG",
        "name": "Gramatitsi",
        "city": "Gramatitsi",
        "prov": "Veliko Tu016drnovo",
        "region": "Obshtina Elena",
        "latt": "42.9",
        "longt": "25.98333",
        "address": "192 April MeadownWest Natasha, FL 49371"
    },
    {
        "state": "BG",
        "name": "Zmeyovski Prohod",
        "city": "Zmeyovo",
        "prov": "Stara Zagora",
        "region": "Obshtina Stara Zagora",
        "latt": "42.51667",
        "longt": "25.61667",
        "address": "USNV SandovalnFPO AP 08735"
    },
    {
        "state": "BG",
        "name": "Lozheto",
        "city": "Lozheto",
        "prov": "Khaskovo",
        "region": "Obshtina Ivaylovgrad",
        "latt": "41.45729",
        "longt": "26.06009",
        "address": "00702 Wyatt TrafficwaynSouth Lindsay, VT 88300"
    },
    {
        "state": "BG",
        "name": "Knezhki Dol",
        "city": "Krushovitsa",
        "prov": "Vratsa",
        "region": "Obshtina Mizia",
        "latt": "43.6193",
        "longt": "23.85325",
        "address": "4649 April Courts Apt. 466nWest Timothy, NE 33502"
    },
    {
        "state": "BG",
        "name": "Natsovtsi",
        "city": "Kilifarevo",
        "prov": "Veliko Tu016drnovo",
        "region": "Obshtina Veliko Tu016drnovo",
        "latt": "42.96667",
        "longt": "25.61667",
        "address": "496 Julie CanyonnReevesview, WV 83033"
    },
    {
        "state": "BG",
        "name": "Karkariya",
        "city": "Dorkovo",
        "prov": "Pazardzhik",
        "region": "Obshtina Rakitovo",
        "latt": "42.078419",
        "longt": "24.170636",
        "address": "797 Katherine GreennLake Jasonbury, CO 91538"
    },
    {
        "state": "BG",
        "name": "Bogdanova Mahala",
        "city": "Bogdanova Mahala",
        "prov": "Kyustendil",
        "region": "Obshtina Treklyano",
        "latt": "42.548",
        "longt": "22.50961",
        "address": "3342 Samantha Heights Suite 041nFrederickview, FL 76852"
    },
    {
        "state": "BG",
        "name": "Vinarsko",
        "city": "Vinarsko",
        "prov": "Burgas",
        "region": "Obshtina Kameno",
        "latt": "42.60704",
        "longt": "27.19998",
        "address": "560 Perkins Grove Suite 111nAndrewville, AZ 89585"
    },
    {
        "state": "BG",
        "name": "Milin Kamak",
        "city": "Chiren",
        "prov": "Vratsa",
        "region": "Obshtina Vratsa",
        "latt": "43.33333",
        "longt": "23.63333",
        "address": "518 Gomez Club Apt. 273nPamelachester, NJ 81167"
    },
    {
        "state": "BG",
        "name": "Khatibolar",
        "city": "Fotinovo",
        "prov": "Ku016drdzhali",
        "region": "Obshtina Kirkovo",
        "latt": "41.378643",
        "longt": "25.344274",
        "address": "09690 Jonathan PassagenMooreport, DC 64713"
    },
    {
        "state": "BG",
        "name": "Polkovnik Savovo",
        "city": "Tervel",
        "prov": "Dobrich",
        "region": "Obshtina Tervel",
        "latt": "43.7",
        "longt": "27.38333",
        "address": "48371 Jones Knoll Suite 707nBobbyberg, NM 32256"
    },
    {
        "state": "BG",
        "name": "Talasakra",
        "city": "Chernomorets",
        "prov": "Burgas",
        "region": "Obshtina Sozopol",
        "latt": "42.44873",
        "longt": "27.64801",
        "address": "06884 Wendy Junctions Suite 435nNorth Colleen, KS 51477"
    },
    {
        "state": "BG",
        "name": "Curkvishhe",
        "city": "Boboshevo",
        "prov": "Sofia",
        "region": "Obshtina Zlatitsa",
        "latt": "42.15",
        "longt": "22.98333",
        "address": "5549 Donaldson Shores Apt. 997nJenniferborough, SD 18324"
    },
    {
        "state": "BG",
        "name": "Gramatitsi",
        "city": "Gramatitsi",
        "prov": "Veliko Tu016drnovo",
        "region": "Obshtina Elena",
        "latt": "42.9",
        "longt": "25.98333",
        "address": "3170 Tyler IslenHarrisborough, UT 36026"
    },
    {
        "state": "BG",
        "name": "Merichlerska Reka",
        "city": "Dimitrovgrad",
        "prov": "Khaskovo",
        "region": "Obshtina Dimitrovgrad",
        "latt": "42.06667",
        "longt": "25.63333",
        "address": "18022 Edward Stravenue Suite 834nNew Charlesfort, NV 91494"
    },
    {
        "state": "BG",
        "name": "Dobri Dol",
        "city": "Dobri Dol",
        "prov": "Kyustendil",
        "region": "Obshtina Treklyano",
        "latt": "42.49641",
        "longt": "22.66569",
        "address": "USNV VillanFPO AE 55260"
    },
    {
        "state": "BG",
        "name": "Stavretsite",
        "city": "Gabrovo",
        "prov": "Gabrovo",
        "region": "Obshtina Gabrovo",
        "latt": "42.93333",
        "longt": "25.35",
        "address": "469 Terry ShoalnMckinneyport, OR 04058"
    },
    {
        "state": "BG",
        "name": "Konyarnika",
        "city": "Nesla",
        "prov": "Sofia",
        "region": "Obshtina Dragoman",
        "latt": "42.918",
        "longt": "22.82224",
        "address": "135 Stephen MeadowsnWest Joycemouth, MN 17297"
    },
    {
        "state": "BG",
        "name": "Iskrat",
        "city": "Plovdivtsi",
        "prov": "Smolyan",
        "region": null,
        "latt": "41.41394",
        "longt": "24.79903",
        "address": "48373 Smith BurgnWest Emily, NM 81840"
    },
    {
        "state": "BG",
        "name": "Stavretsite",
        "city": "Gabrovo",
        "prov": "Gabrovo",
        "region": "Obshtina Gabrovo",
        "latt": "42.93333",
        "longt": "25.35",
        "address": "2239 Jessica EstatenWest Markmouth, TX 11183"
    },
    {
        "state": "BG",
        "name": "Mezdreya",
        "city": "Berkovitsa",
        "prov": "Montana",
        "region": "Obshtina Berkovitsa",
        "latt": "43.24278",
        "longt": "23.18639",
        "address": "8997 Anthony Villages Suite 953nBarnesport, RI 58816"
    },
    {
        "state": "BG",
        "name": "Karkariya",
        "city": "Dorkovo",
        "prov": "Pazardzhik",
        "region": "Obshtina Rakitovo",
        "latt": "42.078419",
        "longt": "24.170636",
        "address": "88923 Combs Spurs Apt. 728nCharlesland, CA 12051"
    },
    {
        "state": "BG",
        "name": "Byalata Cheshma",
        "city": "Byala Voda",
        "prov": "Pleven",
        "region": "Obshtina Belene",
        "latt": "43.64348",
        "longt": "25.00357",
        "address": "372 Destiny FieldsnWest Brian, NC 67149"
    },
    {
        "state": "BG",
        "name": "Dalbok Izvor",
        "city": "Dalbok Izvor",
        "prov": "Plovdiv",
        "region": "Obshtina Parvomay",
        "latt": "42.03333",
        "longt": "25.1",
        "address": "5203 John Mountain Suite 385nLeeburgh, VA 81301"
    },
    {
        "state": "BG",
        "name": "Kolibi Prespa",
        "city": "Prespa",
        "prov": "Sofia",
        "region": "Obshtina Mirkovo",
        "latt": "42.583333",
        "longt": "24",
        "address": "5510 Derrick Road Suite 074nRobertburgh, KS 80480"
    },
    {
        "state": "BG",
        "name": "Mum Tepe",
        "city": "Svilengrad",
        "prov": "Khaskovo",
        "region": "Obshtina Svilengrad",
        "latt": "41.79906",
        "longt": "26.1921",
        "address": "4355 Ronald Brooks Apt. 288nLake Robert, NJ 08241"
    },
    {
        "state": "BG",
        "name": "Pelishat",
        "city": "Pordim",
        "prov": "Pleven",
        "region": "Obshtina Pleven",
        "latt": "43.35",
        "longt": "24.8",
        "address": "44315 Samantha Freeway Suite 584nEast Sarah, IA 73050"
    },
    {
        "state": "BG",
        "name": "Gorno Dryanovo",
        "city": "Gorno Dryanovo",
        "prov": "Blagoevgrad",
        "region": "Obshtina Garmen",
        "latt": "41.65",
        "longt": "23.83333",
        "address": "285 Hughes StationnSmithmouth, NE 94355"
    },
    {
        "state": "BG",
        "name": "Knezhki Dol",
        "city": "Krushovitsa",
        "prov": "Vratsa",
        "region": "Obshtina Mizia",
        "latt": "43.6193",
        "longt": "23.85325",
        "address": "4001 Debra Dale Apt. 680nNorth Jasonmouth, MS 19082"
    },
    {
        "state": "BG",
        "name": "Dobri Dol",
        "city": "Dobri Dol",
        "prov": "Kyustendil",
        "region": "Obshtina Treklyano",
        "latt": "42.49641",
        "longt": "22.66569",
        "address": "4180 Shaffer PathnLake Elizabethtown, DC 62000"
    },
    {
        "state": "BG",
        "name": "Bosilkovtsi",
        "city": "Bosilkovtsi",
        "prov": "Ruse",
        "region": "Obshtina Tsenovo",
        "latt": "43.48333",
        "longt": "25.58333",
        "address": "7312 Scott SummitnLyonsland, WY 43352"
    },
    {
        "state": "BG",
        "name": "Khatibolar",
        "city": "Fotinovo",
        "prov": "Ku016drdzhali",
        "region": "Obshtina Kirkovo",
        "latt": "41.378643",
        "longt": "25.344274",
        "address": "305 Jackson UnderpassnNorth Christopher, GA 19401"
    },
    {
        "state": "BG",
        "name": "Sredna Mahala",
        "city": "Ruen",
        "prov": "Burgas",
        "region": "Obshtina Ruen",
        "latt": "42.85",
        "longt": "27.31667",
        "address": "52748 Young MountainsnDavidshire, FL 77809"
    },
    {
        "state": "BG",
        "name": "Blaskovo",
        "city": "Blaskovo",
        "prov": "Varna",
        "region": "Obshtina Provadia",
        "latt": "43.11667",
        "longt": "27.33333",
        "address": "0466 Jason Burg Apt. 163nJoycemouth, IL 66323"
    },
    {
        "state": "BG",
        "name": "Gigen",
        "city": "Gigen",
        "prov": "Pleven",
        "region": "Obshtina Gulyantsi",
        "latt": "43.69525",
        "longt": "24.48552",
        "address": "2063 Morgan Square Suite 648nBridgetstad, DE 78917"
    },
    {
        "state": "BG",
        "name": "Curkvishhe",
        "city": "Boboshevo",
        "prov": "Sofia",
        "region": "Obshtina Zlatitsa",
        "latt": "42.15",
        "longt": "22.98333",
        "address": "230 Christopher CornernJacobschester, DE 04966"
    },
    {
        "state": "BG",
        "name": "Gorna Beshovitsa",
        "city": "Gorna Beshovitsa",
        "prov": "Vratsa",
        "region": "Obshtina Mezdra",
        "latt": "43.21667",
        "longt": "23.81667",
        "address": "024 Bridges Cape Suite 469nWest Matthew, PA 23960"
    },
    {
        "state": "BG",
        "name": "Chorlevo",
        "city": "Chorlevo",
        "prov": "Vidin",
        "region": null,
        "latt": "43.7",
        "longt": "22.96667",
        "address": "888 Blackwell Viaduct Suite 946nPort Warren, MS 29133"
    },
    {
        "state": "BG",
        "name": "Blagovets",
        "city": "Blagovets",
        "prov": "Khaskovo",
        "region": null,
        "latt": "41.38159",
        "longt": "25.90341",
        "address": "18632 Kevin BrooksnEast Williamport, TN 24821"
    },
    {
        "state": "BG",
        "name": "Otsreshtna",
        "city": "Otsreshtna",
        "prov": "Tu016drgovishte",
        "region": null,
        "latt": "43.1",
        "longt": "26.28333",
        "address": "7486 Scott Glen Apt. 744nNew Zachary, NJ 94070"
    },
    {
        "state": "BG",
        "name": "Polatovo",
        "city": "Stamboliyski",
        "prov": "Plovdiv",
        "region": null,
        "latt": "42.15",
        "longt": "24.55",
        "address": "137 Martinez LoafnNew Joyce, KS 72008"
    },
    {
        "state": "BG",
        "name": "Veny Hostel",
        "city": "Sofia",
        "prov": "Sofia-Capital",
        "region": "Stolichna Obshtina",
        "latt": "42.6833",
        "longt": "23.3166",
        "address": "914 Monica StreamnSouth Williamchester, AR 62323"
    },
    {
        "state": "BG",
        "name": "Vrah Kovachitsa",
        "city": "Gurbanovtsi",
        "prov": "Kyustendil",
        "region": "Obshtina Kyustendil",
        "latt": "42.36718",
        "longt": "22.48102",
        "address": "USNV TaylornFPO AA 48223"
    },
    {
        "state": "BG",
        "name": "Pelishat",
        "city": "Pordim",
        "prov": "Pleven",
        "region": "Obshtina Pleven",
        "latt": "43.35",
        "longt": "24.8",
        "address": "47784 David Alley Suite 145nZacharychester, VA 19711"
    },
    {
        "state": "BG",
        "name": "Balaliyska Reka",
        "city": "Zlatograd",
        "prov": "Smolyan",
        "region": "Obshtina Zlatograd",
        "latt": "41.38496",
        "longt": "25.11876",
        "address": "723 Jacob Estates Apt. 314nLake Christinaview, MT 18596"
    },
    {
        "state": "BG",
        "name": "Talasakra",
        "city": "Chernomorets",
        "prov": "Burgas",
        "region": "Obshtina Sozopol",
        "latt": "42.44873",
        "longt": "27.64801",
        "address": "Unit 8774 Box 5660nDPO AA 71821"
    },
    {
        "state": "BG",
        "name": "Nova Popina",
        "city": "Nova Popina",
        "prov": "Silistra",
        "region": "Obshtina Sitovo",
        "latt": "44.02943",
        "longt": "26.95503",
        "address": "102 Ford RoadnNew Anthonyport, MD 44487"
    },
    {
        "state": "BG",
        "name": "Carevo",
        "city": "Tsarevo",
        "prov": "Burgas",
        "region": "Obshtina Tsarevo",
        "latt": "42.166667",
        "longt": "27.85",
        "address": "13906 Brandon Keys Apt. 418nNorth Gregory, FL 52839"
    },
    {
        "state": "BG",
        "name": "Stolska Reka",
        "city": "Chavdar",
        "prov": "Sofia",
        "region": "Obshtina Chavdar",
        "latt": "42.61667",
        "longt": "24.01667",
        "address": "0979 Cordova MeadowsnPort Kelseymouth, WV 41916"
    },
    {
        "state": "BG",
        "name": "Lenishte",
        "city": "Budiltsi",
        "prov": "Blagoevgrad",
        "region": "Obshtina Kresna",
        "latt": "41.694571",
        "longt": "23.085795",
        "address": "45174 Marcus Path Suite 441nJamieland, ME 20020"
    },
    {
        "state": "BG",
        "name": "Leshnikovtsi",
        "city": "Leshnikovtsi",
        "prov": "Pernik",
        "region": "Tran",
        "latt": "42.78111",
        "longt": "22.53806",
        "address": "20336 Wright RidgesnRobertview, NV 31132"
    },
    {
        "state": "BG",
        "name": "Turia",
        "city": "Pavel Banya",
        "prov": "Stara Zagora",
        "region": "Obshtina Pavel Banya",
        "latt": "42.56667",
        "longt": "25.18333",
        "address": "822 Vincent Expressway Apt. 477nLake Vickifurt, CO 45100"
    },
    {
        "state": "BG",
        "name": "Chukar",
        "city": "Brashlyan",
        "prov": "Burgas",
        "region": "Obshtina Malko Tarnovo",
        "latt": "42.05267",
        "longt": "27.40521",
        "address": "23208 Adam Village Apt. 268nMartinezhaven, VA 23890"
    },
    {
        "state": "BG",
        "name": "Khasu016dt",
        "city": "Kazanlak",
        "prov": "Stara Zagora",
        "region": "Obshtina Kazanlu016dk",
        "latt": "42.666667",
        "longt": "25.383333",
        "address": "20175 Christian BridgenChapmanmouth, HI 03298"
    },
    {
        "state": "BG",
        "name": "Gorna Beshovitsa",
        "city": "Gorna Beshovitsa",
        "prov": "Vratsa",
        "region": "Obshtina Mezdra",
        "latt": "43.21667",
        "longt": "23.81667",
        "address": "4665 Lawrence PassnEast Jennifertown, OR 14623"
    },
    {
        "state": "BG",
        "name": "Carevo",
        "city": "Tsarevo",
        "prov": "Burgas",
        "region": "Obshtina Tsarevo",
        "latt": "42.166667",
        "longt": "27.85",
        "address": "0140 Hoffman LoafnWelchland, WA 29658"
    },
    {
        "state": "BG",
        "name": "Byalata Cheshma",
        "city": "Byala Voda",
        "prov": "Pleven",
        "region": "Obshtina Belene",
        "latt": "43.64348",
        "longt": "25.00357",
        "address": "8221 Ross PointsnClarkburgh, DC 77042"
    },
    {
        "state": "BG",
        "name": "Sredna Mahala",
        "city": "Ruen",
        "prov": "Burgas",
        "region": "Obshtina Ruen",
        "latt": "42.85",
        "longt": "27.31667",
        "address": "5644 Adkins GrovesnNew Sean, MO 20032"
    },
    {
        "state": "BG",
        "name": "Podvrah",
        "city": "Dzhebel",
        "prov": "Ku016drdzhali",
        "region": "Obshtina Dzhebel",
        "latt": "41.49817",
        "longt": "25.33549",
        "address": "9107 Edwards Forges Apt. 409nLake Amandafort, OH 04668"
    },
    {
        "state": "BG",
        "name": "Dobri Dol",
        "city": "Dobri Dol",
        "prov": "Kyustendil",
        "region": "Obshtina Treklyano",
        "latt": "42.49641",
        "longt": "22.66569",
        "address": "74031 Benitez Station Apt. 351nNicholasberg, ID 81253"
    },
    {
        "state": "BG",
        "name": "Bogdanova Mahala",
        "city": "Bogdanova Mahala",
        "prov": "Kyustendil",
        "region": "Obshtina Treklyano",
        "latt": "42.548",
        "longt": "22.50961",
        "address": "74848 Anthony Parkway Apt. 831nCarterberg, DC 42995"
    },
    {
        "state": "BG",
        "name": "Kalipetrovo",
        "city": "Silistra",
        "prov": "Silistra",
        "region": "Obshtina Silistra",
        "latt": "44.07792",
        "longt": "27.23816",
        "address": "6799 Anthony Square Apt. 967nSextonbury, NV 88767"
    },
    {
        "state": "BG",
        "name": "Cherna Bara",
        "city": "Kostinbrod",
        "prov": "Sofia",
        "region": "Obshtina Bozhurishte",
        "latt": "42.766667",
        "longt": "23.25",
        "address": "41567 Linda Extensions Apt. 249nKnightfurt, GA 32681"
    },
    {
        "state": "BG",
        "name": "Blagovets",
        "city": "Blagovets",
        "prov": "Khaskovo",
        "region": null,
        "latt": "41.38159",
        "longt": "25.90341",
        "address": "82788 Stephanie Mill Apt. 929nClintonton, ND 08393"
    },
    {
        "state": "BG",
        "name": "Otsreshtna",
        "city": "Otsreshtna",
        "prov": "Tu016drgovishte",
        "region": null,
        "latt": "43.1",
        "longt": "26.28333",
        "address": "Unit 7851 Box 0343nDPO AE 18594"
    },
    {
        "state": "BG",
        "name": "Podvrah",
        "city": "Dzhebel",
        "prov": "Ku016drdzhali",
        "region": "Obshtina Dzhebel",
        "latt": "41.49817",
        "longt": "25.33549",
        "address": "USCGC BensonnFPO AE 66741"
    },
    {
        "state": "BG",
        "name": "Snegotin",
        "city": "Snegotin",
        "prov": "Ku016drdzhali",
        "region": "Obshtina Krumovgrad",
        "latt": "41.53333",
        "longt": "25.71667",
        "address": "PSC 7197, Box 1110nAPO AP 07847"
    },
    {
        "state": "BG",
        "name": "Petrovo Bardo",
        "city": "Batak",
        "prov": "Pazardzhik",
        "region": "Obshtina Batak",
        "latt": "41.93441",
        "longt": "24.19105",
        "address": "7454 Simpson Crossroad Suite 577nWest David, AK 72663"
    },
    {
        "state": "BG",
        "name": "Sushitsa",
        "city": "Laki",
        "prov": "Plovdiv",
        "region": "Obshtina Laki",
        "latt": "41.86667",
        "longt": "24.81667",
        "address": "984 Fowler Hill Apt. 752nIrwinmouth, ID 23366"
    },
    {
        "state": "BG",
        "name": "Natsovtsi",
        "city": "Kilifarevo",
        "prov": "Veliko Tu016drnovo",
        "region": "Obshtina Veliko Tu016drnovo",
        "latt": "42.96667",
        "longt": "25.61667",
        "address": "5868 Scott Ports Apt. 518nNorth Kaylamouth, NV 78470"
    },
    {
        "state": "BG",
        "name": "Khasu016dt",
        "city": "Kazanlak",
        "prov": "Stara Zagora",
        "region": "Obshtina Kazanlu016dk",
        "latt": "42.666667",
        "longt": "25.383333",
        "address": "6928 King CapenSouth Johnathan, IN 58524"
    },
    {
        "state": "BG",
        "name": "Besnurka",
        "city": "Besnurka",
        "prov": "Ku016drdzhali",
        "region": "Obshtina Chernoochene",
        "latt": "41.76667",
        "longt": "25.25",
        "address": "2925 Gary PrairienAaronshire, MI 30465"
    },
    {
        "state": "BG",
        "name": "Meshhica",
        "city": "Meshtitsa",
        "prov": "Pernik",
        "region": "Obshtina Pernik",
        "latt": "42.66778",
        "longt": "22.99722",
        "address": "9385 Jenkins RampnNorth Michael, MO 27996"
    },
    {
        "state": "BG",
        "name": "Natsovtsi",
        "city": "Kilifarevo",
        "prov": "Veliko Tu016drnovo",
        "region": "Obshtina Veliko Tu016drnovo",
        "latt": "42.96667",
        "longt": "25.61667",
        "address": "69162 Steven Circle Suite 974nLake Joshua, CT 55702"
    },
    {
        "state": "BG",
        "name": "Gramatitsi",
        "city": "Gramatitsi",
        "prov": "Veliko Tu016drnovo",
        "region": "Obshtina Elena",
        "latt": "42.9",
        "longt": "25.98333",
        "address": "1047 Marcus OrchardnEast Rachelville, DE 55848"
    },
    {
        "state": "BG",
        "name": "Malkochka Mogila",
        "city": "Kavarna",
        "prov": "Dobrich",
        "region": "Obshtina Kavarna",
        "latt": "43.44723",
        "longt": "28.29287",
        "address": "Unit 8290 Box 4836nDPO AA 67206"
    },
    {
        "state": "BG",
        "name": "Razvalini Slatina",
        "city": "Slatina",
        "prov": "Plovdiv",
        "region": "Obshtina Karlovo",
        "latt": "42.683333",
        "longt": "24.583333",
        "address": "45951 John WalksnCrosbyland, TX 37609"
    },
    {
        "state": "BG",
        "name": "Podvrah",
        "city": "Dzhebel",
        "prov": "Ku016drdzhali",
        "region": "Obshtina Dzhebel",
        "latt": "41.49817",
        "longt": "25.33549",
        "address": "142 Zachary Keys Suite 054nSouth Vicki, SD 23524"
    },
    {
        "state": "BG",
        "name": "Kubadin",
        "city": "Kubadin",
        "prov": "Burgas",
        "region": "Obshtina Sredets",
        "latt": "42.3",
        "longt": "26.95",
        "address": "916 Scott Point Suite 477nSouth Jennifer, AR 44708"
    },
    {
        "state": "BG",
        "name": "Konyarnika",
        "city": "Nesla",
        "prov": "Sofia",
        "region": "Obshtina Dragoman",
        "latt": "42.918",
        "longt": "22.82224",
        "address": "801 Katherine ForestnPort Edward, NJ 20195"
    },
    {
        "state": "BG",
        "name": "Milin Kamak",
        "city": "Chiren",
        "prov": "Vratsa",
        "region": "Obshtina Vratsa",
        "latt": "43.33333",
        "longt": "23.63333",
        "address": "Unit 3107 Box 4467nDPO AE 26643"
    },
    {
        "state": "BG",
        "name": "Dalgia Bair",
        "city": "Zlatinitsa",
        "prov": "Yambol",
        "region": "Obshtina Bolyarovo",
        "latt": "42.16747",
        "longt": "26.70397",
        "address": "PSC 1058, Box 7859nAPO AE 48873"
    },
    {
        "state": "BG",
        "name": "Blagovets",
        "city": "Blagovets",
        "prov": "Khaskovo",
        "region": null,
        "latt": "41.38159",
        "longt": "25.90341",
        "address": "40971 Andrew PortnMatthewland, GA 71093"
    },
    {
        "state": "BG",
        "name": "Balaliyska Reka",
        "city": "Zlatograd",
        "prov": "Smolyan",
        "region": "Obshtina Zlatograd",
        "latt": "41.38496",
        "longt": "25.11876",
        "address": "PSC 9578, Box 5306nAPO AA 50009"
    },
    {
        "state": "BG",
        "name": "Teshel",
        "city": "Borino",
        "prov": "Smolyan",
        "region": "Obshtina Devin",
        "latt": "41.67882",
        "longt": "24.34944",
        "address": "391 Dennis IslenPrestonstad, SD 67351"
    },
    {
        "state": "BG",
        "name": "Sushitsa",
        "city": "Laki",
        "prov": "Plovdiv",
        "region": "Obshtina Laki",
        "latt": "41.86667",
        "longt": "24.81667",
        "address": "3092 Nunez OvalnPort Mariatown, IN 72012"
    },
    {
        "state": "BG",
        "name": "Khasu016dt",
        "city": "Kazanlak",
        "prov": "Stara Zagora",
        "region": "Obshtina Kazanlu016dk",
        "latt": "42.666667",
        "longt": "25.383333",
        "address": "9883 Potts KeynJustinside, NC 05730"
    },
    {
        "state": "BG",
        "name": "Gramatitsi",
        "city": "Gramatitsi",
        "prov": "Veliko Tu016drnovo",
        "region": "Obshtina Elena",
        "latt": "42.9",
        "longt": "25.98333",
        "address": "490 Gallagher PlacenKaneport, NC 22982"
    },
    {
        "state": "BG",
        "name": "Bogdanova Mahala",
        "city": "Bogdanova Mahala",
        "prov": "Kyustendil",
        "region": "Obshtina Treklyano",
        "latt": "42.548",
        "longt": "22.50961",
        "address": "9200 Katherine Pass Apt. 103nWest Sydney, MO 65017"
    },
    {
        "state": "BG",
        "name": "Galabovo",
        "city": "Yakoruda",
        "prov": "Blagoevgrad",
        "region": "Obshtina Belitsa",
        "latt": "41.96667",
        "longt": "23.66667",
        "address": "29767 Woods CliffnWyattport, CA 18401"
    },
    {
        "state": "BG",
        "name": "Prisad",
        "city": "General Toshevo",
        "prov": "Dobrich",
        "region": "Obshtina General Toshevo",
        "latt": "43.66667",
        "longt": "28.01667",
        "address": "Unit 5111 Box 5482nDPO AP 22297"
    },
    {
        "state": "BG",
        "name": "Gramatitsi",
        "city": "Gramatitsi",
        "prov": "Veliko Tu016drnovo",
        "region": "Obshtina Elena",
        "latt": "42.9",
        "longt": "25.98333",
        "address": "6839 Matthew ViewnTammiestad, LA 87459"
    },
    {
        "state": "BG",
        "name": "Khasu016dt",
        "city": "Kazanlak",
        "prov": "Stara Zagora",
        "region": "Obshtina Kazanlu016dk",
        "latt": "42.666667",
        "longt": "25.383333",
        "address": "USNS MartineznFPO AE 40950"
    },
    {
        "state": "BG",
        "name": "Chukar",
        "city": "Brashlyan",
        "prov": "Burgas",
        "region": "Obshtina Malko Tarnovo",
        "latt": "42.05267",
        "longt": "27.40521",
        "address": "15563 Wendy MillnCunninghamville, SC 94758"
    },
    {
        "state": "BG",
        "name": "Carevo",
        "city": "Tsarevo",
        "prov": "Burgas",
        "region": "Obshtina Tsarevo",
        "latt": "42.166667",
        "longt": "27.85",
        "address": "99495 Reese PlazanLake Darrell, MS 56251"
    },
    {
        "state": "BG",
        "name": "Razvalini Slatina",
        "city": "Slatina",
        "prov": "Plovdiv",
        "region": "Obshtina Karlovo",
        "latt": "42.683333",
        "longt": "24.583333",
        "address": "40188 Hill Groves Apt. 102nGregoryberg, ND 42279"
    },
    {
        "state": "BG",
        "name": "Bogorowo",
        "city": "Bogorovo",
        "prov": "Burgas",
        "region": null,
        "latt": "42.45",
        "longt": "26.866667",
        "address": "964 Seth WellnSouth Maryview, NV 83356"
    },
    {
        "state": "BG",
        "name": "Avramovski Prohod",
        "city": "Mokren",
        "prov": "Sliven",
        "region": "Obshtina Kotel",
        "latt": "42.75",
        "longt": "26.63333",
        "address": "773 Travis Estate Suite 000nMaryland, WV 42205"
    },
    {
        "state": "BG",
        "name": "Sadovets",
        "city": "Sadovets",
        "prov": "Pleven",
        "region": "Obshtina Dolni Dabnik",
        "latt": "43.3",
        "longt": "24.35",
        "address": "Unit 1440 Box 0552nDPO AA 35789"
    },
    {
        "state": "BG",
        "name": "Natsovtsi",
        "city": "Kilifarevo",
        "prov": "Veliko Tu016drnovo",
        "region": "Obshtina Veliko Tu016drnovo",
        "latt": "42.96667",
        "longt": "25.61667",
        "address": "983 Harris RadialnPort Samantha, LA 29481"
    },
    {
        "state": "BG",
        "name": "Snegotin",
        "city": "Snegotin",
        "prov": "Ku016drdzhali",
        "region": "Obshtina Krumovgrad",
        "latt": "41.53333",
        "longt": "25.71667",
        "address": "801 Henderson HarborsnKellyborough, FL 87391"
    },
    {
        "state": "BG",
        "name": "Stavretsite",
        "city": "Gabrovo",
        "prov": "Gabrovo",
        "region": "Obshtina Gabrovo",
        "latt": "42.93333",
        "longt": "25.35",
        "address": "5606 Sarah RoutenHarperport, TN 31815"
    },
    {
        "state": "BG",
        "name": "Gyaursuyutchyuk",
        "city": "Balgarevo",
        "prov": "Varna",
        "region": null,
        "latt": "43.404377",
        "longt": "28.412657",
        "address": "76898 Berry Neck Apt. 279nLindseybury, ID 63019"
    },
    {
        "state": "BG",
        "name": "Kalimanitsa",
        "city": "Kalimanitsa",
        "prov": "Montana",
        "region": "Obshtina Montana",
        "latt": "43.34917",
        "longt": "23.15167",
        "address": "671 Andrew Divide Apt. 259nWest Andrea, WI 26595"
    },
    {
        "state": "BG",
        "name": "Kazashko",
        "city": "Aksakovo",
        "prov": "Varna",
        "region": "Obshtina Varna",
        "latt": "43.19806",
        "longt": "27.82229",
        "address": "USNV BriggsnFPO AP 82769"
    },
    {
        "state": "BG",
        "name": "Stavretsite",
        "city": "Gabrovo",
        "prov": "Gabrovo",
        "region": "Obshtina Gabrovo",
        "latt": "42.93333",
        "longt": "25.35",
        "address": "96742 Fuentes SkywaynEast Karenland, SD 67562"
    },
    {
        "state": "BG",
        "name": "Meshhica",
        "city": "Meshtitsa",
        "prov": "Pernik",
        "region": "Obshtina Pernik",
        "latt": "42.66778",
        "longt": "22.99722",
        "address": "386 Adam Spur Suite 448nNelsonborough, DE 45507"
    },
    {
        "state": "BG",
        "name": "Podvrah",
        "city": "Dzhebel",
        "prov": "Ku016drdzhali",
        "region": "Obshtina Dzhebel",
        "latt": "41.49817",
        "longt": "25.33549",
        "address": "267 Jeffrey PlazanPort Aaronshire, NC 43655"
    },
    {
        "state": "BG",
        "name": "Chirpanski Vazvishenia",
        "city": "Mogilovo",
        "prov": "Stara Zagora",
        "region": "Obshtina Chirpan",
        "latt": "42.31667",
        "longt": "25.38333",
        "address": "6395 Lisa Circle Suite 883nRiveraborough, IN 31239"
    },
    {
        "state": "BG",
        "name": "Obshtina Valchedram",
        "city": "Valchedram",
        "prov": "Montana",
        "region": "Obshtina Valchedram",
        "latt": "43.71667",
        "longt": "23.51667",
        "address": "00600 Amanda OverpassnPennychester, CA 41176"
    },
    {
        "state": "BG",
        "name": "Panega",
        "city": "Gornik",
        "prov": "Pleven",
        "region": "Obshtina Cherven Bryag",
        "latt": "43.283333",
        "longt": "24.066667",
        "address": "561 Hall ShorenGriffintown, AR 29575"
    },
    {
        "state": "BG",
        "name": "Dolare",
        "city": "Dolare",
        "prov": "Kyustendil",
        "region": null,
        "latt": "42.28611",
        "longt": "22.44639",
        "address": "1945 Melissa CausewaynLake Suzanne, IL 29360"
    },
    {
        "state": "BG",
        "name": "Gramatitsi",
        "city": "Gramatitsi",
        "prov": "Veliko Tu016drnovo",
        "region": "Obshtina Elena",
        "latt": "42.9",
        "longt": "25.98333",
        "address": "248 Smith Streets Suite 890nHarrisberg, CT 50654"
    },
    {
        "state": "BG",
        "name": "Trestle",
        "city": "Trestle",
        "prov": "Ku016drdzhali",
        "region": null,
        "latt": "41.63333",
        "longt": "25.51667",
        "address": "075 Sean Rapid Suite 344nNorth Teresashire, UT 28069"
    },
    {
        "state": "BG",
        "name": "Khasu016dt",
        "city": "Kazanlak",
        "prov": "Stara Zagora",
        "region": "Obshtina Kazanlu016dk",
        "latt": "42.666667",
        "longt": "25.383333",
        "address": "498 Michael Islands Apt. 170nNew Anna, DE 62038"
    },
    {
        "state": "BG",
        "name": "Meshhica",
        "city": "Meshtitsa",
        "prov": "Pernik",
        "region": "Obshtina Pernik",
        "latt": "42.66778",
        "longt": "22.99722",
        "address": "4606 Dunn Manor Suite 617nSouth Katie, MI 13483"
    },
    {
        "state": "BG",
        "name": "Podvrah",
        "city": "Dzhebel",
        "prov": "Ku016drdzhali",
        "region": "Obshtina Dzhebel",
        "latt": "41.49817",
        "longt": "25.33549",
        "address": "857 Jennifer OrchardnNew Cassandramouth, TX 72003"
    },
    {
        "state": "BG",
        "name": "Cherna Bara",
        "city": "Kostinbrod",
        "prov": "Sofia",
        "region": "Obshtina Bozhurishte",
        "latt": "42.766667",
        "longt": "23.25",
        "address": "81996 Jones Summit Apt. 456nCarrville, IA 83048"
    },
    {
        "state": "BG",
        "name": "Carevo",
        "city": "Tsarevo",
        "prov": "Burgas",
        "region": "Obshtina Tsarevo",
        "latt": "42.166667",
        "longt": "27.85",
        "address": "9429 Wright Ports Suite 055nCarterfurt, CO 77825"
    },
    {
        "state": "BG",
        "name": "Piperkov Chiflik",
        "city": "Kyustendil",
        "prov": "Kyustendil",
        "region": "Obshtina Kyustendil",
        "latt": "42.27664",
        "longt": "22.73506",
        "address": "3248 Jones ThroughwaynPort Michaelshire, OR 41657"
    },
    {
        "state": "BG",
        "name": "Obshtina Etropole",
        "city": "Ribaritsa",
        "prov": "Sofia",
        "region": "Obshtina Etropole",
        "latt": "42.85",
        "longt": "24.03333",
        "address": "4976 John StationnLake Paul, VA 39028"
    },
    {
        "state": "BG",
        "name": "Sredna Mahala",
        "city": "Ruen",
        "prov": "Burgas",
        "region": "Obshtina Ruen",
        "latt": "42.85",
        "longt": "27.31667",
        "address": "3413 Lopez Fords Suite 340nWrighttown, MI 70017"
    },
    {
        "state": "BG",
        "name": "Neykovo",
        "city": "Neykovo",
        "prov": "Dobrich",
        "region": "Obshtina Kavarna",
        "latt": "43.60825",
        "longt": "28.42645",
        "address": "163 William Pines Suite 838nPort Ashley, TN 70902"
    },
    {
        "state": "BG",
        "name": "Podvrah",
        "city": "Dzhebel",
        "prov": "Ku016drdzhali",
        "region": "Obshtina Dzhebel",
        "latt": "41.49817",
        "longt": "25.33549",
        "address": "2197 Kim Islands Apt. 458nAaronview, CA 74035"
    },
    {
        "state": "BG",
        "name": "Vinarsko",
        "city": "Vinarsko",
        "prov": "Burgas",
        "region": "Obshtina Kameno",
        "latt": "42.60704",
        "longt": "27.19998",
        "address": "126 April RownCooperport, MI 96749"
    },
    {
        "state": "BG",
        "name": "Pchelina",
        "city": "Pchelina",
        "prov": "Razgrad",
        "region": "Obshtina Samuil",
        "latt": "43.61667",
        "longt": "26.93333",
        "address": "0206 Brandon TerracenHerreratown, SC 80634"
    },
    {
        "state": "BG",
        "name": "Podvrah",
        "city": "Dzhebel",
        "prov": "Ku016drdzhali",
        "region": "Obshtina Dzhebel",
        "latt": "41.49817",
        "longt": "25.33549",
        "address": "9728 Justin FlatnCatherinebury, RI 61067"
    },
    {
        "state": "BG",
        "name": "Lozheto",
        "city": "Lozheto",
        "prov": "Khaskovo",
        "region": "Obshtina Ivaylovgrad",
        "latt": "41.45729",
        "longt": "26.06009",
        "address": "638 Ricky Meadows Apt. 617nWest Nathan, CA 49292"
    },
    {
        "state": "BG",
        "name": "Chimovo",
        "city": "Aheloy",
        "prov": "Burgas",
        "region": "Obshtina Pomorie",
        "latt": "42.64845",
        "longt": "27.6485",
        "address": "8491 Kenneth Ville Apt. 291nNew Allison, VA 87304"
    },
    {
        "state": "BG",
        "name": "Balaliyska Reka",
        "city": "Zlatograd",
        "prov": "Smolyan",
        "region": "Obshtina Zlatograd",
        "latt": "41.38496",
        "longt": "25.11876",
        "address": "13516 Amy CoursenVeronicafort, MS 12353"
    },
    {
        "state": "BG",
        "name": "Blagovets",
        "city": "Blagovets",
        "prov": "Khaskovo",
        "region": null,
        "latt": "41.38159",
        "longt": "25.90341",
        "address": "805 Juan Valley Suite 031nLake Carlyshire, TN 09957"
    },
    {
        "state": "BG",
        "name": "Sushitsa",
        "city": "Laki",
        "prov": "Plovdiv",
        "region": "Obshtina Laki",
        "latt": "41.86667",
        "longt": "24.81667",
        "address": "8267 Tracey Plaza Apt. 488nWest Bryan, AK 52701"
    },
    {
        "state": "BG",
        "name": "Merichlerska Reka",
        "city": "Dimitrovgrad",
        "prov": "Khaskovo",
        "region": "Obshtina Dimitrovgrad",
        "latt": "42.06667",
        "longt": "25.63333",
        "address": "8844 Shawna ParkwaynMunozside, ID 92124"
    },
    {
        "state": "BG",
        "name": "Chorlevo",
        "city": "Chorlevo",
        "prov": "Vidin",
        "region": null,
        "latt": "43.7",
        "longt": "22.96667",
        "address": "90854 Snyder CirclesnSouth Rodney, NM 92247"
    },
    {
        "state": "BG",
        "name": "Carevo",
        "city": "Tsarevo",
        "prov": "Burgas",
        "region": "Obshtina Tsarevo",
        "latt": "42.166667",
        "longt": "27.85",
        "address": "383 Brown Ford Suite 698nPort Brittanystad, KS 15354"
    },
    {
        "state": "BG",
        "name": "Turokovtsi",
        "city": "Tran",
        "prov": "Pernik",
        "region": "Tran",
        "latt": "42.82528",
        "longt": "22.60444",
        "address": "791 Barnes Crescent Suite 379nJohnsonstad, AZ 84541"
    },
    {
        "state": "BG",
        "name": "Dobri Dol",
        "city": "Dobri Dol",
        "prov": "Kyustendil",
        "region": "Obshtina Treklyano",
        "latt": "42.49641",
        "longt": "22.66569",
        "address": "3209 Lamb RoadsnPort Jason, HI 70679"
    },
    {
        "state": "BG",
        "name": "Stolska Reka",
        "city": "Chavdar",
        "prov": "Sofia",
        "region": "Obshtina Chavdar",
        "latt": "42.61667",
        "longt": "24.01667",
        "address": "2289 Dyer Vista Suite 247nWest Georgehaven, MN 29863"
    },
    {
        "state": "BG",
        "name": "Veny Hostel",
        "city": "Sofia",
        "prov": "Sofia-Capital",
        "region": "Stolichna Obshtina",
        "latt": "42.6833",
        "longt": "23.3166",
        "address": "24627 Michael Trail Apt. 526nBarbaraville, WY 67566"
    },
    {
        "state": "BG",
        "name": "Oselna",
        "city": "Oselna",
        "prov": "Vratsa",
        "region": "Obshtina Mezdra",
        "latt": "43.06667",
        "longt": "23.55",
        "address": "50666 Stevens Brook Suite 171nBillyview, ID 98787"
    },
    {
        "state": "BG",
        "name": "Polenitsa",
        "city": "Sandanski",
        "prov": "Blagoevgrad",
        "region": "Obshtina Sandanski",
        "latt": "41.56667",
        "longt": "23.3",
        "address": "PSC 1358, Box 4368nAPO AE 36969"
    },
    {
        "state": "BG",
        "name": "Galabovo",
        "city": "Yakoruda",
        "prov": "Blagoevgrad",
        "region": "Obshtina Belitsa",
        "latt": "41.96667",
        "longt": "23.66667",
        "address": "3969 Arthur SpringnJohnburgh, SC 75478"
    },
    {
        "state": "BG",
        "name": "Sredna Mahala",
        "city": "Ruen",
        "prov": "Burgas",
        "region": "Obshtina Ruen",
        "latt": "42.85",
        "longt": "27.31667",
        "address": "85560 Belinda Landing Suite 080nCaseyview, ND 66942"
    },
    {
        "state": "BG",
        "name": "Gorna Beshovitsa",
        "city": "Gorna Beshovitsa",
        "prov": "Vratsa",
        "region": "Obshtina Mezdra",
        "latt": "43.21667",
        "longt": "23.81667",
        "address": "38479 Jackson Drive Apt. 378nGravestown, RI 80579"
    },
    {
        "state": "BG",
        "name": "Stavretsite",
        "city": "Gabrovo",
        "prov": "Gabrovo",
        "region": "Obshtina Gabrovo",
        "latt": "42.93333",
        "longt": "25.35",
        "address": "247 Torres Harbor Apt. 766nChristopherhaven, OH 31969"
    },
    {
        "state": "BG",
        "name": "Podvrah",
        "city": "Dzhebel",
        "prov": "Ku016drdzhali",
        "region": "Obshtina Dzhebel",
        "latt": "41.49817",
        "longt": "25.33549",
        "address": "7220 Morales Shoals Suite 195nPort Alexandra, NH 02842"
    },
    {
        "state": "BG",
        "name": "Kurnalovo",
        "city": "Karnalovo",
        "prov": "Blagoevgrad",
        "region": "Obshtina Petrich",
        "latt": "41.46667",
        "longt": "23.21667",
        "address": "77528 Moore PortnJacquelineside, GA 83572"
    },
    {
        "state": "BG",
        "name": "Dolare",
        "city": "Dolare",
        "prov": "Kyustendil",
        "region": null,
        "latt": "42.28611",
        "longt": "22.44639",
        "address": "2840 Emily GlennNew Debraland, AZ 32122"
    },
    {
        "state": "BG",
        "name": "Piperkov Chiflik",
        "city": "Kyustendil",
        "prov": "Kyustendil",
        "region": "Obshtina Kyustendil",
        "latt": "42.27664",
        "longt": "22.73506",
        "address": "USNS HayesnFPO AA 90531"
    },
    {
        "state": "BG",
        "name": "Polenitsa",
        "city": "Sandanski",
        "prov": "Blagoevgrad",
        "region": "Obshtina Sandanski",
        "latt": "41.56667",
        "longt": "23.3",
        "address": "799 Anthony Corners Apt. 208nGreeneport, NJ 41739"
    },
    {
        "state": "BG",
        "name": "Teshel",
        "city": "Borino",
        "prov": "Smolyan",
        "region": "Obshtina Devin",
        "latt": "41.67882",
        "longt": "24.34944",
        "address": "256 Phelps Branch Suite 270nMargaretside, VT 88175"
    },
    {
        "state": "BG",
        "name": "Knezhki Dol",
        "city": "Krushovitsa",
        "prov": "Vratsa",
        "region": "Obshtina Mizia",
        "latt": "43.6193",
        "longt": "23.85325",
        "address": "9309 Williams DamnAngelastad, NY 96472"
    },
    {
        "state": "BG",
        "name": "Snegotin",
        "city": "Snegotin",
        "prov": "Ku016drdzhali",
        "region": "Obshtina Krumovgrad",
        "latt": "41.53333",
        "longt": "25.71667",
        "address": "196 Sanders Radial Suite 356nWest Amyton, OH 23190"
    },
    {
        "state": "BG",
        "name": "Piperkov Chiflik",
        "city": "Kyustendil",
        "prov": "Kyustendil",
        "region": "Obshtina Kyustendil",
        "latt": "42.27664",
        "longt": "22.73506",
        "address": "807 Rice Pine Apt. 917nMyersborough, MO 30055"
    },
    {
        "state": "BG",
        "name": "Konyarnika",
        "city": "Nesla",
        "prov": "Sofia",
        "region": "Obshtina Dragoman",
        "latt": "42.918",
        "longt": "22.82224",
        "address": "2850 Dean Road Suite 692nMorganmouth, AK 34717"
    },
    {
        "state": "BG",
        "name": "Marash",
        "city": "Straldzha",
        "prov": "Yambol",
        "region": "Obshtina Straldzha",
        "latt": "42.55",
        "longt": "26.71667",
        "address": "78552 Scott SummitnFieldsburgh, AK 28092"
    },
    {
        "state": "BG",
        "name": "Bogdanova Mahala",
        "city": "Bogdanova Mahala",
        "prov": "Kyustendil",
        "region": "Obshtina Treklyano",
        "latt": "42.548",
        "longt": "22.50961",
        "address": "17533 Rodriguez ValleysnWest Shelby, WV 14285"
    },
    {
        "state": "BG",
        "name": "Chimovo",
        "city": "Aheloy",
        "prov": "Burgas",
        "region": "Obshtina Pomorie",
        "latt": "42.64845",
        "longt": "27.6485",
        "address": "60840 Joseph SpringsnEast Luisburgh, HI 77460"
    },
    {
        "state": "BG",
        "name": "Malkochka Mogila",
        "city": "Kavarna",
        "prov": "Dobrich",
        "region": "Obshtina Kavarna",
        "latt": "43.44723",
        "longt": "28.29287",
        "address": "421 Elizabeth Stravenue Suite 478nNorth Jameston, RI 66993"
    },
    {
        "state": "BG",
        "name": "Karkariya",
        "city": "Dorkovo",
        "prov": "Pazardzhik",
        "region": "Obshtina Rakitovo",
        "latt": "42.078419",
        "longt": "24.170636",
        "address": "USNV CasenFPO AA 16130"
    },
    {
        "state": "BG",
        "name": "Veny Hostel",
        "city": "Sofia",
        "prov": "Sofia-Capital",
        "region": "Stolichna Obshtina",
        "latt": "42.6833",
        "longt": "23.3166",
        "address": "85686 Linda Island Apt. 009nWatsonhaven, NH 06021"
    },
    {
        "state": "BG",
        "name": "Kamenna Reka",
        "city": "Kamenna Reka",
        "prov": "Yambol",
        "region": "Obshtina Topolovgrad",
        "latt": "42.16667",
        "longt": "26.28333",
        "address": "Unit 6552 Box 5255nDPO AE 29616"
    },
    {
        "state": "BG",
        "name": "Balaliyska Reka",
        "city": "Zlatograd",
        "prov": "Smolyan",
        "region": "Obshtina Zlatograd",
        "latt": "41.38496",
        "longt": "25.11876",
        "address": "442 Jones BridgenWest Judith, IL 86306"
    },
    {
        "state": "BG",
        "name": "Dobri Dol",
        "city": "Dobri Dol",
        "prov": "Kyustendil",
        "region": "Obshtina Treklyano",
        "latt": "42.49641",
        "longt": "22.66569",
        "address": "09113 York Isle Apt. 477nPort Edwardborough, MN 30731"
    },
    {
        "state": "BG",
        "name": "Talasakra",
        "city": "Chernomorets",
        "prov": "Burgas",
        "region": "Obshtina Sozopol",
        "latt": "42.44873",
        "longt": "27.64801",
        "address": "3923 Mcdaniel PlazanFerrellshire, LA 27620"
    },
    {
        "state": "BG",
        "name": "Veny Hostel",
        "city": "Sofia",
        "prov": "Sofia-Capital",
        "region": "Stolichna Obshtina",
        "latt": "42.6833",
        "longt": "23.3166",
        "address": "PSC 0316, Box 8616nAPO AE 01966"
    },
    {
        "state": "BG",
        "name": "Marash",
        "city": "Straldzha",
        "prov": "Yambol",
        "region": "Obshtina Straldzha",
        "latt": "42.55",
        "longt": "26.71667",
        "address": "778 Danielle PassagenLopezborough, NY 27527"
    },
    {
        "state": "BG",
        "name": "Balaliyska Reka",
        "city": "Zlatograd",
        "prov": "Smolyan",
        "region": "Obshtina Zlatograd",
        "latt": "41.38496",
        "longt": "25.11876",
        "address": "78766 Williams Path Suite 815nMartinville, RI 99946"
    },
    {
        "state": "BG",
        "name": "Stolska Reka",
        "city": "Chavdar",
        "prov": "Sofia",
        "region": "Obshtina Chavdar",
        "latt": "42.61667",
        "longt": "24.01667",
        "address": "6424 Shane KnollsnLake Spencerchester, KY 02298"
    },
    {
        "state": "BG",
        "name": "Zmeyovski Prohod",
        "city": "Zmeyovo",
        "prov": "Stara Zagora",
        "region": "Obshtina Stara Zagora",
        "latt": "42.51667",
        "longt": "25.61667",
        "address": "3090 Koch Estates Suite 778nKennethton, OR 66912"
    },
    {
        "state": "BG",
        "name": "Natsovtsi",
        "city": "Kilifarevo",
        "prov": "Veliko Tu016drnovo",
        "region": "Obshtina Veliko Tu016drnovo",
        "latt": "42.96667",
        "longt": "25.61667",
        "address": "5007 Salazar CliffsnNorth Ricardostad, MA 50183"
    },
    {
        "state": "BG",
        "name": "Malkochka Mogila",
        "city": "Kavarna",
        "prov": "Dobrich",
        "region": "Obshtina Kavarna",
        "latt": "43.44723",
        "longt": "28.29287",
        "address": "3501 Barnes MountainsnEast Sydneyburgh, NY 75869"
    },
    {
        "state": "BG",
        "name": "Gorno Dryanovo",
        "city": "Gorno Dryanovo",
        "prov": "Blagoevgrad",
        "region": "Obshtina Garmen",
        "latt": "41.65",
        "longt": "23.83333",
        "address": "Unit 7548 Box 7503nDPO AP 75330"
    },
    {
        "state": "BG",
        "name": "Trestle",
        "city": "Trestle",
        "prov": "Ku016drdzhali",
        "region": null,
        "latt": "41.63333",
        "longt": "25.51667",
        "address": "0889 Regina Mountains Suite 738nNew Andrewshire, ID 86004"
    },
    {
        "state": "BG",
        "name": "Balaliyska Reka",
        "city": "Zlatograd",
        "prov": "Smolyan",
        "region": "Obshtina Zlatograd",
        "latt": "41.38496",
        "longt": "25.11876",
        "address": "595 Reginald ViewsnStewarttown, OH 65656"
    },
    {
        "state": "BG",
        "name": "Dobri Dol",
        "city": "Dobri Dol",
        "prov": "Kyustendil",
        "region": "Obshtina Treklyano",
        "latt": "42.49641",
        "longt": "22.66569",
        "address": "Unit 7225 Box 3942nDPO AE 19041"
    },
    {
        "state": "BG",
        "name": "Tsiganovo",
        "city": "Gorna Oryahovitsa",
        "prov": "Veliko Tu016drnovo",
        "region": "Obshtina Gorna Oryahovitsa",
        "latt": "43.15",
        "longt": "25.666667",
        "address": "0671 Joshua Track Apt. 536nWongside, PA 62570"
    },
    {
        "state": "BG",
        "name": "Pchelina",
        "city": "Pchelina",
        "prov": "Razgrad",
        "region": "Obshtina Samuil",
        "latt": "43.61667",
        "longt": "26.93333",
        "address": "18658 Danielle StreetsnHuntbury, AK 24421"
    },
    {
        "state": "BG",
        "name": "Bogdanova Mahala",
        "city": "Bogdanova Mahala",
        "prov": "Kyustendil",
        "region": "Obshtina Treklyano",
        "latt": "42.548",
        "longt": "22.50961",
        "address": "335 Charlotte Street Apt. 563nEast Staceyview, NM 36926"
    },
    {
        "state": "BG",
        "name": "Carevo",
        "city": "Tsarevo",
        "prov": "Burgas",
        "region": "Obshtina Tsarevo",
        "latt": "42.166667",
        "longt": "27.85",
        "address": "97762 Stone ForksnWest Nicholas, KY 23372"
    },
    {
        "state": "BG",
        "name": "Hasovo",
        "city": "Gara Hitrino",
        "prov": "Shumen",
        "region": "Obshtina Hitrino",
        "latt": "43.41667",
        "longt": "26.88333",
        "address": "175 Gutierrez Oval Suite 628nMillerhaven, NE 77216"
    },
    {
        "state": "BG",
        "name": "Marafta",
        "city": "Morava",
        "prov": "Burgas",
        "region": null,
        "latt": "42.883333",
        "longt": "27.033333",
        "address": "2070 Eric Stravenue Suite 826nGonzalezchester, MO 38814"
    },
    {
        "state": "BG",
        "name": "Khatibolar",
        "city": "Fotinovo",
        "prov": "Ku016drdzhali",
        "region": "Obshtina Kirkovo",
        "latt": "41.378643",
        "longt": "25.344274",
        "address": "35112 Keith Lodge Apt. 669nJasontown, SC 08201"
    },
    {
        "state": "BG",
        "name": "Targoviste",
        "city": "Targovishte",
        "prov": "Razgrad",
        "region": null,
        "latt": "43.2592",
        "longt": "26.5892",
        "address": "397 Phillips Flat Suite 825nPenaton, FL 87498"
    },
    {
        "state": "BG",
        "name": "Otsreshtna",
        "city": "Otsreshtna",
        "prov": "Tu016drgovishte",
        "region": null,
        "latt": "43.1",
        "longt": "26.28333",
        "address": "807 Crystal Terrace Apt. 939nLake Nataliefurt, KS 41012"
    },
    {
        "state": "BG",
        "name": "Pomoshtitsa",
        "city": "Pomoshtitsa",
        "prov": "Tu016drgovishte",
        "region": null,
        "latt": "43.46667",
        "longt": "26.33333",
        "address": "29337 Johnson Camp Suite 416nThomaschester, ME 11484"
    },
    {
        "state": "BG",
        "name": "Trestle",
        "city": "Trestle",
        "prov": "Ku016drdzhali",
        "region": null,
        "latt": "41.63333",
        "longt": "25.51667",
        "address": "702 Nancy Pass Suite 620nLake Melissa, PA 34102"
    },
    {
        "state": "BG",
        "name": "Chimovo",
        "city": "Aheloy",
        "prov": "Burgas",
        "region": "Obshtina Pomorie",
        "latt": "42.64845",
        "longt": "27.6485",
        "address": "7598 John AvenuenWilliechester, CA 19106"
    },
    {
        "state": "BG",
        "name": "Gigen",
        "city": "Gigen",
        "prov": "Pleven",
        "region": "Obshtina Gulyantsi",
        "latt": "43.69525",
        "longt": "24.48552",
        "address": "USNV DelgadonFPO AP 06801"
    },
    {
        "state": "BG",
        "name": "Polenitsa",
        "city": "Sandanski",
        "prov": "Blagoevgrad",
        "region": "Obshtina Sandanski",
        "latt": "41.56667",
        "longt": "23.3",
        "address": "97896 Tina SquaresnJeffreychester, OK 75725"
    },
    {
        "state": "BG",
        "name": "Bogdanova Mahala",
        "city": "Bogdanova Mahala",
        "prov": "Kyustendil",
        "region": "Obshtina Treklyano",
        "latt": "42.548",
        "longt": "22.50961",
        "address": "7506 Jackson LightsnLoganhaven, NH 61716"
    },
    {
        "state": "BG",
        "name": "Carevo",
        "city": "Tsarevo",
        "prov": "Burgas",
        "region": "Obshtina Tsarevo",
        "latt": "42.166667",
        "longt": "27.85",
        "address": "9307 Martin Branch Apt. 103nSouth Timothyport, VA 43990"
    },
    {
        "state": "BG",
        "name": "Sredna Mahala",
        "city": "Ruen",
        "prov": "Burgas",
        "region": "Obshtina Ruen",
        "latt": "42.85",
        "longt": "27.31667",
        "address": "482 Patrick Track Suite 260nWest Autumn, MN 63843"
    },
    {
        "state": "BG",
        "name": "Bulgarian Commodities Ltd.",
        "city": "Yambol",
        "prov": "Yambol",
        "region": "Obshtina Yambol",
        "latt": "42.47745",
        "longt": "26.52071",
        "address": "08128 Courtney StreamnSouth Alexis, NC 15867"
    },
    {
        "state": "BG",
        "name": "Harmanli",
        "city": "Harmanli",
        "prov": "Khaskovo",
        "region": "Obshtina Harmanli",
        "latt": "41.93333",
        "longt": "25.9",
        "address": "USCGC CollinsnFPO AA 81778"
    },
    {
        "state": "BG",
        "name": "Aivatchioi",
        "city": "Malak Zvenimir",
        "prov": "Silistra",
        "region": null,
        "latt": "43.816667",
        "longt": "26.933333",
        "address": "4146 Bryant OrchardnBenderfurt, VA 63372"
    },
    {
        "state": "BG",
        "name": "Polatovo",
        "city": "Stamboliyski",
        "prov": "Plovdiv",
        "region": null,
        "latt": "42.15",
        "longt": "24.55",
        "address": "804 Gates GlennLake Clinton, CA 57084"
    },
    {
        "state": "BG",
        "name": "Polkovnik Savovo",
        "city": "Tervel",
        "prov": "Dobrich",
        "region": "Obshtina Tervel",
        "latt": "43.7",
        "longt": "27.38333",
        "address": "24843 Dawson Mountain Apt. 375nNew Robertmouth, VT 91177"
    },
    {
        "state": "BG",
        "name": "Gramatitsi",
        "city": "Gramatitsi",
        "prov": "Veliko Tu016drnovo",
        "region": "Obshtina Elena",
        "latt": "42.9",
        "longt": "25.98333",
        "address": "9481 Renee StravenuenMelissastad, OR 55983"
    },
    {
        "state": "BG",
        "name": "Cherna Bara",
        "city": "Kostinbrod",
        "prov": "Sofia",
        "region": "Obshtina Bozhurishte",
        "latt": "42.766667",
        "longt": "23.25",
        "address": "700 Benitez Valley Suite 177nMarkport, LA 62423"
    },
    {
        "state": "BG",
        "name": "Ljakhovo",
        "city": "Lyahovo",
        "prov": "Dobrich",
        "region": "Obshtina Balchik",
        "latt": "43.41667",
        "longt": "28.05",
        "address": "991 Flores StreamnMichellechester, MS 76774"
    },
    {
        "state": "BG",
        "name": "Vinarsko",
        "city": "Vinarsko",
        "prov": "Burgas",
        "region": "Obshtina Kameno",
        "latt": "42.60704",
        "longt": "27.19998",
        "address": "43243 Wilson ClubnLake Debra, MS 59735"
    },
    {
        "state": "BG",
        "name": "Podvrah",
        "city": "Dzhebel",
        "prov": "Ku016drdzhali",
        "region": "Obshtina Dzhebel",
        "latt": "41.49817",
        "longt": "25.33549",
        "address": "67988 Wallace Summit Apt. 644nPort Amy, TX 76314"
    },
    {
        "state": "BG",
        "name": "Trestle",
        "city": "Trestle",
        "prov": "Ku016drdzhali",
        "region": null,
        "latt": "41.63333",
        "longt": "25.51667",
        "address": "1831 Harper Forges Apt. 289nLake Dennisport, NH 92873"
    },
    {
        "state": "BG",
        "name": "Stolska Reka",
        "city": "Chavdar",
        "prov": "Sofia",
        "region": "Obshtina Chavdar",
        "latt": "42.61667",
        "longt": "24.01667",
        "address": "21952 Kristina RidgesnSavagetown, CT 59199"
    },
    {
        "state": "BG",
        "name": "Mum Tepe",
        "city": "Svilengrad",
        "prov": "Khaskovo",
        "region": "Obshtina Svilengrad",
        "latt": "41.79906",
        "longt": "26.1921",
        "address": "61237 Watkins Throughway Apt. 535nNewmanhaven, NM 01312"
    },
    {
        "state": "BG",
        "name": "Poprusanovo",
        "city": "Poprusanovo",
        "prov": "Silistra",
        "region": "Obshtina Kaynardzha",
        "latt": "43.8998",
        "longt": "27.41898",
        "address": "7143 Delgado ShoalsnLake Jacqueline, OR 40879"
    },
    {
        "state": "BG",
        "name": "Blaskovo",
        "city": "Blaskovo",
        "prov": "Varna",
        "region": "Obshtina Provadia",
        "latt": "43.11667",
        "longt": "27.33333",
        "address": "14159 Elizabeth KnollnMillermouth, SD 23501"
    },
    {
        "state": "BG",
        "name": "Besnurka",
        "city": "Besnurka",
        "prov": "Ku016drdzhali",
        "region": "Obshtina Chernoochene",
        "latt": "41.76667",
        "longt": "25.25",
        "address": "58176 Julie CornernLarsenborough, SC 49189"
    },
    {
        "state": "BG",
        "name": "Lovchanski Visochini",
        "city": "Lovech",
        "prov": "Lovech",
        "region": "Obshtina Lovech",
        "latt": "43.1",
        "longt": "24.73333",
        "address": "46513 James Overpass Apt. 436nEast Stevenburgh, NJ 34810"
    },
    {
        "state": "BG",
        "name": "Lokorsko",
        "city": "Lokorsko",
        "prov": "Sofia-Capital",
        "region": "Stolichna Obshtina",
        "latt": "42.79408",
        "longt": "23.44766",
        "address": "38824 Misty Crossing Suite 371nPatriciamouth, AL 31013"
    },
    {
        "state": "BG",
        "name": "Kolibi Prespa",
        "city": "Prespa",
        "prov": "Sofia",
        "region": "Obshtina Mirkovo",
        "latt": "42.583333",
        "longt": "24",
        "address": "547 Christopher GlennNorth Cherylshire, HI 30715"
    },
    {
        "state": "BG",
        "name": "Natsovtsi",
        "city": "Kilifarevo",
        "prov": "Veliko Tu016drnovo",
        "region": "Obshtina Veliko Tu016drnovo",
        "latt": "42.96667",
        "longt": "25.61667",
        "address": "769 Keller Terrace Apt. 202nSouth Shawnmouth, NV 34418"
    },
    {
        "state": "BG",
        "name": "Chukar",
        "city": "Brashlyan",
        "prov": "Burgas",
        "region": "Obshtina Malko Tarnovo",
        "latt": "42.05267",
        "longt": "27.40521",
        "address": "2786 Riley BrooksnBradleyburgh, CT 02761"
    },
    {
        "state": "BG",
        "name": "Blagovets",
        "city": "Blagovets",
        "prov": "Khaskovo",
        "region": null,
        "latt": "41.38159",
        "longt": "25.90341",
        "address": "879 Medina VistanMillermouth, WA 52932"
    },
    {
        "state": "BG",
        "name": "Zmeyovski Prohod",
        "city": "Zmeyovo",
        "prov": "Stara Zagora",
        "region": "Obshtina Stara Zagora",
        "latt": "42.51667",
        "longt": "25.61667",
        "address": "04856 Cindy StravenuenBrandonshire, DC 78592"
    },
    {
        "state": "BG",
        "name": "Carevo",
        "city": "Tsarevo",
        "prov": "Burgas",
        "region": "Obshtina Tsarevo",
        "latt": "42.166667",
        "longt": "27.85",
        "address": "5712 Taylor SpurnLake Steven, PA 28043"
    },
    {
        "state": "BG",
        "name": "Trestle",
        "city": "Trestle",
        "prov": "Ku016drdzhali",
        "region": null,
        "latt": "41.63333",
        "longt": "25.51667",
        "address": "3302 Bobby Well Apt. 886nEvanside, VT 85601"
    },
    {
        "state": "BG",
        "name": "Panega",
        "city": "Gornik",
        "prov": "Pleven",
        "region": "Obshtina Cherven Bryag",
        "latt": "43.283333",
        "longt": "24.066667",
        "address": "475 Ochoa Shoals Apt. 494nTerrellbury, MN 74560"
    },
    {
        "state": "BG",
        "name": "Turokovtsi",
        "city": "Tran",
        "prov": "Pernik",
        "region": "Tran",
        "latt": "42.82528",
        "longt": "22.60444",
        "address": "42815 Mackenzie Locks Apt. 998nPort Shelbyhaven, SD 14715"
    },
    {
        "state": "BG",
        "name": "Galabovo",
        "city": "Yakoruda",
        "prov": "Blagoevgrad",
        "region": "Obshtina Belitsa",
        "latt": "41.96667",
        "longt": "23.66667",
        "address": "198 Watson LodgenEast Christopherstad, DE 92007"
    },
    {
        "state": "BG",
        "name": "Podvrah",
        "city": "Dzhebel",
        "prov": "Ku016drdzhali",
        "region": "Obshtina Dzhebel",
        "latt": "41.49817",
        "longt": "25.33549",
        "address": "08757 Hernandez Street Apt. 909nNew Jamesland, MS 77124"
    },
    {
        "state": "BG",
        "name": "Vasilyovo",
        "city": "Vasilyovo",
        "prov": "Lovech",
        "region": "Obshtina Teteven",
        "latt": "42.88333",
        "longt": "24.38333",
        "address": "4044 Taylor ParkwaynLake Robert, NH 79157"
    },
    {
        "state": "BG",
        "name": "Trestle",
        "city": "Trestle",
        "prov": "Ku016drdzhali",
        "region": null,
        "latt": "41.63333",
        "longt": "25.51667",
        "address": "736 Cynthia Plaza Apt. 953nDominguezland, PA 64935"
    },
    {
        "state": "BG",
        "name": "Turokovtsi",
        "city": "Tran",
        "prov": "Pernik",
        "region": "Tran",
        "latt": "42.82528",
        "longt": "22.60444",
        "address": "USCGC DelgadonFPO AE 22915"
    },
    {
        "state": "BG",
        "name": "Dalgia Bair",
        "city": "Zlatinitsa",
        "prov": "Yambol",
        "region": "Obshtina Bolyarovo",
        "latt": "42.16747",
        "longt": "26.70397",
        "address": "278 Becker PikenHollybury, VA 32879"
    },
    {
        "state": "BG",
        "name": "Prisad",
        "city": "General Toshevo",
        "prov": "Dobrich",
        "region": "Obshtina General Toshevo",
        "latt": "43.66667",
        "longt": "28.01667",
        "address": "9897 Wong Views Suite 899nNathanshire, WI 82105"
    },
    {
        "state": "BG",
        "name": "Sushitsa",
        "city": "Laki",
        "prov": "Plovdiv",
        "region": "Obshtina Laki",
        "latt": "41.86667",
        "longt": "24.81667",
        "address": "2655 Johnson MewsnDeanmouth, ND 94138"
    },
    {
        "state": "BG",
        "name": "Vrashka Chuka",
        "city": "Kireevo",
        "prov": "Vidin",
        "region": "Obshtina Makresh",
        "latt": "43.83139",
        "longt": "22.37139",
        "address": "4498 Riley Trail Apt. 405nAnthonyview, TX 18682"
    },
    {
        "state": "BG",
        "name": "Talasakra",
        "city": "Chernomorets",
        "prov": "Burgas",
        "region": "Obshtina Sozopol",
        "latt": "42.44873",
        "longt": "27.64801",
        "address": "Unit 5815 Box 2187nDPO AA 32630"
    },
    {
        "state": "BG",
        "name": "Musova Yanama",
        "city": "Strazhets",
        "prov": "Ku016drdzhali",
        "region": null,
        "latt": "41.33471",
        "longt": "25.85769",
        "address": "407 Anderson Parkway Apt. 876nLake Jonathanfurt, NE 61203"
    },
    {
        "state": "BG",
        "name": "Bistrec",
        "city": "Krushari",
        "prov": "Dobrich",
        "region": "Obshtina Krushari",
        "latt": "43.83333",
        "longt": "27.73333",
        "address": "20467 Michael Drive Apt. 167nNew Julie, GA 88245"
    },
    {
        "state": "BG",
        "name": "Konyarnika",
        "city": "Nesla",
        "prov": "Sofia",
        "region": "Obshtina Dragoman",
        "latt": "42.918",
        "longt": "22.82224",
        "address": "37783 Orozco StravenuenNorth Anna, GA 83912"
    },
    {
        "state": "BG",
        "name": "Sushitsa",
        "city": "Laki",
        "prov": "Plovdiv",
        "region": "Obshtina Laki",
        "latt": "41.86667",
        "longt": "24.81667",
        "address": "4563 Ariel SummitnNew Angela, LA 28905"
    },
    {
        "state": "BG",
        "name": "Milin Kamak",
        "city": "Chiren",
        "prov": "Vratsa",
        "region": "Obshtina Vratsa",
        "latt": "43.33333",
        "longt": "23.63333",
        "address": "0773 Christine Wall Suite 189nElizabethtown, WY 41818"
    },
    {
        "state": "BG",
        "name": "Dobri Dol",
        "city": "Dobri Dol",
        "prov": "Kyustendil",
        "region": "Obshtina Treklyano",
        "latt": "42.49641",
        "longt": "22.66569",
        "address": "PSC 7095, Box 0163nAPO AP 99045"
    },
    {
        "state": "BG",
        "name": "Obshtina Etropole",
        "city": "Ribaritsa",
        "prov": "Sofia",
        "region": "Obshtina Etropole",
        "latt": "42.85",
        "longt": "24.03333",
        "address": "488 Mark Point Apt. 377nRichardberg, IA 69998"
    },
    {
        "state": "BG",
        "name": "Lenishte",
        "city": "Budiltsi",
        "prov": "Blagoevgrad",
        "region": "Obshtina Kresna",
        "latt": "41.694571",
        "longt": "23.085795",
        "address": "2595 Kathryn Parkways Suite 404nLisashire, HI 32125"
    },
    {
        "state": "BG",
        "name": "Rezovo",
        "city": "Rezovo",
        "prov": "Burgas",
        "region": "Obshtina Tsarevo",
        "latt": "41.98557",
        "longt": "28.03028",
        "address": "3405 Cline Run Suite 828nSouth Lindseybury, NV 16335"
    },
    {
        "state": "BG",
        "name": "Nova Popina",
        "city": "Nova Popina",
        "prov": "Silistra",
        "region": "Obshtina Sitovo",
        "latt": "44.02943",
        "longt": "26.95503",
        "address": "8767 William Points Apt. 308nMedinaberg, NC 79004"
    },
    {
        "state": "BG",
        "name": "Dalgia Bair",
        "city": "Zlatinitsa",
        "prov": "Yambol",
        "region": "Obshtina Bolyarovo",
        "latt": "42.16747",
        "longt": "26.70397",
        "address": "70572 Jimenez MissionnJamesburgh, KS 52659"
    },
    {
        "state": "BG",
        "name": "Petrovo Bardo",
        "city": "Batak",
        "prov": "Pazardzhik",
        "region": "Obshtina Batak",
        "latt": "41.93441",
        "longt": "24.19105",
        "address": "9489 Deanna Square Apt. 303nAmandatown, VA 39938"
    },
    {
        "state": "BG",
        "name": "Razvalini Slatina",
        "city": "Slatina",
        "prov": "Plovdiv",
        "region": "Obshtina Karlovo",
        "latt": "42.683333",
        "longt": "24.583333",
        "address": "0820 James Island Suite 598nEast Ricardomouth, CA 27089"
    },
    {
        "state": "BG",
        "name": "Obshtina Valchidol",
        "city": "Valchidol",
        "prov": "Varna",
        "region": "Obshtina Valchidol",
        "latt": "43.45",
        "longt": "27.5",
        "address": "3422 Karen PlazanNew Anna, TN 09504"
    },
    {
        "state": "BG",
        "name": "Pepelashka Reka",
        "city": "Hrabrino",
        "prov": "Plovdiv",
        "region": "Obshtina Perushtitsa",
        "latt": "42.03333",
        "longt": "24.63333",
        "address": "56988 Dana TracknSouth Christopher, LA 34637"
    },
    {
        "state": "BG",
        "name": "Talasakra",
        "city": "Chernomorets",
        "prov": "Burgas",
        "region": "Obshtina Sozopol",
        "latt": "42.44873",
        "longt": "27.64801",
        "address": "53082 Stephen MeadownNorth Sydneyview, CO 44957"
    },
    {
        "state": "BG",
        "name": "Turokovtsi",
        "city": "Tran",
        "prov": "Pernik",
        "region": "Tran",
        "latt": "42.82528",
        "longt": "22.60444",
        "address": "174 Singh PassagenTimothyhaven, OH 80365"
    },
    {
        "state": "BG",
        "name": "Syuyutliyka",
        "city": "Radnevo",
        "prov": "Stara Zagora",
        "region": "Obshtina Radnevo",
        "latt": "42.28333",
        "longt": "25.91667",
        "address": "197 Holloway Flat Suite 023nPort Christyside, IN 77078"
    },
    {
        "state": "BG",
        "name": "Zmeyovski Prohod",
        "city": "Zmeyovo",
        "prov": "Stara Zagora",
        "region": "Obshtina Stara Zagora",
        "latt": "42.51667",
        "longt": "25.61667",
        "address": "62050 Kimberly TerracenSmithland, TX 47672"
    },
    {
        "state": "BG",
        "name": "Targoviste",
        "city": "Targovishte",
        "prov": "Razgrad",
        "region": null,
        "latt": "43.2592",
        "longt": "26.5892",
        "address": "95553 Alvarado Inlet Suite 697nNew Zachary, WY 68629"
    },
    {
        "state": "BG",
        "name": "Kamenna Reka",
        "city": "Kamenna Reka",
        "prov": "Yambol",
        "region": "Obshtina Topolovgrad",
        "latt": "42.16667",
        "longt": "26.28333",
        "address": "USNV WhitenFPO AE 26205"
    },
    {
        "state": "BG",
        "name": "Turokovtsi",
        "city": "Tran",
        "prov": "Pernik",
        "region": "Tran",
        "latt": "42.82528",
        "longt": "22.60444",
        "address": "02597 Jonathan BridgenLake Rachelport, FL 20463"
    },