[
    {
        "state": "SI",
        "name": "Jeu017ea",
        "city": "Ljubljana",
        "prov": "Ljubljana",
        "region": null,
        "latt": "46.10167",
        "longt": "14.54972",
        "address": "389 Kelly StreetnHeatherfurt, ID 36841"
    },
    {
        "state": "SI",
        "name": "Majcni",
        "city": "Sezana",
        "prov": "Seu017eana",
        "region": null,
        "latt": "45.74452",
        "longt": "13.93585",
        "address": "05968 Walker Meadow Apt. 992nStephenton, WA 08414"
    },
    {
        "state": "SI",
        "name": "Gru010darevec",
        "city": "Logatec",
        "prov": "Logatec",
        "region": null,
        "latt": "45.87528",
        "longt": "14.21333",
        "address": "210 Matthew NecknEast Dwayne, DE 99168"
    },
    {
        "state": "SI",
        "name": "Gru010darevec",
        "city": "Logatec",
        "prov": "Logatec",
        "region": null,
        "latt": "45.87528",
        "longt": "14.21333",
        "address": "0211 Dougherty WallnEast Peterland, KS 04693"
    },
    {
        "state": "SI",
        "name": "Zaju010dji Vrh",
        "city": "Crnomelj",
        "prov": "u010crnomelj",
        "region": null,
        "latt": "45.58013",
        "longt": "15.1581",
        "address": "19720 Long ExtensionsnSarahmouth, IL 61880"
    },
    {
        "state": "SI",
        "name": "Kalobje",
        "city": "Sentjur",
        "prov": "Sentjur",
        "region": null,
        "latt": "46.16722",
        "longt": "15.39444",
        "address": "398 Ashley Cliff Apt. 526nLake Kenneth, NM 83079"
    },
    {
        "state": "SI",
        "name": "Gornja Kou0161ana",
        "city": "Pivka",
        "prov": "Pivka",
        "region": null,
        "latt": "45.68474",
        "longt": "14.12061",
        "address": "USS BerrynFPO AA 07348"
    },
    {
        "state": "SI",
        "name": "Kadrenci",
        "city": "Cogetinci",
        "prov": "Cerkvenjak",
        "region": null,
        "latt": "46.56611",
        "longt": "15.95434",
        "address": "793 Brooke TurnpikenTorresmouth, NY 48559"
    },
    {
        "state": "SI",
        "name": "Razbore-K. O. Jeu017eni Vrh",
        "city": "Smartno pri Litiji",
        "prov": "u0160martno pri Litiji",
        "region": null,
        "latt": "46.008",
        "longt": "14.89834",
        "address": "6571 Rose Islands Apt. 371nHeatherville, ME 62577"
    },
    {
        "state": "SI",
        "name": "Gornja Kou0161ana",
        "city": "Pivka",
        "prov": "Pivka",
        "region": null,
        "latt": "45.68474",
        "longt": "14.12061",
        "address": "71152 Bishop PinesnMillerburgh, CT 92975"
    },
    {
        "state": "SI",
        "name": "Gornja Kou0161ana",
        "city": "Pivka",
        "prov": "Pivka",
        "region": null,
        "latt": "45.68474",
        "longt": "14.12061",
        "address": "4361 Gonzalez PassnSouth Tiffanyberg, WY 07414"
    },
    {
        "state": "SI",
        "name": "Razbore-K. O. Jeu017eni Vrh",
        "city": "Smartno pri Litiji",
        "prov": "u0160martno pri Litiji",
        "region": null,
        "latt": "46.008",
        "longt": "14.89834",
        "address": "34310 Amy ShorenDavidborough, MT 62734"
    },
    {
        "state": "SI",
        "name": "Zaju010dji Vrh",
        "city": "Crnomelj",
        "prov": "u010crnomelj",
        "region": null,
        "latt": "45.58013",
        "longt": "15.1581",
        "address": "5410 Anthony MountainsnNorth Micheleville, NC 72285"
    },
    {
        "state": "SI",
        "name": "Gornja Kou0161ana",
        "city": "Pivka",
        "prov": "Pivka",
        "region": null,
        "latt": "45.68474",
        "longt": "14.12061",
        "address": "06039 Moore MountainsnLake Ericchester, OR 68468"
    },
    {
        "state": "SI",
        "name": "Selo pri Vranskem",
        "city": "Vransko",
        "prov": "Vransko",
        "region": null,
        "latt": "46.25976",
        "longt": "14.9603",
        "address": "875 Oliver Plains Apt. 926nDianefurt, AZ 70355"
    },
    {
        "state": "SI",
        "name": "Obu010dina Rogau0161ka Slatina",
        "city": "Rogaska Slatina",
        "prov": "Rogau0161ka Slatina",
        "region": null,
        "latt": "46.24667",
        "longt": "15.62944",
        "address": "6000 James Avenue Suite 130nNorth Heatherton, FL 14170"
    },
    {
        "state": "SI",
        "name": "Nou0161e",
        "city": "Radovljica",
        "prov": "Radovljica",
        "region": null,
        "latt": "46.33306",
        "longt": "14.22952",
        "address": "1759 Lewis DalenLauraton, WV 14397"
    },
    {
        "state": "SI",
        "name": "Kaplanovo",
        "city": "Velike Lau0161u010de",
        "prov": "Velike Lau0161u010de",
        "region": null,
        "latt": "45.82126",
        "longt": "14.59369",
        "address": "887 Walters BurgnWest Jill, OH 85057"
    },
    {
        "state": "SI",
        "name": "Studor",
        "city": "Gorenja Vas",
        "prov": "Gorenja Vas-Poljane",
        "region": null,
        "latt": "46.13961",
        "longt": "14.09348",
        "address": "65931 Donald Field Apt. 227nLaurenmouth, TN 72632"
    },
    {
        "state": "SI",
        "name": "Radanja Vas",
        "city": "Sentvid pri Sticni",
        "prov": "Ivanu010dna Gorica",
        "region": null,
        "latt": "45.97802",
        "longt": "14.88389",
        "address": "5580 Jeremy ExpresswaynBlakeberg, VT 36214"
    },
    {
        "state": "SI",
        "name": "Nou0161e",
        "city": "Radovljica",
        "prov": "Radovljica",
        "region": null,
        "latt": "46.33306",
        "longt": "14.22952",
        "address": "95329 Gomez Ford Apt. 952nWoodshaven, NH 56441"
    },
    {
        "state": "SI",
        "name": "Hebat",
        "city": "Bohinj",
        "prov": "Bohinj",
        "region": null,
        "latt": "46.29722",
        "longt": "13.87028",
        "address": "44128 Adam KeysnKimberlyburgh, MS 67026"
    },
    {
        "state": "SI",
        "name": "Kobilec",
        "city": "Hrast pri Vinici",
        "prov": "u010crnomelj",
        "region": null,
        "latt": "45.5",
        "longt": "15.23333",
        "address": "61906 Campbell Fork Suite 847nMitchellfort, NH 36504"
    },
    {
        "state": "SI",
        "name": "Nou0161e",
        "city": "Radovljica",
        "prov": "Radovljica",
        "region": null,
        "latt": "46.33306",
        "longt": "14.22952",
        "address": "29405 Watson Mills Suite 983nNorth Brandon, RI 36170"
    },
    {
        "state": "SI",
        "name": "Jeu017ea",
        "city": "Ljubljana",
        "prov": "Ljubljana",
        "region": null,
        "latt": "46.10167",
        "longt": "14.54972",
        "address": "50161 Wells IslandsnLake Shelby, AL 77891"
    },
    {
        "state": "SI",
        "name": "Dren",
        "city": "Stelnik",
        "prov": "Kostel",
        "region": null,
        "latt": "45.49492",
        "longt": "14.88273",
        "address": "861 Kenneth SpursnSmithton, MS 16408"
    },
    {
        "state": "SI",
        "name": "Razbore-K. O. Jeu017eni Vrh",
        "city": "Smartno pri Litiji",
        "prov": "u0160martno pri Litiji",
        "region": null,
        "latt": "46.008",
        "longt": "14.89834",
        "address": "728 Johnson Plain Suite 093nNew Elizabeth, CO 41782"
    },
    {
        "state": "SI",
        "name": "Razbore-K. O. Jeu017eni Vrh",
        "city": "Smartno pri Litiji",
        "prov": "u0160martno pri Litiji",
        "region": null,
        "latt": "46.008",
        "longt": "14.89834",
        "address": "8829 Jennifer Underpass Apt. 371nLambertshire, MO 66424"
    },
    {
        "state": "SI",
        "name": "Satahovci",
        "city": "Murska Sobota",
        "prov": "Tiu0161ina",
        "region": null,
        "latt": "46.633333",
        "longt": "16.108056",
        "address": "84174 Day Trace Apt. 209nNew Michaelside, KS 23048"
    },
    {
        "state": "SI",
        "name": "Polje",
        "city": "Prapetno Brdo",
        "prov": "Tolmin",
        "region": null,
        "latt": "46.1105",
        "longt": "13.86232",
        "address": "627 Perez RownLozanoville, MA 79684"
    },
    {
        "state": "SI",
        "name": "Nou0161e",
        "city": "Radovljica",
        "prov": "Radovljica",
        "region": null,
        "latt": "46.33306",
        "longt": "14.22952",
        "address": "1614 Dominique Wells Suite 807nAndrewchester, IA 66094"
    },
    {
        "state": "SI",
        "name": "Radanja Vas",
        "city": "Sentvid pri Sticni",
        "prov": "Ivanu010dna Gorica",
        "region": null,
        "latt": "45.97802",
        "longt": "14.88389",
        "address": "621 Benjamin Streets Suite 097nNew Matthewburgh, WV 49194"
    },
    {
        "state": "SI",
        "name": "Studor",
        "city": "Gorenja Vas",
        "prov": "Gorenja Vas-Poljane",
        "region": null,
        "latt": "46.13961",
        "longt": "14.09348",
        "address": "591 Jason KeynChristophermouth, DE 04170"
    },
    {
        "state": "SI",
        "name": "Kadrenci",
        "city": "Cogetinci",
        "prov": "Cerkvenjak",
        "region": null,
        "latt": "46.56611",
        "longt": "15.95434",
        "address": "5415 Tammy MotorwaynRosehaven, CA 96543"
    },
    {
        "state": "SI",
        "name": "Kaplanovo",
        "city": "Velike Lau0161u010de",
        "prov": "Velike Lau0161u010de",
        "region": null,
        "latt": "45.82126",
        "longt": "14.59369",
        "address": "4228 Diaz WellsnJessicaborough, NV 24586"
    },
    {
        "state": "SI",
        "name": "Obu010dina Rogau0161ka Slatina",
        "city": "Rogaska Slatina",
        "prov": "Rogau0161ka Slatina",
        "region": null,
        "latt": "46.24667",
        "longt": "15.62944",
        "address": "230 Walton VillenRebekahburgh, OK 57332"
    },
    {
        "state": "SI",
        "name": "Selo pri Vranskem",
        "city": "Vransko",
        "prov": "Vransko",
        "region": null,
        "latt": "46.25976",
        "longt": "14.9603",
        "address": "03576 Karen MeadowsnSouth Robertberg, CO 30934"
    },
    {
        "state": "SI",
        "name": "Razbore-K. O. Jeu017eni Vrh",
        "city": "Smartno pri Litiji",
        "prov": "u0160martno pri Litiji",
        "region": null,
        "latt": "46.008",
        "longt": "14.89834",
        "address": "539 Figueroa SkywaynAndersonland, AR 32969"
    },
    {
        "state": "SI",
        "name": "Radanja Vas",
        "city": "Sentvid pri Sticni",
        "prov": "Ivanu010dna Gorica",
        "region": null,
        "latt": "45.97802",
        "longt": "14.88389",
        "address": "154 Fry Throughway Apt. 324nWest Melanieberg, IA 47178"
    },
    {
        "state": "SI",
        "name": "Sveti Jernej",
        "city": "Sveti Jernej",
        "prov": "Slovenska Konjice",
        "region": null,
        "latt": "46.31667",
        "longt": "15.51667",
        "address": "Unit 5576 Box 3212nDPO AA 36763"
    },
    {
        "state": "SI",
        "name": "Hebat",
        "city": "Bohinj",
        "prov": "Bohinj",
        "region": null,
        "latt": "46.29722",
        "longt": "13.87028",
        "address": "62885 Robertson Wall Apt. 500nWest Marthaborough, TX 08269"
    },
    {
        "state": "SI",
        "name": "Buu0161eu010da Vas",
        "city": "Brezice",
        "prov": "Breu017eice",
        "region": null,
        "latt": "45.86848",
        "longt": "15.51987",
        "address": "9241 Davis Canyon Suite 369nWest Seanland, TN 47679"
    },
    {
        "state": "SI",
        "name": "Dren",
        "city": "Stelnik",
        "prov": "Kostel",
        "region": null,
        "latt": "45.49492",
        "longt": "14.88273",
        "address": "36346 Miller Club Apt. 986nNorth John, ME 64710"
    },
    {
        "state": "SI",
        "name": "Dren",
        "city": "Stelnik",
        "prov": "Kostel",
        "region": null,
        "latt": "45.49492",
        "longt": "14.88273",
        "address": "Unit 0944 Box 1021nDPO AE 90625"
    },
    {
        "state": "SI",
        "name": "Sveti Jernej",
        "city": "Sveti Jernej",
        "prov": "Slovenska Konjice",
        "region": null,
        "latt": "46.31667",
        "longt": "15.51667",
        "address": "1996 Cathy Spurs Apt. 978nPort Janice, DE 31681"
    },
    {
        "state": "SI",
        "name": "Kaplanovo",
        "city": "Velike Lau0161u010de",
        "prov": "Velike Lau0161u010de",
        "region": null,
        "latt": "45.82126",
        "longt": "14.59369",
        "address": "2927 Bradley Viaduct Apt. 455nPaulchester, AR 68525"
    },
    {
        "state": "SI",
        "name": "Jeu017ea",
        "city": "Ljubljana",
        "prov": "Ljubljana",
        "region": null,
        "latt": "46.10167",
        "longt": "14.54972",
        "address": "2251 Robyn Locks Suite 983nEmmafurt, ID 15909"
    },
    {
        "state": "SI",
        "name": "Kalobje",
        "city": "Sentjur",
        "prov": "Sentjur",
        "region": null,
        "latt": "46.16722",
        "longt": "15.39444",
        "address": "1728 Stephanie WallnWest Kevin, NJ 21985"
    },
    {
        "state": "SI",
        "name": "Polje",
        "city": "Prapetno Brdo",
        "prov": "Tolmin",
        "region": null,
        "latt": "46.1105",
        "longt": "13.86232",
        "address": "Unit 3100 Box 1529nDPO AA 46776"
    },
    {
        "state": "SI",
        "name": "Razbore-K. O. Jeu017eni Vrh",
        "city": "Smartno pri Litiji",
        "prov": "u0160martno pri Litiji",
        "region": null,
        "latt": "46.008",
        "longt": "14.89834",
        "address": "79432 Price Brook Suite 464nRuizborough, CT 98291"
    },
    {
        "state": "SI",
        "name": "Kadrenci",
        "city": "Cogetinci",
        "prov": "Cerkvenjak",
        "region": null,
        "latt": "46.56611",
        "longt": "15.95434",
        "address": "61361 Perkins Pass Suite 966nLake Travis, AL 53757"
    },
    {
        "state": "SI",
        "name": "Satahovci",
        "city": "Murska Sobota",
        "prov": "Tiu0161ina",
        "region": null,
        "latt": "46.633333",
        "longt": "16.108056",
        "address": "1640 Jennifer Alley Apt. 905nSouth Thomas, ND 96300"
    },
    {
        "state": "SI",
        "name": "Obu010dina Rogau0161ka Slatina",
        "city": "Rogaska Slatina",
        "prov": "Rogau0161ka Slatina",
        "region": null,
        "latt": "46.24667",
        "longt": "15.62944",
        "address": "013 Donna Street Suite 751nWest Josephside, NV 63563"
    },
    {
        "state": "SI",
        "name": "Kalobje",
        "city": "Sentjur",
        "prov": "Sentjur",
        "region": null,
        "latt": "46.16722",
        "longt": "15.39444",
        "address": "Unit 8619 Box 2090nDPO AA 45503"
    },
    {
        "state": "SI",
        "name": "Nou0161e",
        "city": "Radovljica",
        "prov": "Radovljica",
        "region": null,
        "latt": "46.33306",
        "longt": "14.22952",
        "address": "9360 Phillips LandnVickiview, AK 97100"
    },
    {
        "state": "SI",
        "name": "Radanja Vas",
        "city": "Sentvid pri Sticni",
        "prov": "Ivanu010dna Gorica",
        "region": null,
        "latt": "45.97802",
        "longt": "14.88389",
        "address": "USS CaseynFPO AE 46279"
    },
    {
        "state": "SI",
        "name": "Gornja Kou0161ana",
        "city": "Pivka",
        "prov": "Pivka",
        "region": null,
        "latt": "45.68474",
        "longt": "14.12061",
        "address": "842 Barnes VillagesnWebsterfurt, NE 96007"
    },
    {
        "state": "SI",
        "name": "Kalobje",
        "city": "Sentjur",
        "prov": "Sentjur",
        "region": null,
        "latt": "46.16722",
        "longt": "15.39444",
        "address": "719 Heather PassnNew Suzanneshire, GA 17589"
    },
    {
        "state": "SI",
        "name": "Razbore-K. O. Jeu017eni Vrh",
        "city": "Smartno pri Litiji",
        "prov": "u0160martno pri Litiji",
        "region": null,
        "latt": "46.008",
        "longt": "14.89834",
        "address": "6472 Norton Course Suite 876nDanielsland, MA 44986"
    },
    {
        "state": "SI",
        "name": "Kaplanovo",
        "city": "Velike Lau0161u010de",
        "prov": "Velike Lau0161u010de",
        "region": null,
        "latt": "45.82126",
        "longt": "14.59369",
        "address": "Unit 5528 Box 7025nDPO AE 89777"
    },
    {
        "state": "SI",
        "name": "u017dupelevec",
        "city": "Zupelevec",
        "prov": "Breu017eice",
        "region": null,
        "latt": "45.95917",
        "longt": "15.68722",
        "address": "7355 Miller Rapids Suite 246nJohnland, TX 18115"
    },
    {
        "state": "SI",
        "name": "Kadrenci",
        "city": "Cogetinci",
        "prov": "Cerkvenjak",
        "region": null,
        "latt": "46.56611",
        "longt": "15.95434",
        "address": "0276 Ewing Crescent Apt. 999nDavidside, VA 93032"
    },
    {
        "state": "SI",
        "name": "Selo pri Vranskem",
        "city": "Vransko",
        "prov": "Vransko",
        "region": null,
        "latt": "46.25976",
        "longt": "14.9603",
        "address": "4355 Johnny WallnSophiamouth, AL 94064"
    },
    {
        "state": "SI",
        "name": "Razbore-K. O. Jeu017eni Vrh",
        "city": "Smartno pri Litiji",
        "prov": "u0160martno pri Litiji",
        "region": null,
        "latt": "46.008",
        "longt": "14.89834",
        "address": "275 Deborah EstatenVillarrealville, AL 38828"
    },
    {
        "state": "SI",
        "name": "Polje",
        "city": "Prapetno Brdo",
        "prov": "Tolmin",
        "region": null,
        "latt": "46.1105",
        "longt": "13.86232",
        "address": "5224 Robert StravenuenNew Sharonland, KY 44503"
    },
    {
        "state": "SI",
        "name": "Kalobje",
        "city": "Sentjur",
        "prov": "Sentjur",
        "region": null,
        "latt": "46.16722",
        "longt": "15.39444",
        "address": "50173 Hannah DrivesnJerryburgh, CO 46767"
    },
    {
        "state": "SI",
        "name": "Cuber",
        "city": "Ljutomer",
        "prov": "Ljutomer",
        "region": null,
        "latt": "46.49443",
        "longt": "16.18521",
        "address": "8962 Reyes BurgsnVeronicashire, CO 50358"
    },
    {
        "state": "SI",
        "name": "Hebat",
        "city": "Bohinj",
        "prov": "Bohinj",
        "region": null,
        "latt": "46.29722",
        "longt": "13.87028",
        "address": "1761 Webb CourtsnWest Sarahchester, KS 74762"
    },
    {
        "state": "SI",
        "name": "Sveti Jernej",
        "city": "Sveti Jernej",
        "prov": "Slovenska Konjice",
        "region": null,
        "latt": "46.31667",
        "longt": "15.51667",
        "address": "7350 Gonzales Oval Suite 449nMillerbury, OK 43116"
    },
    {
        "state": "SI",
        "name": "Nou0161e",
        "city": "Radovljica",
        "prov": "Radovljica",
        "region": null,
        "latt": "46.33306",
        "longt": "14.22952",
        "address": "95812 Thomas BurgnWest Mirandamouth, OR 14647"
    },
    {
        "state": "SI",
        "name": "Polje",
        "city": "Prapetno Brdo",
        "prov": "Tolmin",
        "region": null,
        "latt": "46.1105",
        "longt": "13.86232",
        "address": "68830 Robert RapidsnMichelleberg, UT 49005"
    },
    {
        "state": "SI",
        "name": "Kadrenci",
        "city": "Cogetinci",
        "prov": "Cerkvenjak",
        "region": null,
        "latt": "46.56611",
        "longt": "15.95434",
        "address": "70822 Hancock Dale Suite 355nLake Edwardport, CT 01331"
    },
    {
        "state": "SI",
        "name": "Studor",
        "city": "Gorenja Vas",
        "prov": "Gorenja Vas-Poljane",
        "region": null,
        "latt": "46.13961",
        "longt": "14.09348",
        "address": "56462 Javier Neck Apt. 082nRodriguezbury, CA 24847"
    },
    {
        "state": "SI",
        "name": "Buu0161eu010da Vas",
        "city": "Brezice",
        "prov": "Breu017eice",
        "region": null,
        "latt": "45.86848",
        "longt": "15.51987",
        "address": "95471 Garrett VillenLindseyton, MT 47688"
    },
    {
        "state": "SI",
        "name": "Polje",
        "city": "Prapetno Brdo",
        "prov": "Tolmin",
        "region": null,
        "latt": "46.1105",
        "longt": "13.86232",
        "address": "67459 Lisa LandingnAmandafort, IL 39071"
    },
    {
        "state": "SI",
        "name": "Sveti Jernej",
        "city": "Sveti Jernej",
        "prov": "Slovenska Konjice",
        "region": null,
        "latt": "46.31667",
        "longt": "15.51667",
        "address": "44156 Holloway Divide Suite 773nThomasburgh, MI 11114"
    },
    {
        "state": "SI",
        "name": "Studor",
        "city": "Gorenja Vas",
        "prov": "Gorenja Vas-Poljane",
        "region": null,
        "latt": "46.13961",
        "longt": "14.09348",
        "address": "2046 Danny Bridge Suite 486nNorth Melissa, ME 39989"
    },
    {
        "state": "SI",
        "name": "Kaplanovo",
        "city": "Velike Lau0161u010de",
        "prov": "Velike Lau0161u010de",
        "region": null,
        "latt": "45.82126",
        "longt": "14.59369",
        "address": "20553 Torres Turnpike Suite 364nWest Michaelfurt, NH 57403"
    },
    {
        "state": "SI",
        "name": "Gornja Kou0161ana",
        "city": "Pivka",
        "prov": "Pivka",
        "region": null,
        "latt": "45.68474",
        "longt": "14.12061",
        "address": "1449 Aaron SpursnSouth Lindaview, FL 47373"
    },
    {
        "state": "SI",
        "name": "Kadrenci",
        "city": "Cogetinci",
        "prov": "Cerkvenjak",
        "region": null,
        "latt": "46.56611",
        "longt": "15.95434",
        "address": "90095 Anthony DividenAmandashire, OK 28677"
    },
    {
        "state": "SI",
        "name": "Nou0161e",
        "city": "Radovljica",
        "prov": "Radovljica",
        "region": null,
        "latt": "46.33306",
        "longt": "14.22952",
        "address": "662 Henry SquaresnNorth Linda, KS 30663"
    },
    {
        "state": "SI",
        "name": "Nou0161e",
        "city": "Radovljica",
        "prov": "Radovljica",
        "region": null,
        "latt": "46.33306",
        "longt": "14.22952",
        "address": "102 Aguilar GardennLake Melissabury, NE 80780"
    },
    {
        "state": "SI",
        "name": "Studor",
        "city": "Gorenja Vas",
        "prov": "Gorenja Vas-Poljane",
        "region": null,
        "latt": "46.13961",
        "longt": "14.09348",
        "address": "692 Lauren Via Suite 582nMatthewmouth, LA 30986"
    },
    {
        "state": "SI",
        "name": "Kadrenci",
        "city": "Cogetinci",
        "prov": "Cerkvenjak",
        "region": null,
        "latt": "46.56611",
        "longt": "15.95434",
        "address": "007 Robert Haven Suite 995nEast Angela, OR 79521"
    },
    {
        "state": "SI",
        "name": "Kaplanovo",
        "city": "Velike Lau0161u010de",
        "prov": "Velike Lau0161u010de",
        "region": null,
        "latt": "45.82126",
        "longt": "14.59369",
        "address": "2190 Jean Stravenue Apt. 246nEast Maryborough, UT 75429"
    },
    {
        "state": "SI",
        "name": "Kalobje",
        "city": "Sentjur",
        "prov": "Sentjur",
        "region": null,
        "latt": "46.16722",
        "longt": "15.39444",
        "address": "8191 Melissa VistanSandramouth, ID 89851"
    },
    {
        "state": "SI",
        "name": "Gornja Kou0161ana",
        "city": "Pivka",
        "prov": "Pivka",
        "region": null,
        "latt": "45.68474",
        "longt": "14.12061",
        "address": "1507 Lynch Pines Apt. 512nWilliamsfurt, VA 12843"
    },
    {
        "state": "SI",
        "name": "Studor",
        "city": "Gorenja Vas",
        "prov": "Gorenja Vas-Poljane",
        "region": null,
        "latt": "46.13961",
        "longt": "14.09348",
        "address": "770 Trevor LocknFloreston, ME 95565"
    },
    {
        "state": "SI",
        "name": "Kalobje",
        "city": "Sentjur",
        "prov": "Sentjur",
        "region": null,
        "latt": "46.16722",
        "longt": "15.39444",
        "address": "1485 Ashley TrailnSouth Brendachester, NC 93328"
    },
    {
        "state": "SI",
        "name": "Kaplanovo",
        "city": "Velike Lau0161u010de",
        "prov": "Velike Lau0161u010de",
        "region": null,
        "latt": "45.82126",
        "longt": "14.59369",
        "address": "PSC 6781, Box 2957nAPO AE 02529"
    },
    {
        "state": "SI",
        "name": "Majcni",
        "city": "Sezana",
        "prov": "Seu017eana",
        "region": null,
        "latt": "45.74452",
        "longt": "13.93585",
        "address": "Unit 7098 Box 7244nDPO AA 40258"
    },
    {
        "state": "SI",
        "name": "Jeu017ea",
        "city": "Ljubljana",
        "prov": "Ljubljana",
        "region": null,
        "latt": "46.10167",
        "longt": "14.54972",
        "address": "69423 Love Springs Suite 363nHardinview, WV 43302"
    },
    {
        "state": "SI",
        "name": "Mali u010centur",
        "city": "Koper",
        "prov": "Koper-Capodistria",
        "region": null,
        "latt": "45.51",
        "longt": "13.77222",
        "address": "Unit 9684 Box 8725nDPO AP 94188"
    },
    {
        "state": "SI",
        "name": "Gornja Kou0161ana",
        "city": "Pivka",
        "prov": "Pivka",
        "region": null,
        "latt": "45.68474",
        "longt": "14.12061",
        "address": "Unit 0422 Box 7045nDPO AA 84569"
    },
    {
        "state": "SI",
        "name": "Kalobje",
        "city": "Sentjur",
        "prov": "Sentjur",
        "region": null,
        "latt": "46.16722",
        "longt": "15.39444",
        "address": "Unit 5240 Box 9760nDPO AA 59282"
    },
    {
        "state": "SI",
        "name": "Studor",
        "city": "Gorenja Vas",
        "prov": "Gorenja Vas-Poljane",
        "region": null,
        "latt": "46.13961",
        "longt": "14.09348",
        "address": "Unit 5187 Box 0601nDPO AE 78024"
    },
    {
        "state": "SI",
        "name": "Zaju010dji Vrh",
        "city": "Crnomelj",
        "prov": "u010crnomelj",
        "region": null,
        "latt": "45.58013",
        "longt": "15.1581",
        "address": "USNS BennettnFPO AA 75513"
    },
    {
        "state": "SI",
        "name": "Dren",
        "city": "Stelnik",
        "prov": "Kostel",
        "region": null,
        "latt": "45.49492",
        "longt": "14.88273",
        "address": "76162 Cindy CornernSouth Justin, FL 14265"
    },
    {
        "state": "SI",
        "name": "Kalobje",
        "city": "Sentjur",
        "prov": "Sentjur",
        "region": null,
        "latt": "46.16722",
        "longt": "15.39444",
        "address": "9248 Rodriguez Divide Suite 863nWest Charles, MD 28993"
    },
    {
        "state": "SI",
        "name": "Jeu017ea",
        "city": "Ljubljana",
        "prov": "Ljubljana",
        "region": null,
        "latt": "46.10167",
        "longt": "14.54972",
        "address": "49396 Lisa Hill Apt. 887nFranklinport, DE 75991"
    },
    {
        "state": "SI",
        "name": "Zaju010dji Vrh",
        "city": "Crnomelj",
        "prov": "u010crnomelj",
        "region": null,
        "latt": "45.58013",
        "longt": "15.1581",
        "address": "01800 Michael Pass Suite 687nFloresside, PA 01915"
    },
    {
        "state": "SI",
        "name": "Kadrenci",
        "city": "Cogetinci",
        "prov": "Cerkvenjak",
        "region": null,
        "latt": "46.56611",
        "longt": "15.95434",
        "address": "52564 Anderson UnionsnWellsview, MA 93385"
    },
    {
        "state": "SI",
        "name": "Studor",
        "city": "Gorenja Vas",
        "prov": "Gorenja Vas-Poljane",
        "region": null,
        "latt": "46.13961",
        "longt": "14.09348",
        "address": "2279 Keith Creek Suite 914nNew Allisonland, ME 74937"
    },
    {
        "state": "SI",
        "name": "Obu010dina Rogau0161ka Slatina",
        "city": "Rogaska Slatina",
        "prov": "Rogau0161ka Slatina",
        "region": null,
        "latt": "46.24667",
        "longt": "15.62944",
        "address": "9957 Alex UnderpassnMadisonport, NE 20706"
    },
    {
        "state": "SI",
        "name": "Jeu017ea",
        "city": "Ljubljana",
        "prov": "Ljubljana",
        "region": null,
        "latt": "46.10167",
        "longt": "14.54972",
        "address": "01795 Cox Loaf Apt. 792nGarciaborough, MS 18608"
    },
    {
        "state": "SI",
        "name": "Gru010darevec",
        "city": "Logatec",
        "prov": "Logatec",
        "region": null,
        "latt": "45.87528",
        "longt": "14.21333",
        "address": "90123 Destiny Road Suite 257nNew Annefurt, NC 88021"
    },
    {
        "state": "SI",
        "name": "Majcni",
        "city": "Sezana",
        "prov": "Seu017eana",
        "region": null,
        "latt": "45.74452",
        "longt": "13.93585",
        "address": "772 John VillagesnMelissashire, WA 83954"
    },
    {
        "state": "SI",
        "name": "Radanja Vas",
        "city": "Sentvid pri Sticni",
        "prov": "Ivanu010dna Gorica",
        "region": null,
        "latt": "45.97802",
        "longt": "14.88389",
        "address": "USNS MckaynFPO AA 96800"
    },
    {
        "state": "SI",
        "name": "Razbore-K. O. Jeu017eni Vrh",
        "city": "Smartno pri Litiji",
        "prov": "u0160martno pri Litiji",
        "region": null,
        "latt": "46.008",
        "longt": "14.89834",
        "address": "Unit 0478 Box 4439nDPO AE 82676"
    },
    {
        "state": "SI",
        "name": "Buu0161eu010da Vas",
        "city": "Brezice",
        "prov": "Breu017eice",
        "region": null,
        "latt": "45.86848",
        "longt": "15.51987",
        "address": "223 Heather ParknHawkinsberg, AK 90853"
    },
    {
        "state": "SI",
        "name": "Radanja Vas",
        "city": "Sentvid pri Sticni",
        "prov": "Ivanu010dna Gorica",
        "region": null,
        "latt": "45.97802",
        "longt": "14.88389",
        "address": "85327 Tony Village Apt. 240nWest Scottville, CT 96509"
    },
    {
        "state": "SI",
        "name": "Selo pri Vranskem",
        "city": "Vransko",
        "prov": "Vransko",
        "region": null,
        "latt": "46.25976",
        "longt": "14.9603",
        "address": "111 Jennifer Points Suite 060nEast Charlotte, TN 02804"
    },
    {
        "state": "SI",
        "name": "Radanja Vas",
        "city": "Sentvid pri Sticni",
        "prov": "Ivanu010dna Gorica",
        "region": null,
        "latt": "45.97802",
        "longt": "14.88389",
        "address": "728 Justin Walk Apt. 642nThomashaven, UT 12598"
    },
    {
        "state": "SI",
        "name": "Sveti Jernej",
        "city": "Sveti Jernej",
        "prov": "Slovenska Konjice",
        "region": null,
        "latt": "46.31667",
        "longt": "15.51667",
        "address": "45573 Ashlee MeadownEast Laurenton, HI 58662"
    },
    {
        "state": "SI",
        "name": "Satahovci",
        "city": "Murska Sobota",
        "prov": "Tiu0161ina",
        "region": null,
        "latt": "46.633333",
        "longt": "16.108056",
        "address": "3772 Wood MeadownSouth Shelia, ID 66406"
    },
    {
        "state": "SI",
        "name": "Sveti Jernej",
        "city": "Sveti Jernej",
        "prov": "Slovenska Konjice",
        "region": null,
        "latt": "46.31667",
        "longt": "15.51667",
        "address": "7561 Kaitlin Fall Apt. 466nNew Kevinport, NC 10006"
    },
    {
        "state": "SI",
        "name": "Zaju010dji Vrh",
        "city": "Crnomelj",
        "prov": "u010crnomelj",
        "region": null,
        "latt": "45.58013",
        "longt": "15.1581",
        "address": "8507 Pamela Locks Suite 797nJonesbury, TN 33409"
    },
    {
        "state": "SI",
        "name": "Studor",
        "city": "Gorenja Vas",
        "prov": "Gorenja Vas-Poljane",
        "region": null,
        "latt": "46.13961",
        "longt": "14.09348",
        "address": "7238 Murray FieldnLake Andrewmouth, FL 09302"
    },
    {
        "state": "SI",
        "name": "Obu010dina Rogau0161ka Slatina",
        "city": "Rogaska Slatina",
        "prov": "Rogau0161ka Slatina",
        "region": null,
        "latt": "46.24667",
        "longt": "15.62944",
        "address": "986 Cassandra ShorenNorth Seanmouth, NC 84149"
    },
    {
        "state": "SI",
        "name": "Radanja Vas",
        "city": "Sentvid pri Sticni",
        "prov": "Ivanu010dna Gorica",
        "region": null,
        "latt": "45.97802",
        "longt": "14.88389",
        "address": "2662 Arnold BranchnNew Logan, NE 82099"
    },
    {
        "state": "SI",
        "name": "Dren",
        "city": "Stelnik",
        "prov": "Kostel",
        "region": null,
        "latt": "45.49492",
        "longt": "14.88273",
        "address": "580 Horn Junctions Suite 872nSouth Zoemouth, FL 50416"
    },
    {
        "state": "SI",
        "name": "Jeu017ea",
        "city": "Ljubljana",
        "prov": "Ljubljana",
        "region": null,
        "latt": "46.10167",
        "longt": "14.54972",
        "address": "26251 Patterson Falls Apt. 053nWongfort, OH 38710"
    },
    {
        "state": "SI",
        "name": "Jeu017ea",
        "city": "Ljubljana",
        "prov": "Ljubljana",
        "region": null,
        "latt": "46.10167",
        "longt": "14.54972",
        "address": "16454 Tyler FordsnPrattmouth, UT 13935"
    },
    {
        "state": "SI",
        "name": "Buu0161eu010da Vas",
        "city": "Brezice",
        "prov": "Breu017eice",
        "region": null,
        "latt": "45.86848",
        "longt": "15.51987",
        "address": "6271 Williams Path Suite 256nEast Robert, NM 98895"
    },
    {
        "state": "SI",
        "name": "Gru010darevec",
        "city": "Logatec",
        "prov": "Logatec",
        "region": null,
        "latt": "45.87528",
        "longt": "14.21333",
        "address": "7702 Hill PlainnReyesmouth, NJ 58595"
    },
    {
        "state": "SI",
        "name": "Kadrenci",
        "city": "Cogetinci",
        "prov": "Cerkvenjak",
        "region": null,
        "latt": "46.56611",
        "longt": "15.95434",
        "address": "28076 Spears ExtensionsnWest Josephhaven, NH 87242"
    },
    {
        "state": "SI",
        "name": "Kaplanovo",
        "city": "Velike Lau0161u010de",
        "prov": "Velike Lau0161u010de",
        "region": null,
        "latt": "45.82126",
        "longt": "14.59369",
        "address": "138 Mary Meadow Apt. 699nPort Janetburgh, NV 08560"
    },
    {
        "state": "SI",
        "name": "Hebat",
        "city": "Bohinj",
        "prov": "Bohinj",
        "region": null,
        "latt": "46.29722",
        "longt": "13.87028",
        "address": "165 King BurgnNorth Amberview, WV 54718"
    },
    {
        "state": "SI",
        "name": "Missling Bach",
        "city": "Dravograd",
        "prov": "Dravograd",
        "region": null,
        "latt": "46.576667",
        "longt": "15.0275",
        "address": "PSC 4282, Box 7452nAPO AP 51699"
    },
    {
        "state": "SI",
        "name": "Muretinci",
        "city": "Muretinci",
        "prov": "Goriu0161nica",
        "region": null,
        "latt": "46.38528",
        "longt": "15.99444",
        "address": "7060 John Corner Suite 899nNew Renee, WV 71052"
    },
    {
        "state": "SI",
        "name": "Polje",
        "city": "Prapetno Brdo",
        "prov": "Tolmin",
        "region": null,
        "latt": "46.1105",
        "longt": "13.86232",
        "address": "97072 Christopher Island Suite 746nDonnahaven, MN 75268"
    },
    {
        "state": "SI",
        "name": "Kaplanovo",
        "city": "Velike Lau0161u010de",
        "prov": "Velike Lau0161u010de",
        "region": null,
        "latt": "45.82126",
        "longt": "14.59369",
        "address": "63722 Marshall Summit Suite 890nSimsmouth, CA 05302"
    },
    {
        "state": "SI",
        "name": "Jeu017ea",
        "city": "Ljubljana",
        "prov": "Ljubljana",
        "region": null,
        "latt": "46.10167",
        "longt": "14.54972",
        "address": "PSC 1469, Box 7090nAPO AP 11358"
    },
    {
        "state": "SI",
        "name": "Radanja Vas",
        "city": "Sentvid pri Sticni",
        "prov": "Ivanu010dna Gorica",
        "region": null,
        "latt": "45.97802",
        "longt": "14.88389",
        "address": "32964 Adam PrairienPort Brittany, SC 09478"
    },
    {
        "state": "SI",
        "name": "Zaju010dji Vrh",
        "city": "Crnomelj",
        "prov": "u010crnomelj",
        "region": null,
        "latt": "45.58013",
        "longt": "15.1581",
        "address": "277 Lee FreewaynNathanielport, NV 32607"
    },
    {
        "state": "SI",
        "name": "Kadrenci",
        "city": "Cogetinci",
        "prov": "Cerkvenjak",
        "region": null,
        "latt": "46.56611",
        "longt": "15.95434",
        "address": "9636 Anderson Loop Suite 085nNew Rogerville, SC 89332"
    },
    {
        "state": "SI",
        "name": "Nou0161e",
        "city": "Radovljica",
        "prov": "Radovljica",
        "region": null,
        "latt": "46.33306",
        "longt": "14.22952",
        "address": "2059 Richard BridgenLeeville, PA 41319"
    },
    {
        "state": "SI",
        "name": "Sveti Jernej",
        "city": "Sveti Jernej",
        "prov": "Slovenska Konjice",
        "region": null,
        "latt": "46.31667",
        "longt": "15.51667",
        "address": "0769 James PlazanLake Adamville, IN 19873"
    },
    {
        "state": "SI",
        "name": "Studor",
        "city": "Gorenja Vas",
        "prov": "Gorenja Vas-Poljane",
        "region": null,
        "latt": "46.13961",
        "longt": "14.09348",
        "address": "18136 Hill Trace Apt. 979nLake Laura, AL 27180"
    },
    {
        "state": "SI",
        "name": "Biljana",
        "city": "Biljana",
        "prov": "Brda",
        "region": null,
        "latt": "45.99361",
        "longt": "13.53557",
        "address": "341 Jones KeysnEast Johnstad, UT 77729"
    },
    {
        "state": "SI",
        "name": "Selo pri Vranskem",
        "city": "Vransko",
        "prov": "Vransko",
        "region": null,
        "latt": "46.25976",
        "longt": "14.9603",
        "address": "25673 Alexander Ports Suite 561nEast Ronald, MD 94684"
    },
    {
        "state": "SI",
        "name": "Kalobje",
        "city": "Sentjur",
        "prov": "Sentjur",
        "region": null,
        "latt": "46.16722",
        "longt": "15.39444",
        "address": "76241 Butler DrivesnHernandezburgh, NJ 07066"
    },
    {
        "state": "SI",
        "name": "Sveti Jernej",
        "city": "Sveti Jernej",
        "prov": "Slovenska Konjice",
        "region": null,
        "latt": "46.31667",
        "longt": "15.51667",
        "address": "96361 John WalknPort Kaylabury, MT 67247"
    },
    {
        "state": "SI",
        "name": "Kalobje",
        "city": "Sentjur",
        "prov": "Sentjur",
        "region": null,
        "latt": "46.16722",
        "longt": "15.39444",
        "address": "14569 Franklin LoafnMorganfort, IL 31480"
    },
    {
        "state": "SI",
        "name": "Sveti Jernej",
        "city": "Sveti Jernej",
        "prov": "Slovenska Konjice",
        "region": null,
        "latt": "46.31667",
        "longt": "15.51667",
        "address": "0897 Nicholas Stream Suite 755nLake Mariaview, ME 42422"
    },
    {
        "state": "SI",
        "name": "Dren",
        "city": "Stelnik",
        "prov": "Kostel",
        "region": null,
        "latt": "45.49492",
        "longt": "14.88273",
        "address": "509 Kelli Crossroad Suite 288nWrightville, AZ 23616"
    },
    {
        "state": "SI",
        "name": "Kobilec",
        "city": "Hrast pri Vinici",
        "prov": "u010crnomelj",
        "region": null,
        "latt": "45.5",
        "longt": "15.23333",
        "address": "235 Kristina Ramp Suite 573nBellchester, LA 67917"
    },
    {
        "state": "SI",
        "name": "Radanja Vas",
        "city": "Sentvid pri Sticni",
        "prov": "Ivanu010dna Gorica",
        "region": null,
        "latt": "45.97802",
        "longt": "14.88389",
        "address": "239 Pitts Tunnel Suite 000nBryanville, AR 72633"
    },
    {
        "state": "SI",
        "name": "Razbore-K. O. Jeu017eni Vrh",
        "city": "Smartno pri Litiji",
        "prov": "u0160martno pri Litiji",
        "region": null,
        "latt": "46.008",
        "longt": "14.89834",
        "address": "56935 Craig IslenSouth Kimberly, DC 62490"
    },
    {
        "state": "SI",
        "name": "Razbore-K. O. Jeu017eni Vrh",
        "city": "Smartno pri Litiji",
        "prov": "u0160martno pri Litiji",
        "region": null,
        "latt": "46.008",
        "longt": "14.89834",
        "address": "2539 Murphy Drives Apt. 047nLake Ashley, WA 43488"
    },
    {
        "state": "SI",
        "name": "Sveti Jernej",
        "city": "Sveti Jernej",
        "prov": "Slovenska Konjice",
        "region": null,
        "latt": "46.31667",
        "longt": "15.51667",
        "address": "17683 Miranda SkywaynNew Robertburgh, WY 51995"
    },
    {
        "state": "SI",
        "name": "Cuber",
        "city": "Ljutomer",
        "prov": "Ljutomer",
        "region": null,
        "latt": "46.49443",
        "longt": "16.18521",
        "address": "51223 Robert IslandsnTerryview, PA 51655"
    },
    {
        "state": "SI",
        "name": "Obu010dina Rogau0161ka Slatina",
        "city": "Rogaska Slatina",
        "prov": "Rogau0161ka Slatina",
        "region": null,
        "latt": "46.24667",
        "longt": "15.62944",
        "address": "Unit 5501 Box 4316nDPO AE 52845"
    },
    {
        "state": "SI",
        "name": "Hebat",
        "city": "Bohinj",
        "prov": "Bohinj",
        "region": null,
        "latt": "46.29722",
        "longt": "13.87028",
        "address": "9124 Gail JunctionsnShawnshire, OR 04043"
    },
    {
        "state": "SI",
        "name": "Razbore-K. O. Jeu017eni Vrh",
        "city": "Smartno pri Litiji",
        "prov": "u0160martno pri Litiji",
        "region": null,
        "latt": "46.008",
        "longt": "14.89834",
        "address": "182 Debra MissionnNorth Joshuastad, IL 59106"
    },
    {
        "state": "SI",
        "name": "Zaju010dji Vrh",
        "city": "Crnomelj",
        "prov": "u010crnomelj",
        "region": null,
        "latt": "45.58013",
        "longt": "15.1581",
        "address": "1513 Laura UnionsnGordonbury, MS 18288"
    },
    {
        "state": "SI",
        "name": "Satahovci",
        "city": "Murska Sobota",
        "prov": "Tiu0161ina",
        "region": null,
        "latt": "46.633333",
        "longt": "16.108056",
        "address": "77048 Garcia Land Suite 169nPort Dillon, SD 23970"
    },
    {
        "state": "SI",
        "name": "Zaju010dji Vrh",
        "city": "Crnomelj",
        "prov": "u010crnomelj",
        "region": null,
        "latt": "45.58013",
        "longt": "15.1581",
        "address": "55964 Adams Mission Apt. 327nNew Ashley, NY 70728"
    },
    {
        "state": "SI",
        "name": "Kobilec",
        "city": "Hrast pri Vinici",
        "prov": "u010crnomelj",
        "region": null,
        "latt": "45.5",
        "longt": "15.23333",
        "address": "668 Harmon Prairie Apt. 795nJohnston, DC 58729"
    },
    {
        "state": "SI",
        "name": "Kalobje",
        "city": "Sentjur",
        "prov": "Sentjur",
        "region": null,
        "latt": "46.16722",
        "longt": "15.39444",
        "address": "853 Peck UnderpassnLake Marcus, NV 99450"
    },
    {
        "state": "SI",
        "name": "Kadrenci",
        "city": "Cogetinci",
        "prov": "Cerkvenjak",
        "region": null,
        "latt": "46.56611",
        "longt": "15.95434",
        "address": "354 Tracy Shoals Apt. 021nSouth Laura, ND 72912"
    },
    {
        "state": "SI",
        "name": "Razbore-K. O. Jeu017eni Vrh",
        "city": "Smartno pri Litiji",
        "prov": "u0160martno pri Litiji",
        "region": null,
        "latt": "46.008",
        "longt": "14.89834",
        "address": "05107 Brian Branch Apt. 937nJonathanmouth, IL 46691"
    },
    {
        "state": "SI",
        "name": "Sveti Jernej",
        "city": "Sveti Jernej",
        "prov": "Slovenska Konjice",
        "region": null,
        "latt": "46.31667",
        "longt": "15.51667",
        "address": "4056 Brett RoadnJohnnyburgh, IA 76888"
    },
    {
        "state": "SI",
        "name": "Majcni",
        "city": "Sezana",
        "prov": "Seu017eana",
        "region": null,
        "latt": "45.74452",
        "longt": "13.93585",
        "address": "0158 Gray Fall Suite 719nRobertsberg, SC 55000"
    },
    {
        "state": "SI",
        "name": "Nou0161e",
        "city": "Radovljica",
        "prov": "Radovljica",
        "region": null,
        "latt": "46.33306",
        "longt": "14.22952",
        "address": "25376 Joseph InletnEast Davidville, VT 14146"
    },
    {
        "state": "SI",
        "name": "Radanja Vas",
        "city": "Sentvid pri Sticni",
        "prov": "Ivanu010dna Gorica",
        "region": null,
        "latt": "45.97802",
        "longt": "14.88389",
        "address": "297 Laura RoutenPort Carrieborough, MT 81489"
    },
    {
        "state": "SI",
        "name": "Studor",
        "city": "Gorenja Vas",
        "prov": "Gorenja Vas-Poljane",
        "region": null,
        "latt": "46.13961",
        "longt": "14.09348",
        "address": "54311 Dixon NecknNorth Jonathan, AR 12437"
    },
    {
        "state": "SI",
        "name": "Razbore-K. O. Jeu017eni Vrh",
        "city": "Smartno pri Litiji",
        "prov": "u0160martno pri Litiji",
        "region": null,
        "latt": "46.008",
        "longt": "14.89834",
        "address": "58362 Katherine TracknWest Robin, MN 78099"
    },
    {
        "state": "SI",
        "name": "Jeu017ea",
        "city": "Ljubljana",
        "prov": "Ljubljana",
        "region": null,
        "latt": "46.10167",
        "longt": "14.54972",
        "address": "68210 Andrea AvenuenKatelynfurt, OK 44624"
    },
    {
        "state": "SI",
        "name": "Radanja Vas",
        "city": "Sentvid pri Sticni",
        "prov": "Ivanu010dna Gorica",
        "region": null,
        "latt": "45.97802",
        "longt": "14.88389",
        "address": "872 Edwards VillagesnNorth Jeffreyhaven, CO 39952"
    },
    {
        "state": "SI",
        "name": "Majcni",
        "city": "Sezana",
        "prov": "Seu017eana",
        "region": null,
        "latt": "45.74452",
        "longt": "13.93585",
        "address": "6637 Gary Tunnel Suite 999nLisafort, MD 12219"
    },
    {
        "state": "SI",
        "name": "Kaplanovo",
        "city": "Velike Lau0161u010de",
        "prov": "Velike Lau0161u010de",
        "region": null,
        "latt": "45.82126",
        "longt": "14.59369",
        "address": "Unit 5688 Box 0755nDPO AE 92531"
    },
    {
        "state": "SI",
        "name": "Radanja Vas",
        "city": "Sentvid pri Sticni",
        "prov": "Ivanu010dna Gorica",
        "region": null,
        "latt": "45.97802",
        "longt": "14.88389",
        "address": "586 Vargas CliffnWest Kenneth, VT 06477"
    },
    {
        "state": "SI",
        "name": "Kalobje",
        "city": "Sentjur",
        "prov": "Sentjur",
        "region": null,
        "latt": "46.16722",
        "longt": "15.39444",
        "address": "59660 Welch Burg Suite 361nNorth Shelby, NJ 40373"
    },
    {
        "state": "SI",
        "name": "Radanja Vas",
        "city": "Sentvid pri Sticni",
        "prov": "Ivanu010dna Gorica",
        "region": null,
        "latt": "45.97802",
        "longt": "14.88389",
        "address": "1932 Leslie Stream Suite 067nWest Michelle, VT 05209"
    },
    {
        "state": "SI",
        "name": "Kalobje",
        "city": "Sentjur",
        "prov": "Sentjur",
        "region": null,
        "latt": "46.16722",
        "longt": "15.39444",
        "address": "PSC 3293, Box 9915nAPO AA 29491"
    },
    {
        "state": "SI",
        "name": "Razbore-K. O. Jeu017eni Vrh",
        "city": "Smartno pri Litiji",
        "prov": "u0160martno pri Litiji",
        "region": null,
        "latt": "46.008",
        "longt": "14.89834",
        "address": "6789 Blackwell Alley Apt. 930nEast Todd, NY 94589"
    },
    {
        "state": "SI",
        "name": "Zaju010dji Vrh",
        "city": "Crnomelj",
        "prov": "u010crnomelj",
        "region": null,
        "latt": "45.58013",
        "longt": "15.1581",
        "address": "386 Mills PinesnEricmouth, CO 30969"
    },
    {
        "state": "SI",
        "name": "Kaplanovo",
        "city": "Velike Lau0161u010de",
        "prov": "Velike Lau0161u010de",
        "region": null,
        "latt": "45.82126",
        "longt": "14.59369",
        "address": "668 Phillips ShoalnNorth Cynthiaview, MT 18603"
    },
    {
        "state": "SI",
        "name": "Jagodje",
        "city": "Izola",
        "prov": "Izola-Isola",
        "region": null,
        "latt": "45.52845",
        "longt": "13.64721",
        "address": "5402 Timothy Curve Apt. 073nWest Michaelhaven, MD 39836"
    },
    {
        "state": "SI",
        "name": "Dren",
        "city": "Stelnik",
        "prov": "Kostel",
        "region": null,
        "latt": "45.49492",
        "longt": "14.88273",
        "address": "386 Watts Flats Suite 887nWest Samanthafurt, NY 35794"
    },
    {
        "state": "SI",
        "name": "Jeu017ea",
        "city": "Ljubljana",
        "prov": "Ljubljana",
        "region": null,
        "latt": "46.10167",
        "longt": "14.54972",
        "address": "284 Lynch Port Apt. 708nNew Natalie, LA 00827"
    },
    {
        "state": "SI",
        "name": "Osilnica",
        "city": "Gerovo",
        "prov": "Primorsko-Goranska",
        "region": "Grad u010cabar",
        "latt": "45.527778",
        "longt": "14.694444",
        "address": "05057 Horton Groves Apt. 090nPort Jasmine, IL 02200"
    },
    {
        "state": "SI",
        "name": "Gornja Kou0161ana",
        "city": "Pivka",
        "prov": "Pivka",
        "region": null,
        "latt": "45.68474",
        "longt": "14.12061",
        "address": "874 Brian TrailnGardnerton, GA 61016"
    },
    {
        "state": "SI",
        "name": "Gru010darevec",
        "city": "Logatec",
        "prov": "Logatec",
        "region": null,
        "latt": "45.87528",
        "longt": "14.21333",
        "address": "518 Laura Islands Suite 581nPort Dawn, HI 44144"
    },
    {
        "state": "SI",
        "name": "Nou0161e",
        "city": "Radovljica",
        "prov": "Radovljica",
        "region": null,
        "latt": "46.33306",
        "longt": "14.22952",
        "address": "44166 Smith RownLake Michelle, VT 57611"
    },
    {
        "state": "SI",
        "name": "Kaplanovo",
        "city": "Velike Lau0161u010de",
        "prov": "Velike Lau0161u010de",
        "region": null,
        "latt": "45.82126",
        "longt": "14.59369",
        "address": "59888 Briana PrairienWest Alexander, OH 93182"
    },
    {
        "state": "SI",
        "name": "Razbore-K. O. Jeu017eni Vrh",
        "city": "Smartno pri Litiji",
        "prov": "u0160martno pri Litiji",
        "region": null,
        "latt": "46.008",
        "longt": "14.89834",
        "address": "6679 Moses FordsnAmyview, MS 03588"
    },
    {
        "state": "SI",
        "name": "Nou0161e",
        "city": "Radovljica",
        "prov": "Radovljica",
        "region": null,
        "latt": "46.33306",
        "longt": "14.22952",
        "address": "9787 William WellnLake Debra, OK 16307"
    },
    {
        "state": "SI",
        "name": "Sveti Jernej",
        "city": "Sveti Jernej",
        "prov": "Slovenska Konjice",
        "region": null,
        "latt": "46.31667",
        "longt": "15.51667",
        "address": "7741 Gabriella Stravenue Suite 286nLarsonville, OH 26452"
    },
    {
        "state": "SI",
        "name": "Polje",
        "city": "Prapetno Brdo",
        "prov": "Tolmin",
        "region": null,
        "latt": "46.1105",
        "longt": "13.86232",
        "address": "7975 Evan Lake Apt. 893nEast Michelleton, FL 24685"
    },
    {
        "state": "SI",
        "name": "Kalobje",
        "city": "Sentjur",
        "prov": "Sentjur",
        "region": null,
        "latt": "46.16722",
        "longt": "15.39444",
        "address": "52979 Laura Pike Suite 969nMasonshire, IL 39706"
    },
    {
        "state": "SI",
        "name": "Cuber",
        "city": "Ljutomer",
        "prov": "Ljutomer",
        "region": null,
        "latt": "46.49443",
        "longt": "16.18521",
        "address": "43463 Jay LightsnJenniferton, RI 08881"
    },
    {
        "state": "SI",
        "name": "Osilnica",
        "city": "Gerovo",
        "prov": "Primorsko-Goranska",
        "region": "Grad u010cabar",
        "latt": "45.527778",
        "longt": "14.694444",
        "address": "058 Dickson Throughway Suite 356nNew Randyton, AK 87216"
    },
    {
        "state": "SI",
        "name": "Jeu017ea",
        "city": "Ljubljana",
        "prov": "Ljubljana",
        "region": null,
        "latt": "46.10167",
        "longt": "14.54972",
        "address": "0242 Karla Village Suite 348nEast Jeffreybury, RI 28789"
    },
    {
        "state": "SI",
        "name": "Studor",
        "city": "Gorenja Vas",
        "prov": "Gorenja Vas-Poljane",
        "region": null,
        "latt": "46.13961",
        "longt": "14.09348",
        "address": "0838 Anthony Parks Apt. 089nTonyborough, CT 25768"
    },
    {
        "state": "SI",
        "name": "Ciglerjev vrh",
        "city": "Brezni Vrh",
        "prov": "Radlje ob Dravi",
        "region": null,
        "latt": "46.64967",
        "longt": "15.32438",
        "address": "796 Gould Village Suite 412nSouth Erinchester, MS 32479"
    },
    {
        "state": "SI",
        "name": "Nou0161e",
        "city": "Radovljica",
        "prov": "Radovljica",
        "region": null,
        "latt": "46.33306",
        "longt": "14.22952",
        "address": "66007 Ross Lodge Apt. 637nNorth Erica, MT 47444"
    },
    {
        "state": "SI",
        "name": "Jeu017ea",
        "city": "Ljubljana",
        "prov": "Ljubljana",
        "region": null,
        "latt": "46.10167",
        "longt": "14.54972",
        "address": "4230 Jimmy Forge Apt. 190nPort Juanfort, WY 57560"
    },
    {
        "state": "SI",
        "name": "Razbore-K. O. Jeu017eni Vrh",
        "city": "Smartno pri Litiji",
        "prov": "u0160martno pri Litiji",
        "region": null,
        "latt": "46.008",
        "longt": "14.89834",
        "address": "467 Rebecca Port Apt. 714nHallbury, GA 20758"
    },
    {
        "state": "SI",
        "name": "Majcni",
        "city": "Sezana",
        "prov": "Seu017eana",
        "region": null,
        "latt": "45.74452",
        "longt": "13.93585",
        "address": "85483 Ramirez Station Apt. 706nLake Ricardo, AZ 22211"
    },
    {
        "state": "SI",
        "name": "Kaplanovo",
        "city": "Velike Lau0161u010de",
        "prov": "Velike Lau0161u010de",
        "region": null,
        "latt": "45.82126",
        "longt": "14.59369",
        "address": "48886 Robert Route Apt. 258nNew Mark, NY 46281"
    },
    {
        "state": "SI",
        "name": "Gornja Kou0161ana",
        "city": "Pivka",
        "prov": "Pivka",
        "region": null,
        "latt": "45.68474",
        "longt": "14.12061",
        "address": "0953 Jordan Harbors Suite 843nEast Monica, GA 98300"
    },
    {
        "state": "SI",
        "name": "Kalobje",
        "city": "Sentjur",
        "prov": "Sentjur",
        "region": null,
        "latt": "46.16722",
        "longt": "15.39444",
        "address": "078 Guzman MountainnEast Katherineborough, CO 19255"
    },
    {
        "state": "SI",
        "name": "Hebat",
        "city": "Bohinj",
        "prov": "Bohinj",
        "region": null,
        "latt": "46.29722",
        "longt": "13.87028",
        "address": "284 Robert Flats Apt. 656nSouth Kennethville, GA 63487"
    },
    {
        "state": "SI",
        "name": "Zaju010dji Vrh",
        "city": "Crnomelj",
        "prov": "u010crnomelj",
        "region": null,
        "latt": "45.58013",
        "longt": "15.1581",
        "address": "5005 Ford Stream Suite 103nSouth Michaelberg, IL 42683"
    },
    {
        "state": "SI",
        "name": "Sveti Jernej",
        "city": "Sveti Jernej",
        "prov": "Slovenska Konjice",
        "region": null,
        "latt": "46.31667",
        "longt": "15.51667",
        "address": "818 Stephen Island Apt. 005nSouth Ernest, OK 70135"
    },
    {
        "state": "SI",
        "name": "Cuber",
        "city": "Ljutomer",
        "prov": "Ljutomer",
        "region": null,
        "latt": "46.49443",
        "longt": "16.18521",
        "address": "4796 Lane Avenue Apt. 550nNathanburgh, NY 93318"
    },
    {
        "state": "SI",
        "name": "Razbore-K. O. Jeu017eni Vrh",
        "city": "Smartno pri Litiji",
        "prov": "u0160martno pri Litiji",
        "region": null,
        "latt": "46.008",
        "longt": "14.89834",
        "address": "563 Brandon Shores Apt. 449nEast Nathan, TN 84317"
    },
    {
        "state": "SI",
        "name": "Kadrenci",
        "city": "Cogetinci",
        "prov": "Cerkvenjak",
        "region": null,
        "latt": "46.56611",
        "longt": "15.95434",
        "address": "073 Rebecca Port Suite 521nJordanfurt, NH 36247"
    },
    {
        "state": "SI",
        "name": "Kaplanovo",
        "city": "Velike Lau0161u010de",
        "prov": "Velike Lau0161u010de",
        "region": null,
        "latt": "45.82126",
        "longt": "14.59369",
        "address": "3285 Dominguez WaysnKatieborough, VT 13700"
    },
    {
        "state": "SI",
        "name": "Zaju010dji Vrh",
        "city": "Crnomelj",
        "prov": "u010crnomelj",
        "region": null,
        "latt": "45.58013",
        "longt": "15.1581",
        "address": "329 Turner WellsnBrendaland, IL 95753"
    },
    {
        "state": "SI",
        "name": "Razbore-K. O. Jeu017eni Vrh",
        "city": "Smartno pri Litiji",
        "prov": "u0160martno pri Litiji",
        "region": null,
        "latt": "46.008",
        "longt": "14.89834",
        "address": "760 Andrew Wells Suite 664nPort Kelly, FL 71173"
    },
    {
        "state": "SI",
        "name": "Satahovci",
        "city": "Murska Sobota",
        "prov": "Tiu0161ina",
        "region": null,
        "latt": "46.633333",
        "longt": "16.108056",
        "address": "6251 Cervantes Crest Apt. 247nPort Steven, KS 30513"
    },
    {
        "state": "SI",
        "name": "Jagodje",
        "city": "Izola",
        "prov": "Izola-Isola",
        "region": null,
        "latt": "45.52845",
        "longt": "13.64721",
        "address": "3362 Lee Throughway Apt. 230nSamanthaport, IA 89683"
    },
    {
        "state": "SI",
        "name": "Gornja Kou0161ana",
        "city": "Pivka",
        "prov": "Pivka",
        "region": null,
        "latt": "45.68474",
        "longt": "14.12061",
        "address": "659 Rush Mill Suite 220nWest Vanessa, ND 98108"
    },
    {
        "state": "SI",
        "name": "Dren",
        "city": "Stelnik",
        "prov": "Kostel",
        "region": null,
        "latt": "45.49492",
        "longt": "14.88273",
        "address": "9711 Lewis GlennThompsonbury, ME 38258"
    },
    {
        "state": "SI",
        "name": "Radanja Vas",
        "city": "Sentvid pri Sticni",
        "prov": "Ivanu010dna Gorica",
        "region": null,
        "latt": "45.97802",
        "longt": "14.88389",
        "address": "7098 Hicks BurgsnWest Thomasstad, GA 10695"
    },
    {
        "state": "SI",
        "name": "Weinasch",
        "city": "Neu-Sankt Michael",
        "prov": "Jesenice",
        "region": "Politischer Bezirk Klagenfurt Land",
        "latt": "46.44306",
        "longt": "14.15111",
        "address": "USS CrossnFPO AE 04470"
    },
    {
        "state": "SI",
        "name": "Kalobje",
        "city": "Sentjur",
        "prov": "Sentjur",
        "region": null,
        "latt": "46.16722",
        "longt": "15.39444",
        "address": "05870 White Cliff Apt. 734nKelseyfurt, AZ 15005"
    },
    {
        "state": "SI",
        "name": "Biljana",
        "city": "Biljana",
        "prov": "Brda",
        "region": null,
        "latt": "45.99361",
        "longt": "13.53557",
        "address": "7855 Espinoza Drives Suite 173nSouth Thomasborough, RI 05140"
    },
    {
        "state": "SI",
        "name": "Nou0161e",
        "city": "Radovljica",
        "prov": "Radovljica",
        "region": null,
        "latt": "46.33306",
        "longt": "14.22952",
        "address": "8245 Hodges TurnpikenChasestad, RI 60577"
    },
    {
        "state": "SI",
        "name": "Selo pri Vranskem",
        "city": "Vransko",
        "prov": "Vransko",
        "region": null,
        "latt": "46.25976",
        "longt": "14.9603",
        "address": "53062 William BranchnEast Susan, MI 88624"
    },
    {
        "state": "SI",
        "name": "Osilnica",
        "city": "Gerovo",
        "prov": "Primorsko-Goranska",
        "region": "Grad u010cabar",
        "latt": "45.527778",
        "longt": "14.694444",
        "address": "528 Wise Ports Apt. 943nLake Tara, ME 18393"
    },
    {
        "state": "SI",
        "name": "Zaju010dji Vrh",
        "city": "Crnomelj",
        "prov": "u010crnomelj",
        "region": null,
        "latt": "45.58013",
        "longt": "15.1581",
        "address": "350 Randy Forks Apt. 258nPort Stacyberg, WV 55299"
    },
    {
        "state": "SI",
        "name": "Zaju010dji Vrh",
        "city": "Crnomelj",
        "prov": "u010crnomelj",
        "region": null,
        "latt": "45.58013",
        "longt": "15.1581",
        "address": "932 Wilson KnollnSouth Davidville, OR 20896"
    },
    {
        "state": "SI",
        "name": "Kobilec",
        "city": "Hrast pri Vinici",
        "prov": "u010crnomelj",
        "region": null,
        "latt": "45.5",
        "longt": "15.23333",
        "address": "3109 Wendy Ridges Apt. 427nLake Richardbury, AR 70537"
    },
    {
        "state": "SI",
        "name": "Polje",
        "city": "Prapetno Brdo",
        "prov": "Tolmin",
        "region": null,
        "latt": "46.1105",
        "longt": "13.86232",
        "address": "5412 Maxwell ParksnSouth Jennifer, WA 17949"
    },
    {
        "state": "SI",
        "name": "Polje",
        "city": "Prapetno Brdo",
        "prov": "Tolmin",
        "region": null,
        "latt": "46.1105",
        "longt": "13.86232",
        "address": "84952 Carmen TrafficwaynCarterhaven, OH 11842"
    },
    {
        "state": "SI",
        "name": "Satahovci",
        "city": "Murska Sobota",
        "prov": "Tiu0161ina",
        "region": null,
        "latt": "46.633333",
        "longt": "16.108056",
        "address": "569 Young Fork Suite 738nLake Danaport, AR 85366"
    },
    {
        "state": "SI",
        "name": "Gru010darevec",
        "city": "Logatec",
        "prov": "Logatec",
        "region": null,
        "latt": "45.87528",
        "longt": "14.21333",
        "address": "448 Cook Station Apt. 311nLake Samantha, NM 06584"
    },
    {
        "state": "SI",
        "name": "u017dupelevec",
        "city": "Zupelevec",
        "prov": "Breu017eice",
        "region": null,
        "latt": "45.95917",
        "longt": "15.68722",
        "address": "405 Duncan Court Apt. 984nSouth Markstad, AL 35288"
    },
    {
        "state": "SI",
        "name": "Buu0161eu010da Vas",
        "city": "Brezice",
        "prov": "Breu017eice",
        "region": null,
        "latt": "45.86848",
        "longt": "15.51987",
        "address": "88893 Russell WellnPort Hollyport, OK 57681"
    },
    {
        "state": "SI",
        "name": "Radanja Vas",
        "city": "Sentvid pri Sticni",
        "prov": "Ivanu010dna Gorica",
        "region": null,
        "latt": "45.97802",
        "longt": "14.88389",
        "address": "05040 Larry Loaf Apt. 792nRoseview, WA 41215"
    },
    {
        "state": "SI",
        "name": "Buu0161eu010da Vas",
        "city": "Brezice",
        "prov": "Breu017eice",
        "region": null,
        "latt": "45.86848",
        "longt": "15.51987",
        "address": "521 Rios MissionnBradleyport, DC 78305"
    },
    {
        "state": "SI",
        "name": "Gornja Kou0161ana",
        "city": "Pivka",
        "prov": "Pivka",
        "region": null,
        "latt": "45.68474",
        "longt": "14.12061",
        "address": "597 Little Crescent Apt. 504nJameshaven, HI 96384"
    },
    {
        "state": "SI",
        "name": "Studor",
        "city": "Gorenja Vas",
        "prov": "Gorenja Vas-Poljane",
        "region": null,
        "latt": "46.13961",
        "longt": "14.09348",
        "address": "05519 Natasha MissionnNew Randyview, AL 19489"
    },
    {
        "state": "SI",
        "name": "Hebat",
        "city": "Bohinj",
        "prov": "Bohinj",
        "region": null,
        "latt": "46.29722",
        "longt": "13.87028",
        "address": "PSC 0467, Box 2074nAPO AP 57710"
    },
    {
        "state": "SI",
        "name": "Gru010darevec",
        "city": "Logatec",
        "prov": "Logatec",
        "region": null,
        "latt": "45.87528",
        "longt": "14.21333",
        "address": "75256 Cristina Wall Apt. 335nPatrickville, OR 31638"
    },
    {
        "state": "SI",
        "name": "Buu0161eu010da Vas",
        "city": "Brezice",
        "prov": "Breu017eice",
        "region": null,
        "latt": "45.86848",
        "longt": "15.51987",
        "address": "44247 Ryan Streets Apt. 003nSouth Susan, NH 99781"
    },
    {
        "state": "SI",
        "name": "Pelzereck",
        "city": "Tauka",
        "prov": "Burgenland",
        "region": "Politischer Bezirk Jennersdorf",
        "latt": "46.85",
        "longt": "16.08333",
        "address": "556 Hunt Field Apt. 198nSouth Josephchester, NJ 39769"
    },
    {
        "state": "SI",
        "name": "Kaplanovo",
        "city": "Velike Lau0161u010de",
        "prov": "Velike Lau0161u010de",
        "region": null,
        "latt": "45.82126",
        "longt": "14.59369",
        "address": "550 Johnson FerrynEmilyport, WI 36107"
    },
    {
        "state": "SI",
        "name": "Rio Rivolo",
        "city": "Medana",
        "prov": "Brda",
        "region": "Provincia di Gorizia",
        "latt": "45.983333",
        "longt": "13.516667",
        "address": "394 Grant SquaresnCarpenterchester, VT 16815"
    },
    {
        "state": "SI",
        "name": "Zaju010dji Vrh",
        "city": "Crnomelj",
        "prov": "u010crnomelj",
        "region": null,
        "latt": "45.58013",
        "longt": "15.1581",
        "address": "PSC 9479, Box 7865nAPO AA 42162"
    },
    {
        "state": "SI",
        "name": "Kaplanovo",
        "city": "Velike Lau0161u010de",
        "prov": "Velike Lau0161u010de",
        "region": null,
        "latt": "45.82126",
        "longt": "14.59369",
        "address": "77129 Randy Motorway Apt. 514nWrightburgh, MO 80267"
    },
    {
        "state": "SI",
        "name": "Selo pri Vranskem",
        "city": "Vransko",
        "prov": "Vransko",
        "region": null,
        "latt": "46.25976",
        "longt": "14.9603",
        "address": "PSC 5667, Box 0340nAPO AA 25918"
    },
    {
        "state": "SI",
        "name": "Biljana",
        "city": "Biljana",
        "prov": "Brda",
        "region": null,
        "latt": "45.99361",
        "longt": "13.53557",
        "address": "34325 Carlos MillnSouth Melissamouth, AK 31463"
    },
    {
        "state": "SI",
        "name": "Nou0161e",
        "city": "Radovljica",
        "prov": "Radovljica",
        "region": null,
        "latt": "46.33306",
        "longt": "14.22952",
        "address": "7294 Nicole JunctionnKevinside, SD 70868"
    },
    {
        "state": "SI",
        "name": "Zareu010dje",
        "city": "Ilirska Bistrica",
        "prov": "Ilirska Bistrica",
        "region": null,
        "latt": "45.573611",
        "longt": "14.210278",
        "address": "7504 Hicks Mountain Apt. 854nElizabethhaven, MN 12209"
    },
    {
        "state": "SI",
        "name": "Mali u010centur",
        "city": "Koper",
        "prov": "Koper-Capodistria",
        "region": null,
        "latt": "45.51",
        "longt": "13.77222",
        "address": "USS GraynFPO AA 36691"
    },
    {
        "state": "SI",
        "name": "Kadrenci",
        "city": "Cogetinci",
        "prov": "Cerkvenjak",
        "region": null,
        "latt": "46.56611",
        "longt": "15.95434",
        "address": "00193 Lewis Locks Suite 813nNorth Jamieview, WV 73157"
    },
    {
        "state": "SI",
        "name": "Zaju010dji Vrh",
        "city": "Crnomelj",
        "prov": "u010crnomelj",
        "region": null,
        "latt": "45.58013",
        "longt": "15.1581",
        "address": "PSC 3370, Box 2386nAPO AP 07773"
    },
    {
        "state": "SI",
        "name": "Obu010dina Rogau0161ka Slatina",
        "city": "Rogaska Slatina",
        "prov": "Rogau0161ka Slatina",
        "region": null,
        "latt": "46.24667",
        "longt": "15.62944",
        "address": "1422 Brittany Plaza Suite 003nChentown, AK 01917"
    },
    {
        "state": "SI",
        "name": "Muretinci",
        "city": "Muretinci",
        "prov": "Goriu0161nica",
        "region": null,
        "latt": "46.38528",
        "longt": "15.99444",
        "address": "895 Megan PortsnSouth Lynn, MS 19469"
    },
    {
        "state": "SI",
        "name": "Obu010dina Rogau0161ka Slatina",
        "city": "Rogaska Slatina",
        "prov": "Rogau0161ka Slatina",
        "region": null,
        "latt": "46.24667",
        "longt": "15.62944",
        "address": "91509 Rebecca Keys Suite 099nHughesmouth, SD 47297"
    },
    {
        "state": "SI",
        "name": "Polje",
        "city": "Prapetno Brdo",
        "prov": "Tolmin",
        "region": null,
        "latt": "46.1105",
        "longt": "13.86232",
        "address": "2813 Dillon Falls Apt. 844nLake Steventon, GA 53487"
    },
    {
        "state": "SI",
        "name": "Gru010darevec",
        "city": "Logatec",
        "prov": "Logatec",
        "region": null,
        "latt": "45.87528",
        "longt": "14.21333",
        "address": "26205 Adam Place Apt. 939nLake Cynthiaburgh, WA 75269"
    },
    {
        "state": "SI",
        "name": "Buu0161eu010da Vas",
        "city": "Brezice",
        "prov": "Breu017eice",
        "region": null,
        "latt": "45.86848",
        "longt": "15.51987",
        "address": "995 Martin Lake Apt. 678nNorth Catherine, NE 59091"
    },
    {
        "state": "SI",
        "name": "Sveti Jernej",
        "city": "Sveti Jernej",
        "prov": "Slovenska Konjice",
        "region": null,
        "latt": "46.31667",
        "longt": "15.51667",
        "address": "7088 Hardin FallnNorth Kimberlyland, VT 07017"
    },
    {
        "state": "SI",
        "name": "Jeu017ea",
        "city": "Ljubljana",
        "prov": "Ljubljana",
        "region": null,
        "latt": "46.10167",
        "longt": "14.54972",
        "address": "Unit 8343 Box 8857nDPO AP 23166"
    },
    {
        "state": "SI",
        "name": "Selo pri Vranskem",
        "city": "Vransko",
        "prov": "Vransko",
        "region": null,
        "latt": "46.25976",
        "longt": "14.9603",
        "address": "4082 Nelson Hollow Suite 781nNorth Ericview, HI 63114"
    },
    {
        "state": "SI",
        "name": "Polje",
        "city": "Prapetno Brdo",
        "prov": "Tolmin",
        "region": null,
        "latt": "46.1105",
        "longt": "13.86232",
        "address": "63555 Wright CentersnJanetstad, DE 83172"
    },
    {
        "state": "SI",
        "name": "Zaju010dji Vrh",
        "city": "Crnomelj",
        "prov": "u010crnomelj",
        "region": null,
        "latt": "45.58013",
        "longt": "15.1581",
        "address": "441 Adam Village Apt. 691nLake Brian, ME 09895"
    },
    {
        "state": "SI",
        "name": "Razbore-K. O. Jeu017eni Vrh",
        "city": "Smartno pri Litiji",
        "prov": "u0160martno pri Litiji",
        "region": null,
        "latt": "46.008",
        "longt": "14.89834",
        "address": "7708 Robertson Via Apt. 196nTuckerhaven, AK 24242"
    },
    {
        "state": "SI",
        "name": "Nou0161e",
        "city": "Radovljica",
        "prov": "Radovljica",
        "region": null,
        "latt": "46.33306",
        "longt": "14.22952",
        "address": "0272 Davis StationnDiazville, NE 24992"
    },
    {
        "state": "SI",
        "name": "Muretinci",
        "city": "Muretinci",
        "prov": "Goriu0161nica",
        "region": null,
        "latt": "46.38528",
        "longt": "15.99444",
        "address": "8767 Travis Roads Suite 693nKeithfort, DC 82728"
    },
    {
        "state": "SI",
        "name": "Razbore-K. O. Jeu017eni Vrh",
        "city": "Smartno pri Litiji",
        "prov": "u0160martno pri Litiji",
        "region": null,
        "latt": "46.008",
        "longt": "14.89834",
        "address": "797 John Route Suite 449nNew Peterfurt, IA 59451"
    },
    {
        "state": "SI",
        "name": "Studor",
        "city": "Gorenja Vas",
        "prov": "Gorenja Vas-Poljane",
        "region": null,
        "latt": "46.13961",
        "longt": "14.09348",
        "address": "4696 Richard Bypass Suite 609nStevensborough, OH 19394"
    },
    {
        "state": "SI",
        "name": "Studor",
        "city": "Gorenja Vas",
        "prov": "Gorenja Vas-Poljane",
        "region": null,
        "latt": "46.13961",
        "longt": "14.09348",
        "address": "Unit 7985 Box 2745nDPO AP 72183"
    },
    {
        "state": "SI",
        "name": "Zareu010dje",
        "city": "Ilirska Bistrica",
        "prov": "Ilirska Bistrica",
        "region": null,
        "latt": "45.573611",
        "longt": "14.210278",
        "address": "9786 Hutchinson Island Apt. 664nSotohaven, DE 64227"
    },
    {
        "state": "SI",
        "name": "Ciglerjev vrh",
        "city": "Brezni Vrh",
        "prov": "Radlje ob Dravi",
        "region": null,
        "latt": "46.64967",
        "longt": "15.32438",
        "address": "61326 Medina Isle Apt. 241nNew Tristan, WY 17252"
    },
    {
        "state": "SI",
        "name": "Radanja Vas",
        "city": "Sentvid pri Sticni",
        "prov": "Ivanu010dna Gorica",
        "region": null,
        "latt": "45.97802",
        "longt": "14.88389",
        "address": "74523 Elizabeth PointsnPort Rickey, SC 13421"
    },
    {
        "state": "SI",
        "name": "Nou0161e",
        "city": "Radovljica",
        "prov": "Radovljica",
        "region": null,
        "latt": "46.33306",
        "longt": "14.22952",
        "address": "39750 Carney Field Apt. 176nChanfort, MO 47772"
    },
    {
        "state": "SI",
        "name": "Jagodje",
        "city": "Izola",
        "prov": "Izola-Isola",
        "region": null,
        "latt": "45.52845",
        "longt": "13.64721",
        "address": "140 Klein Curve Apt. 659nWest Jamie, SC 11638"
    },
    {
        "state": "SI",
        "name": "Jeu017ea",
        "city": "Ljubljana",
        "prov": "Ljubljana",
        "region": null,
        "latt": "46.10167",
        "longt": "14.54972",
        "address": "312 Steele MountainnNorth Emilyfort, DE 42967"
    },
    {
        "state": "SI",
        "name": "Razbore-K. O. Jeu017eni Vrh",
        "city": "Smartno pri Litiji",
        "prov": "u0160martno pri Litiji",
        "region": null,
        "latt": "46.008",
        "longt": "14.89834",
        "address": "11348 Steven Trafficway Suite 420nSouth David, CA 80513"
    },
    {
        "state": "SI",
        "name": "Cuber",
        "city": "Ljutomer",
        "prov": "Ljutomer",
        "region": null,
        "latt": "46.49443",
        "longt": "16.18521",
        "address": "675 Lisa Hollow Suite 370nSouth Courtneyview, MO 82673"
    },
    {
        "state": "SI",
        "name": "Razbore-K. O. Jeu017eni Vrh",
        "city": "Smartno pri Litiji",
        "prov": "u0160martno pri Litiji",
        "region": null,
        "latt": "46.008",
        "longt": "14.89834",
        "address": "29587 Daniel WellsnJonesbury, NM 08980"
    },
    {
        "state": "SI",
        "name": "Radanja Vas",
        "city": "Sentvid pri Sticni",
        "prov": "Ivanu010dna Gorica",
        "region": null,
        "latt": "45.97802",
        "longt": "14.88389",
        "address": "8916 Larry Dam Apt. 020nWilliamview, NJ 15112"
    },
    {
        "state": "SI",
        "name": "Majcni",
        "city": "Sezana",
        "prov": "Seu017eana",
        "region": null,
        "latt": "45.74452",
        "longt": "13.93585",
        "address": "743 James Way Apt. 810nSouth Theresaborough, NY 70249"
    },
    {
        "state": "SI",
        "name": "Jeu017ea",
        "city": "Ljubljana",
        "prov": "Ljubljana",
        "region": null,
        "latt": "46.10167",
        "longt": "14.54972",
        "address": "14796 Burnett Gardens Apt. 840nAmandatown, VA 20821"
    },
    {
        "state": "SI",
        "name": "Jeu017ea",
        "city": "Ljubljana",
        "prov": "Ljubljana",
        "region": null,
        "latt": "46.10167",
        "longt": "14.54972",
        "address": "2488 Marquez LodgenNorth Erin, MA 84256"
    },
    {
        "state": "SI",
        "name": "Radanja Vas",
        "city": "Sentvid pri Sticni",
        "prov": "Ivanu010dna Gorica",
        "region": null,
        "latt": "45.97802",
        "longt": "14.88389",
        "address": "5939 Alexandra KeysnDavidchester, WV 99164"
    },
    {
        "state": "SI",
        "name": "Nou0161e",
        "city": "Radovljica",
        "prov": "Radovljica",
        "region": null,
        "latt": "46.33306",
        "longt": "14.22952",
        "address": "25313 Daniel Course Suite 446nSouth Dawnview, MN 39096"
    },
    {
        "state": "SI",
        "name": "Hebat",
        "city": "Bohinj",
        "prov": "Bohinj",
        "region": null,
        "latt": "46.29722",
        "longt": "13.87028",
        "address": "01813 Melanie RapidnPrinceborough, DE 79936"
    },
    {
        "state": "SI",
        "name": "Buu0161eu010da Vas",
        "city": "Brezice",
        "prov": "Breu017eice",
        "region": null,
        "latt": "45.86848",
        "longt": "15.51987",
        "address": "98585 Nicholas Parks Apt. 727nShannonstad, AL 94024"
    },
    {
        "state": "SI",
        "name": "Gornja Kou0161ana",
        "city": "Pivka",
        "prov": "Pivka",
        "region": null,
        "latt": "45.68474",
        "longt": "14.12061",
        "address": "Unit 4763 Box 9764nDPO AP 98898"
    },
    {
        "state": "SI",
        "name": "Sveti Jernej",
        "city": "Sveti Jernej",
        "prov": "Slovenska Konjice",
        "region": null,
        "latt": "46.31667",
        "longt": "15.51667",
        "address": "667 Huffman PointnWeaverborough, LA 79239"
    },
    {
        "state": "SI",
        "name": "Radanja Vas",
        "city": "Sentvid pri Sticni",
        "prov": "Ivanu010dna Gorica",
        "region": null,
        "latt": "45.97802",
        "longt": "14.88389",
        "address": "3491 Riley HighwaynNorth Thomas, NC 66169"
    },
    {
        "state": "SI",
        "name": "Kaplanovo",
        "city": "Velike Lau0161u010de",
        "prov": "Velike Lau0161u010de",
        "region": null,
        "latt": "45.82126",
        "longt": "14.59369",
        "address": "265 Santos Drive Apt. 116nEast Jorgefort, ID 88447"
    },
    {
        "state": "SI",
        "name": "Studor",
        "city": "Gorenja Vas",
        "prov": "Gorenja Vas-Poljane",
        "region": null,
        "latt": "46.13961",
        "longt": "14.09348",
        "address": "9635 Smith Common Apt. 840nWest Lauren, ID 57939"
    },
    {
        "state": "SI",
        "name": "Nou0161e",
        "city": "Radovljica",
        "prov": "Radovljica",
        "region": null,
        "latt": "46.33306",
        "longt": "14.22952",
        "address": "573 Bryant GardennJobury, NC 07478"
    },
    {
        "state": "SI",
        "name": "Zaju010dji Vrh",
        "city": "Crnomelj",
        "prov": "u010crnomelj",
        "region": null,
        "latt": "45.58013",
        "longt": "15.1581",
        "address": "847 Ivan RadialnSandovalland, MN 28001"
    },
    {
        "state": "SI",
        "name": "Razbore-K. O. Jeu017eni Vrh",
        "city": "Smartno pri Litiji",
        "prov": "u0160martno pri Litiji",
        "region": null,
        "latt": "46.008",
        "longt": "14.89834",
        "address": "8538 Kelsey Falls Apt. 365nWest Damontown, WI 65564"
    },
    {
        "state": "SI",
        "name": "Studor",
        "city": "Gorenja Vas",
        "prov": "Gorenja Vas-Poljane",
        "region": null,
        "latt": "46.13961",
        "longt": "14.09348",
        "address": "815 Smith Isle Apt. 496nEast Mark, SC 74626"
    },
    {
        "state": "SI",
        "name": "Razbore-K. O. Jeu017eni Vrh",
        "city": "Smartno pri Litiji",
        "prov": "u0160martno pri Litiji",
        "region": null,
        "latt": "46.008",
        "longt": "14.89834",
        "address": "2563 Chandler Junction Suite 420nTaylormouth, DC 92457"
    },
    {
        "state": "SI",
        "name": "Ciglerjev vrh",
        "city": "Brezni Vrh",
        "prov": "Radlje ob Dravi",
        "region": null,
        "latt": "46.64967",
        "longt": "15.32438",
        "address": "18767 Phillip HillsnGabrielville, WV 90150"
    },
    {
        "state": "SI",
        "name": "Nou0161e",
        "city": "Radovljica",
        "prov": "Radovljica",
        "region": null,
        "latt": "46.33306",
        "longt": "14.22952",
        "address": "3981 Tapia SpringnStevensstad, NH 90391"
    },
    {
        "state": "SI",
        "name": "Buu0161eu010da Vas",
        "city": "Brezice",
        "prov": "Breu017eice",
        "region": null,
        "latt": "45.86848",
        "longt": "15.51987",
        "address": "597 Kevin JunctionnWest Markmouth, WY 59819"
    },
    {
        "state": "SI",
        "name": "Nou0161e",
        "city": "Radovljica",
        "prov": "Radovljica",
        "region": null,
        "latt": "46.33306",
        "longt": "14.22952",
        "address": "Unit 1732 Box 3814nDPO AA 19110"
    },
    {
        "state": "SI",
        "name": "Buu0161eu010da Vas",
        "city": "Brezice",
        "prov": "Breu017eice",
        "region": null,
        "latt": "45.86848",
        "longt": "15.51987",
        "address": "34498 Stephanie PlainsnAnthonyland, GA 57082"
    },
    {
        "state": "SI",
        "name": "Sveti Jernej",
        "city": "Sveti Jernej",
        "prov": "Slovenska Konjice",
        "region": null,
        "latt": "46.31667",
        "longt": "15.51667",
        "address": "7541 Sara Harbor Suite 428nAlexisfort, IL 27905"
    },
    {
        "state": "SI",
        "name": "Polje",
        "city": "Prapetno Brdo",
        "prov": "Tolmin",
        "region": null,
        "latt": "46.1105",
        "longt": "13.86232",
        "address": "766 Hall CourtnCurtishaven, RI 77473"
    },
    {
        "state": "SI",
        "name": "Hebat",
        "city": "Bohinj",
        "prov": "Bohinj",
        "region": null,
        "latt": "46.29722",
        "longt": "13.87028",
        "address": "6228 Roberts Estate Suite 356nWest Mary, OK 92044"
    },
    {
        "state": "SI",
        "name": "Kalobje",
        "city": "Sentjur",
        "prov": "Sentjur",
        "region": null,
        "latt": "46.16722",
        "longt": "15.39444",
        "address": "2301 Huffman Inlet Suite 436nSouth Jennifer, LA 05261"
    },
    {
        "state": "SI",
        "name": "Nou0161e",
        "city": "Radovljica",
        "prov": "Radovljica",
        "region": null,
        "latt": "46.33306",
        "longt": "14.22952",
        "address": "78576 Brian Turnpike Apt. 908nGreenefort, HI 48757"
    },
    {
        "state": "SI",
        "name": "Obu010dina Rogau0161ka Slatina",
        "city": "Rogaska Slatina",
        "prov": "Rogau0161ka Slatina",
        "region": null,
        "latt": "46.24667",
        "longt": "15.62944",
        "address": "252 Fox WallnChavezland, FL 54458"
    },
    {
        "state": "SI",
        "name": "Selo pri Vranskem",
        "city": "Vransko",
        "prov": "Vransko",
        "region": null,
        "latt": "46.25976",
        "longt": "14.9603",
        "address": "24509 Sarah Oval Apt. 001nLeemouth, VT 20701"
    },
    {
        "state": "SI",
        "name": "Kalobje",
        "city": "Sentjur",
        "prov": "Sentjur",
        "region": null,
        "latt": "46.16722",
        "longt": "15.39444",
        "address": "5253 Nathan Light Suite 339nWest Bradley, KS 82520"
    },
    {
        "state": "SI",
        "name": "Studor",
        "city": "Gorenja Vas",
        "prov": "Gorenja Vas-Poljane",
        "region": null,
        "latt": "46.13961",
        "longt": "14.09348",
        "address": "309 Medina LandingnNew Harryview, PA 57416"
    },
    {
        "state": "SI",
        "name": "Polje",
        "city": "Prapetno Brdo",
        "prov": "Tolmin",
        "region": null,
        "latt": "46.1105",
        "longt": "13.86232",
        "address": "956 Dylan Inlet Apt. 232nNew Zacharyland, IL 43517"
    },
    {
        "state": "SI",
        "name": "Razbore-K. O. Jeu017eni Vrh",
        "city": "Smartno pri Litiji",
        "prov": "u0160martno pri Litiji",
        "region": null,
        "latt": "46.008",
        "longt": "14.89834",
        "address": "5088 Andrea OvalnChristophershire, TN 49456"
    },
    {
        "state": "SI",
        "name": "Hebat",
        "city": "Bohinj",
        "prov": "Bohinj",
        "region": null,
        "latt": "46.29722",
        "longt": "13.87028",
        "address": "77428 Jones Ways Suite 541nSouth Stephanieville, NE 74434"
    },
    {
        "state": "SI",
        "name": "Gornja Kou0161ana",
        "city": "Pivka",
        "prov": "Pivka",
        "region": null,
        "latt": "45.68474",
        "longt": "14.12061",
        "address": "USNV SchneidernFPO AA 04677"
    },
    {
        "state": "SI",
        "name": "Polje",
        "city": "Prapetno Brdo",
        "prov": "Tolmin",
        "region": null,
        "latt": "46.1105",
        "longt": "13.86232",
        "address": "04141 Anderson ForknWest Robert, NH 59705"
    },
    {
        "state": "SI",
        "name": "Kaplanovo",
        "city": "Velike Lau0161u010de",
        "prov": "Velike Lau0161u010de",
        "region": null,
        "latt": "45.82126",
        "longt": "14.59369",
        "address": "PSC 1017, Box 3586nAPO AA 43185"
    },
    {
        "state": "SI",
        "name": "Zaju010dji Vrh",
        "city": "Crnomelj",
        "prov": "u010crnomelj",
        "region": null,
        "latt": "45.58013",
        "longt": "15.1581",
        "address": "854 Navarro CirclenPort Robert, FL 87945"
    },
    {
        "state": "SI",
        "name": "Buu0161eu010da Vas",
        "city": "Brezice",
        "prov": "Breu017eice",
        "region": null,
        "latt": "45.86848",
        "longt": "15.51987",
        "address": "13910 Beck ExtensionsnPowellland, RI 70501"
    },
    {
        "state": "SI",
        "name": "Gru010darevec",
        "city": "Logatec",
        "prov": "Logatec",
        "region": null,
        "latt": "45.87528",
        "longt": "14.21333",
        "address": "Unit 7855 Box 6789nDPO AE 21172"
    },
    {
        "state": "SI",
        "name": "Radanja Vas",
        "city": "Sentvid pri Sticni",
        "prov": "Ivanu010dna Gorica",
        "region": null,
        "latt": "45.97802",
        "longt": "14.88389",
        "address": "0496 Harris TrafficwaynSouth Madison, OK 19194"
    },
    {
        "state": "SI",
        "name": "Kaplanovo",
        "city": "Velike Lau0161u010de",
        "prov": "Velike Lau0161u010de",
        "region": null,
        "latt": "45.82126",
        "longt": "14.59369",
        "address": "45970 Danny Parks Suite 836nEast Jessica, NM 40220"
    },
    {
        "state": "SI",
        "name": "Jeu017ea",
        "city": "Ljubljana",
        "prov": "Ljubljana",
        "region": null,
        "latt": "46.10167",
        "longt": "14.54972",
        "address": "49048 Matthew NecknNew Victoriaberg, AL 87850"
    },
    {
        "state": "SI",
        "name": "Cuber",
        "city": "Ljutomer",
        "prov": "Ljutomer",
        "region": null,
        "latt": "46.49443",
        "longt": "16.18521",
        "address": "54158 Victoria FortnSouth Tanyachester, VA 26806"
    },
    {
        "state": "SI",
        "name": "Gru010darevec",
        "city": "Logatec",
        "prov": "Logatec",
        "region": null,
        "latt": "45.87528",
        "longt": "14.21333",
        "address": "435 Bird Mountain Apt. 582nAbbotttown, IN 17299"
    },
    {
        "state": "SI",
        "name": "Gornja Kou0161ana",
        "city": "Pivka",
        "prov": "Pivka",
        "region": null,
        "latt": "45.68474",
        "longt": "14.12061",
        "address": "50369 Michael Knolls Suite 477nPatriciaberg, MD 10035"
    },
    {
        "state": "SI",
        "name": "Selo pri Vranskem",
        "city": "Vransko",
        "prov": "Vransko",
        "region": null,
        "latt": "46.25976",
        "longt": "14.9603",
        "address": "2680 Benjamin Trafficway Suite 439nKlineborough, NV 37740"
    },
    {
        "state": "SI",
        "name": "Radanja Vas",
        "city": "Sentvid pri Sticni",
        "prov": "Ivanu010dna Gorica",
        "region": null,
        "latt": "45.97802",
        "longt": "14.88389",
        "address": "5462 Martha IslandsnMitchellside, KS 41401"
    },
    {
        "state": "SI",
        "name": "Sveti Jernej",
        "city": "Sveti Jernej",
        "prov": "Slovenska Konjice",
        "region": null,
        "latt": "46.31667",
        "longt": "15.51667",
        "address": "10504 Heather Causeway Suite 318nDeanborough, NE 07014"
    },
    {
        "state": "SI",
        "name": "Kadrenci",
        "city": "Cogetinci",
        "prov": "Cerkvenjak",
        "region": null,
        "latt": "46.56611",
        "longt": "15.95434",
        "address": "USNV HoltnFPO AE 92139"
    },
    {
        "state": "SI",
        "name": "Nou0161e",
        "city": "Radovljica",
        "prov": "Radovljica",
        "region": null,
        "latt": "46.33306",
        "longt": "14.22952",
        "address": "USNV LucasnFPO AA 88958"
    },
    {
        "state": "SI",
        "name": "Sveti Jernej",
        "city": "Sveti Jernej",
        "prov": "Slovenska Konjice",
        "region": null,
        "latt": "46.31667",
        "longt": "15.51667",
        "address": "09567 Harris CampnPort Kelly, MS 84594"
    },
    {
        "state": "SI",
        "name": "Zaju010dji Vrh",
        "city": "Crnomelj",
        "prov": "u010crnomelj",
        "region": null,
        "latt": "45.58013",
        "longt": "15.1581",
        "address": "578 James ParknWoodside, ME 59539"
    },
    {
        "state": "SI",
        "name": "Sveti Jernej",
        "city": "Sveti Jernej",
        "prov": "Slovenska Konjice",
        "region": null,
        "latt": "46.31667",
        "longt": "15.51667",
        "address": "4823 Reilly Common Apt. 032nNew Joseph, CT 39605"
    },
    {
        "state": "SI",
        "name": "Ciglerjev vrh",
        "city": "Brezni Vrh",
        "prov": "Radlje ob Dravi",
        "region": null,
        "latt": "46.64967",
        "longt": "15.32438",
        "address": "1519 Mark Parkway Suite 078nNorth David, NC 39678"
    },
    {
        "state": "SI",
        "name": "Radanja Vas",
        "city": "Sentvid pri Sticni",
        "prov": "Ivanu010dna Gorica",
        "region": null,
        "latt": "45.97802",
        "longt": "14.88389",
        "address": "7790 Gutierrez CausewaynEast Paulside, CO 36571"
    },
    {
        "state": "SI",
        "name": "Kaplanovo",
        "city": "Velike Lau0161u010de",
        "prov": "Velike Lau0161u010de",
        "region": null,
        "latt": "45.82126",
        "longt": "14.59369",
        "address": "802 Fox Ridge Apt. 378nPort Alexanderport, IL 02907"
    },
    {
        "state": "SI",
        "name": "Village Lendava Apartment",
        "city": "Lendava",
        "prov": "Lendava-Lendva",
        "region": null,
        "latt": "46.5536",
        "longt": "16.45882",
        "address": "344 Alexis Light Suite 601nNew Stevenport, ME 55653"
    },
    {
        "state": "SI",
        "name": "Obu010dina Rogau0161ka Slatina",
        "city": "Rogaska Slatina",
        "prov": "Rogau0161ka Slatina",
        "region": null,
        "latt": "46.24667",
        "longt": "15.62944",
        "address": "2982 Gonzalez Lodge Suite 840nEricton, IA 20636"
    },
    {
        "state": "SI",
        "name": "Zaju010dji Vrh",
        "city": "Crnomelj",
        "prov": "u010crnomelj",
        "region": null,
        "latt": "45.58013",
        "longt": "15.1581",
        "address": "12659 Bradley GrovesnToddbury, MO 03844"
    },
    {
        "state": "SI",
        "name": "Sveti Jernej",
        "city": "Sveti Jernej",
        "prov": "Slovenska Konjice",
        "region": null,
        "latt": "46.31667",
        "longt": "15.51667",
        "address": "9209 Wood Fords Suite 604nLake Taylorberg, IN 80008"
    },
    {
        "state": "SI",
        "name": "Kadrenci",
        "city": "Cogetinci",
        "prov": "Cerkvenjak",
        "region": null,
        "latt": "46.56611",
        "longt": "15.95434",
        "address": "6961 Ramirez Glen Apt. 139nJosephfort, CT 96311"
    },
    {
        "state": "SI",
        "name": "Obu010dina Rogau0161ka Slatina",
        "city": "Rogaska Slatina",
        "prov": "Rogau0161ka Slatina",
        "region": null,
        "latt": "46.24667",
        "longt": "15.62944",
        "address": "5440 Lynn Terrace Apt. 499nHenrymouth, AR 19659"
    },
    {
        "state": "SI",
        "name": "Sveti Jernej",
        "city": "Sveti Jernej",
        "prov": "Slovenska Konjice",
        "region": null,
        "latt": "46.31667",
        "longt": "15.51667",
        "address": "77368 Owen Neck Apt. 303nWest Hailey, MT 95795"
    },
    {
        "state": "SI",
        "name": "Selo pri Vranskem",
        "city": "Vransko",
        "prov": "Vransko",
        "region": null,
        "latt": "46.25976",
        "longt": "14.9603",
        "address": "1906 Thomas LodgenBennettmouth, GA 33903"
    },
    {
        "state": "SI",
        "name": "Kaplanovo",
        "city": "Velike Lau0161u010de",
        "prov": "Velike Lau0161u010de",
        "region": null,
        "latt": "45.82126",
        "longt": "14.59369",
        "address": "155 Davis Circles Suite 158nSouth Roberttown, MD 82316"
    },
    {
        "state": "SI",
        "name": "Sveti Jernej",
        "city": "Sveti Jernej",
        "prov": "Slovenska Konjice",
        "region": null,
        "latt": "46.31667",
        "longt": "15.51667",
        "address": "526 Hernandez Landing Apt. 111nJamesfurt, KS 72666"
    },
    {
        "state": "SI",
        "name": "Studor",
        "city": "Gorenja Vas",
        "prov": "Gorenja Vas-Poljane",
        "region": null,
        "latt": "46.13961",
        "longt": "14.09348",
        "address": "92263 Ramsey Rapids Suite 266nOrtizstad, ID 69515"
    },
    {
        "state": "SI",
        "name": "Buu0161eu010da Vas",
        "city": "Brezice",
        "prov": "Breu017eice",
        "region": null,
        "latt": "45.86848",
        "longt": "15.51987",
        "address": "2354 Hale Pines Apt. 819nTapiashire, NH 21073"
    },
    {
        "state": "SI",
        "name": "Gornja Kou0161ana",
        "city": "Pivka",
        "prov": "Pivka",
        "region": null,
        "latt": "45.68474",
        "longt": "14.12061",
        "address": "66349 Huff Crossing Suite 379nLake Crystalstad, NC 64747"
    },
    {
        "state": "SI",
        "name": "Mali u010centur",
        "city": "Koper",
        "prov": "Koper-Capodistria",
        "region": null,
        "latt": "45.51",
        "longt": "13.77222",
        "address": "559 Gary RidgenLake Caseyville, UT 92797"
    },
    {
        "state": "SI",
        "name": "Studor",
        "city": "Gorenja Vas",
        "prov": "Gorenja Vas-Poljane",
        "region": null,
        "latt": "46.13961",
        "longt": "14.09348",
        "address": "7930 Ryan LodgenMartinezside, KY 30518"
    },
    {
        "state": "SI",
        "name": "Nou0161e",
        "city": "Radovljica",
        "prov": "Radovljica",
        "region": null,
        "latt": "46.33306",
        "longt": "14.22952",
        "address": "566 Barber Locks Apt. 327nKevinborough, FL 32537"
    },
    {
        "state": "SI",
        "name": "Nou0161e",
        "city": "Radovljica",
        "prov": "Radovljica",
        "region": null,
        "latt": "46.33306",
        "longt": "14.22952",
        "address": "42011 Moon CapenHallton, LA 70309"
    },
    {
        "state": "SI",
        "name": "Studor",
        "city": "Gorenja Vas",
        "prov": "Gorenja Vas-Poljane",
        "region": null,
        "latt": "46.13961",
        "longt": "14.09348",
        "address": "94201 Ronald DividenJennifertown, KY 36641"
    },
    {
        "state": "SI",
        "name": "Muretinci",
        "city": "Muretinci",
        "prov": "Goriu0161nica",
        "region": null,
        "latt": "46.38528",
        "longt": "15.99444",
        "address": "672 Campbell Inlet Apt. 957nEast Reneeberg, WI 88143"
    },
    {
        "state": "SI",
        "name": "Zaju010dji Vrh",
        "city": "Crnomelj",
        "prov": "u010crnomelj",
        "region": null,
        "latt": "45.58013",
        "longt": "15.1581",
        "address": "71934 Jennifer CirclenNicoleborough, ME 45667"
    },
    {
        "state": "SI",
        "name": "Ciglerjev vrh",
        "city": "Brezni Vrh",
        "prov": "Radlje ob Dravi",
        "region": null,
        "latt": "46.64967",
        "longt": "15.32438",
        "address": "3461 Brenda RoadnMichaelton, VT 71778"
    },
    {
        "state": "SI",
        "name": "Buu0161eu010da Vas",
        "city": "Brezice",
        "prov": "Breu017eice",
        "region": null,
        "latt": "45.86848",
        "longt": "15.51987",
        "address": "4675 Erin ForksnDylanmouth, MD 78480"
    },