[
    {
        "state": "UK",
        "name": "Barns Ness",
        "city": "Dunbar",
        "prov": "Scotland",
        "region": "East Lothian",
        "latt": "55.98333",
        "longt": "-2.45",
        "address": "u0448u043eu0441u0435 u0412u0430u043du0446u0435u0442u0442u0456, u0431u0443u0434. 290, u0427u043eu0440u0442u043au0456u0432, 51541"
    },
    {
        "state": "UK",
        "name": "Stony Stratford",
        "city": "Milton Keynes",
        "prov": "England",
        "region": "Milton Keynes",
        "latt": "52.05682",
        "longt": "-0.85281",
        "address": "u043fu0440u043eu0441u043fu0435u043au0442 u0411u043eu0434u0430u0440u0435u0432u0441u044cu043au043eu0433u043e, u0431u0443u0434. 65 u043au0432. 443, u0417u0430u043fu043eu0440u0456u0436u0436u044f, 66852"
    },
    {
        "state": "UK",
        "name": "Anson Engine Museum",
        "city": "Poynton",
        "prov": "England",
        "region": "Cheshire East",
        "latt": "53.34953",
        "longt": "-2.09019",
        "address": "u0448u043eu0441u0435 u041du0456u0436u0438u043du0441u044cu043au0430, u0431u0443u0434. 8 u043au0432. 1, u042eu0436u043du0435, 05687"
    },
    {
        "state": "UK",
        "name": "Crookham Village",
        "city": "Fleet",
        "prov": "England",
        "region": "Hampshire",
        "latt": "51.26133",
        "longt": "-0.86096",
        "address": "u043fu0440u043eu0432u0443u043bu043eu043a u0422u0435u0445u043du0456u0447u043du0438u0439, u0431u0443u0434. 20, u0425u0440u0438u0441u0442u0438u043du0456u0432u043au0430, 17564"
    },
    {
        "state": "UK",
        "name": "Struan",
        "city": "Struan",
        "prov": "Scotland",
        "region": "Highland",
        "latt": "57.35496",
        "longt": "-6.41911",
        "address": "u0432u0443u043bu0438u0446u044f u0420u043eu0437u0443u043cu043eu0432u0441u044cu043au0438u0439 1-u0439, u0431u0443u0434. 86 u043au0432. 66, u041au0440u043eu043fu0438u0432u043du0438u0446u044cu043au0438u0439, 62844"
    },
    {
        "state": "UK",
        "name": "Manafon",
        "city": "Manafon",
        "prov": "Wales",
        "region": "Sir Powys",
        "latt": "52.61238",
        "longt": "-3.31184",
        "address": "u043fu0440u043eu0441u043fu0435u043au0442 u041fu0456u0432u0434u0435u043du043du0430, u0431u0443u0434. 92 u043au0432. 471, u0422u043bu0443u043cu0430u0447, 78653"
    },
    {
        "state": "UK",
        "name": "Allt Dhuin Croisg",
        "city": "Killin",
        "prov": "Scotland",
        "region": "Stirling",
        "latt": "56.50597",
        "longt": "-4.38363",
        "address": "u0448u043eu0441u0435 u041fu043bu044fu0436u043du0430, u0431u0443u0434. 6, u0421u043du043eu0432u0441u044cu043a, 21019"
    },
    {
        "state": "UK",
        "name": "Saint Nicholas",
        "city": "Fishguard",
        "prov": "Wales",
        "region": "Pembrokeshire",
        "latt": "51.98083",
        "longt": "-5.05667",
        "address": "u0441u043au0432u0435u0440 u0428u0430u043cu043fu0430u043du0441u044cu043au0438u0439, u0431u0443u0434. 285 u043au0432. 63, u041fu043eu043au0440u043eu0432u0441u044cu043a, 36321"
    },
    {
        "state": "UK",
        "name": "Yorkshire Dales National Park",
        "city": "Kidstones",
        "prov": "England",
        "region": "North Yorkshire",
        "latt": "54.26667",
        "longt": "-2.08333",
        "address": "u043fu0430u0440u043a u041du043eu0432u043eu0443u043au0440u0430u0457u043du0441u044cu043au0438u0439, u0431u0443u0434. 4, u041au043eu043fu0438u0447u0438u043du0446u0456, 45918"
    },
    {
        "state": "UK",
        "name": "Bervie Bay",
        "city": "Inverbervie",
        "prov": "Scotland",
        "region": "Aberdeenshire",
        "latt": "56.83333",
        "longt": "-2.26667",
        "address": "u0448u043eu0441u0435 u0426u0456u043eu043bu043au043eu0432u0441u044cu043au043eu0433u043e, u0431u0443u0434. 3 u043au0432. 5, u0422u0438u0432u0440u0456u0432, 06033"
    },
    {
        "state": "UK",
        "name": "Cattewater",
        "city": "Plymouth",
        "prov": "England",
        "region": "Plymouth",
        "latt": "50.36667",
        "longt": "-4.11667",
        "address": "u043fu0440u043eu0441u043fu0435u043au0442 u0414u0430u0447u0430 u041au043eu0432u0430u043bu0435u0432u0441u044cu043au043eu0433u043e, u0431u0443u0434. 87 u043au0432. 42, u041fu0435u0440u0432u043eu043cu0430u0439u0441u044cu043au0438u0439 , 02234"
    },
    {
        "state": "UK",
        "name": "Tiffield",
        "city": "Towcester",
        "prov": "England",
        "region": "Northamptonshire",
        "latt": "52.16129",
        "longt": "-0.96473",
        "address": "u043fu0430u0440u043a u0428u043eu0441u0442u043eu0457 1-u0439, u0431u0443u0434. 812, u0427u0443u0433u0443u0457u0432, 16591"
    },
    {
        "state": "UK",
        "name": "Higham Ferrers",
        "city": "Rushden",
        "prov": "England",
        "region": "Northamptonshire",
        "latt": "52.30596",
        "longt": "-0.59342",
        "address": "u0432u0443u043bu0438u0446u044f u0422u0440u043eu0457u0446u044cu043au043eu0433u043e u041cu0438u043au043eu043bu0438, u0431u0443u0434. 34 u043au0432. 26, u0422u0438u0432u0440u0456u0432, 41753"
    },
    {
        "state": "UK",
        "name": "Radcliffe Tower",
        "city": "Radcliffe",
        "prov": "England",
        "region": "Borough of Bury",
        "latt": "53.56382",
        "longt": "-2.30977",
        "address": "u043du0430u0431u0435u0440u0435u0436u043du0430 u041bu044eu0441u0442u0434u043eu0440u0444u0441u044cu043au0430 u0434u043eu0440u043eu0433u0430, u0431u0443u0434. 44 u043au0432. 491, u0410u043bu043cu0430u0437u043du0430, 107838"
    },
    {
        "state": "UK",
        "name": "Moniack Castle",
        "city": "Kirkhill",
        "prov": "Scotland",
        "region": "Highland",
        "latt": "57.46667",
        "longt": "-4.41667",
        "address": "u0441u043au0432u0435u0440 u0422u0440u0430u043du0441u043fu043eu0440u0442u043du0430, u0431u0443u0434. 3 u043au0432. 7, u0427u0435u0440u043du0456u0432u0446u0456, 94173"
    },
    {
        "state": "UK",
        "name": "Waterloo",
        "city": "Waterlooville",
        "prov": "England",
        "region": "Hampshire",
        "latt": "50.866667",
        "longt": "-1.016667",
        "address": "u043du0430u0431u0435u0440u0435u0436u043du0430 u0406u0432u0430u043du0430 u0424u0440u0430u043du043au0430, u0431u0443u0434. 3, u0411u0443u0440u0438u043du044c, 12313"
    },
    {
        "state": "UK",
        "name": "Barningham",
        "city": "Barnard Castle",
        "prov": "England",
        "region": "County Durham",
        "latt": "54.48809",
        "longt": "-1.87008",
        "address": "u0432u0443u043bu0438u0446u044f u0413u043eu043bu043eu0432u043du0430, u0431u0443u0434. 3 u043au0432. 997, u041bu044eu0431u043eu0442u0438u043d, 29447"
    },
    {
        "state": "UK",
        "name": "South Zeal",
        "city": "South Zeal",
        "prov": "England",
        "region": "Devon",
        "latt": "50.72604",
        "longt": "-3.91277",
        "address": "u043fu043bu043eu0449u0430 u041bu044eu0442u043du0435u0432u0438u0439 1-u0439, u0431u0443u0434. 2 u043au0432. 5, u0412u0438u043du043du0438u043au0438, 105763"
    },
    {
        "state": "UK",
        "name": "Ruardean Woodside",
        "city": "Cinderford",
        "prov": "England",
        "region": "Gloucestershire",
        "latt": "51.84713",
        "longt": "-2.54248",
        "address": "u043fu0440u043eu0432u0443u043bu043eu043a u0412u0430u043du0446u0435u0442u0442u0456, u0431u0443u0434. 67 u043au0432. 57, u0412u0443u0433u043bu0435u0433u0456u0440u0441u044cu043a, 97447"
    },
    {
        "state": "UK",
        "name": "Dovercourt",
        "city": "Harwich",
        "prov": "England",
        "region": "Essex",
        "latt": "51.93649",
        "longt": "1.27831",
        "address": "u0441u043au0432u0435u0440 u0422u0440u0430u043au0442u043eu0440u043du0430, u0431u0443u0434. 5 u043au0432. 63, u0410u043du0430u043du044cu0457u0432, 93939"
    },
    {
        "state": "UK",
        "name": "Bracara",
        "city": "Mallaig",
        "prov": "Scotland",
        "region": "Highland",
        "latt": "56.97011",
        "longt": "-5.75988",
        "address": "u043fu043bu043eu0449u0430 u041fu043eu043bu044cu043eu0432u0430, u0431u0443u0434. 73 u043au0432. 6, u0413u0430u043bu0438u0447, 26114"
    },
    {
        "state": "UK",
        "name": "Culmstock",
        "city": "Uffculme",
        "prov": "England",
        "region": "Devon",
        "latt": "50.92843",
        "longt": "-3.28411",
        "address": "u043du0430u0431u0435u0440u0435u0436u043du0430 u0410u043fu0442u0435u043au0430u0440u0441u044cu043au0438u0439, u0431u0443u0434. 703 u043au0432. 880, u0420u0443u0434u043au0438, 93046"
    },
    {
        "state": "UK",
        "name": "Topcliffe Maidens Bower",
        "city": "Thirsk",
        "prov": "England",
        "region": "North Yorkshire",
        "latt": "54.16918",
        "longt": "-1.37349",
        "address": "u043fu0430u0440u043a u041cu0430u0442u044eu0448u0435u043du043au0430, u0431u0443u0434. 649, u041du043eu0432u043eu0430u0437u043eu0432u0441u044cu043a, 79723"
    },
    {
        "state": "UK",
        "name": "RAF Northolt",
        "city": "Ruislip",
        "prov": "England",
        "region": "Greater London",
        "latt": "51.553",
        "longt": "-0.41817",
        "address": "u0432u0443u043bu0438u0446u044f u0410u0440u0442u0438u043bu0435u0440u0456u0439u0441u044cu043au0438u0439 2-u0439, u0431u0443u0434. 01 u043au0432. 3, u0411u043eu0433u043eu0434u0443u0445u0456u0432, 91232"
    },
    {
        "state": "UK",
        "name": "Itchenor",
        "city": "Emsworth",
        "prov": "England",
        "region": "West Sussex",
        "latt": "50.80561",
        "longt": "-0.86689",
        "address": "u043du0430u0431u0435u0440u0435u0436u043du0430 u041cu0438u043au043eu043bu0438 u0411u043eu0440u043eu0432u0441u044cu043au043eu0433u043e, u0431u0443u0434. 927 u043au0432. 7, u041f'u044fu0442u0438u0445u0430u0442u043au0438, 94583"
    },
    {
        "state": "UK",
        "name": "East Kilbridge",
        "city": "East Kilbride",
        "prov": "Scotland",
        "region": "South Lanarkshire",
        "latt": "55.766667",
        "longt": "-4.166667",
        "address": "u043du0430u0431u0435u0440u0435u0436u043du0430 u0421u0442u0435u043fu043du0430, u0431u0443u0434. 001, u041fu0435u0440u0435u043cu0438u0448u043bu044fu043du0438, 58227"
    },
    {
        "state": "UK",
        "name": "Sapiston",
        "city": "Ixworth",
        "prov": "England",
        "region": "Suffolk",
        "latt": "52.33956",
        "longt": "0.81187",
        "address": "u043fu0440u043eu0432u0443u043bu043eu043a u0410u0435u0440u043eu0434u0440u043eu043cu043du0438u0439 2-u0439, u0431u0443u0434. 12 u043au0432. 59, u0412u043eu043bu043eu0434u0438u043cu0438u0440-u0412u043eu043bu0438u043du0441u044cu043au0438u0439, 68995"
    },
    {
        "state": "UK",
        "name": "Ferrybridge",
        "city": "Pontefract",
        "prov": "England",
        "region": "City and Borough of Wakefield",
        "latt": "53.71058",
        "longt": "-1.27948",
        "address": "u043du0430u0431u0435u0440u0435u0436u043du0430 u0423u0448u0430u043au043eu0432u0430, u0431u0443u0434. 135 u043au0432. 29, u0423u0437u0438u043d, 52663"
    },
    {
        "state": "UK",
        "name": "Benfleet Hospital Ltd",
        "city": "South Benfleet",
        "prov": "England",
        "region": "Essex",
        "latt": "51.56614",
        "longt": "0.5672",
        "address": "u043du0430u0431u0435u0440u0435u0436u043du0430 u0427u0435u0440u0435u043fu0430u043du043eu0432u0438u0445, u0431u0443u0434. 6, u041au0440u0430u043cu0430u0442u043eu0440u0441u044cu043a, 74874"
    },
    {
        "state": "UK",
        "name": "Water of Milk",
        "city": "Annan",
        "prov": "Scotland",
        "region": "Dumfries and Galloway",
        "latt": "55.05",
        "longt": "-3.25",
        "address": "u0441u043au0432u0435u0440 13-u0442u0430 u0441u0442. u0412u0435u043bu0438u043au043eu0433u043e u0424u043eu043du0442u0430u043du0443 u043fu043bu044fu0436, u0431u0443u0434. 87, u041cu043eu043du0430u0441u0442u0438u0440u0438u0441u044cu043au0430, 71103"
    },
    {
        "state": "UK",
        "name": "Farnley",
        "city": "Yeadon",
        "prov": "England",
        "region": "North Yorkshire",
        "latt": "53.92688",
        "longt": "-1.67228",
        "address": "u043fu043bu043eu0449u0430 u041bu044cu0432u0430 u0421u0438u043cu0438u0440u0435u043du043au0430, u0431u0443u0434. 4, u041du043eu0432u0438u0439 u0420u043eu0437u0434u0456u043b, 43282"
    },
    {
        "state": "UK",
        "name": "Saint Combs",
        "city": "Saint Combs",
        "prov": "Scotland",
        "region": "Aberdeenshire",
        "latt": "57.65761",
        "longt": "-1.91066",
        "address": "u043du0430u0431u0435u0440u0435u0436u043du0430 u041bu0443u0437u0430u043du0456u0432u0441u044cu043au0438u0439 1-u0439, u0431u0443u0434. 182 u043au0432. 94, u0420u0435u0448u0435u0442u0438u043bu0456u0432u043au0430, 11563"
    },
    {
        "state": "UK",
        "name": "Evington",
        "city": "Leicester",
        "prov": "England",
        "region": "Leicestershire",
        "latt": "52.6",
        "longt": "-1.06667",
        "address": "u0441u043au0432u0435u0440 u041eu0431u043eu0440u043eu043du0438 u041bu0435u043du0456u043du0433u0440u0430u0434u0443, u0431u0443u0434. 237 u043au0432. 268, u041eu0432u0440u0443u0447, 91394"
    },
    {
        "state": "UK",
        "name": "Flemington Burn",
        "city": "West Linton",
        "prov": "Scotland",
        "region": "The Scottish Borders",
        "latt": "55.7",
        "longt": "-3.33333",
        "address": "u043du0430u0431u0435u0440u0435u0436u043du0430 u0416u0435u0432u0430u0445u043eu0432u0430, u0431u0443u0434. 3 u043au0432. 587, u0414u0443u0431u043du043e, 104747"
    },
    {
        "state": "UK",
        "name": "Huip Sound",
        "city": "Whitehall Village",
        "prov": "Scotland",
        "region": "Orkney Islands",
        "latt": "59.15",
        "longt": "-2.65",
        "address": "u0448u043eu0441u0435 u0406u043fu043eu0434u0440u043eu043cu043du0438u0439, u0431u0443u0434. 3, u0425u043cu0456u043bu044cu043du0438u043a, 36383"
    },
    {
        "state": "UK",
        "name": "Toy Ness Jetty",
        "city": "Orphir",
        "prov": "Scotland",
        "region": "Orkney Islands",
        "latt": "58.9227",
        "longt": "-3.12032",
        "address": "u043fu0440u043eu0441u043fu0435u043au0442 u0414u0435u0432u2019u044fu0442u0430, u0431u0443u0434. 31 u043au0432. 03, u041fu0435u0440u0448u043eu0442u0440u0430u0432u0435u043du0441u044cu043a, 104485"
    },
    {
        "state": "UK",
        "name": "Levington",
        "city": "Kesgrave",
        "prov": "England",
        "region": "Suffolk",
        "latt": "52.00593",
        "longt": "1.25233",
        "address": "u043fu0430u0440u043a u041au043eu0441u0442u0430u043du0434u0456, u0431u0443u0434. 4 u043au0432. 38, u041eu043bu0435u0448u043au0438, 62759"
    },
    {
        "state": "UK",
        "name": "Hambrook",
        "city": "Mangotsfield",
        "prov": "England",
        "region": "South Gloucestershire",
        "latt": "51.50806",
        "longt": "-2.52056",
        "address": "u043fu043bu043eu0449u0430 u0413u0440u0430u0434u043eu043du0430u0447u0430u043bu044cu043du0438u0446u044cu043au0430, u0431u0443u0434. 07 u043au0432. 2, u0421u0435u0440u0435u0434u0438u043du0430-u0411u0443u0434u0430, 46679"
    },
    {
        "state": "UK",
        "name": "Maddygalla",
        "city": "Ballycastle",
        "prov": "Northern Ireland",
        "region": "Causeway Coast and Glens",
        "latt": "55.26723",
        "longt": "-6.18183",
        "address": "u043du0430u0431u0435u0440u0435u0436u043du0430 u0414u0435u0440u0435u0432u043eu043eu0431u0440u043eu0431u043du0438u0439 2-u0439, u0431u0443u0434. 294 u043au0432. 400, u041fu0456u0434u0433u043eu0440u043eu0434u043du0435, 79601"
    },
    {
        "state": "UK",
        "name": "Nuns Pass",
        "city": "Carsaig",
        "prov": "Scotland",
        "region": "Argyll and Bute",
        "latt": "56.31667",
        "longt": "-6.01667",
        "address": "u0432u0443u043bu0438u0446u044f u0419u043eu0441u0438u043fu0430 u0422u0438u043cu0447u0435u043du043au0430, u0431u0443u0434. 4, u041au0443u0440u0430u0445u043eu0432u0435, 16463"
    },
    {
        "state": "UK",
        "name": "Rowardennan",
        "city": "Rowardennan",
        "prov": "Scotland",
        "region": "Stirling",
        "latt": "56.14775",
        "longt": "-4.64018",
        "address": "u0448u043eu0441u0435 u041du0430u0445u0456u043cu043eu0432u0430, u0431u0443u0434. 60, u0406u0437u043cu0430u0457u043b, 85439"
    },
    {
        "state": "UK",
        "name": "Wester Kinleith",
        "city": "Currie",
        "prov": "Scotland",
        "region": "Edinburgh",
        "latt": "55.88567",
        "longt": "-3.30539",
        "address": "u0443u0437u0432u0456u0437 u041au0443u044fu043bu044cu043du0438u0446u044cu043au0438u0439 u043cu0456u0441u0442, u0431u0443u0434. 7 u043au0432. 261, u041cu0435u043du0430 , 86278"
    },
    {
        "state": "UK",
        "name": "Stony Stratford",
        "city": "Milton Keynes",
        "prov": "England",
        "region": "Milton Keynes",
        "latt": "52.05682",
        "longt": "-0.85281",
        "address": "u043fu0440u043eu0441u043fu0435u043au0442 u041eu0441u0442u0430u043fu0430 u0412u0438u0448u043du0456, u0431u0443u0434. 57 u043au0432. 3, u0416u0434u0430u043du0456u0432u043au0430, 14637"
    },
    {
        "state": "UK",
        "name": "Jameston",
        "city": "Jameston",
        "prov": "Wales",
        "region": "Pembrokeshire",
        "latt": "51.65642",
        "longt": "-4.81304",
        "address": "u043fu0430u0440u043a u0413u0440u0435u0446u044cu043au0430, u0431u0443u0434. 92, u0417u0443u0433u0440u0435u0441, 09430"
    },
    {
        "state": "UK",
        "name": "Whitwell Railway Station",
        "city": "Worksop",
        "prov": "England",
        "region": "Derbyshire",
        "latt": "53.28",
        "longt": "-1.20056",
        "address": "u043fu0430u0440u043a u041au0440u0430u0441u0438u0432u0430, u0431u0443u0434. 0 u043au0432. 85, u0404u0432u043fu0430u0442u043eu0440u0456u044f, 64442"
    },
    {
        "state": "UK",
        "name": "Huntspill",
        "city": "Burnham-on-Sea",
        "prov": "England",
        "region": "Somerset",
        "latt": "51.20562",
        "longt": "-2.98735",
        "address": "u043fu0440u043eu0432u0443u043bu043eu043a u0423u044eu0442u043du0430, u0431u0443u0434. 61, u041au0443u0440u0430u0445u043eu0432u0435, 94085"
    },
    {
        "state": "UK",
        "name": "Rowland",
        "city": "Bakewell",
        "prov": "England",
        "region": "Derbyshire",
        "latt": "53.24451",
        "longt": "-1.68227",
        "address": "u0448u043eu0441u0435 u0421u0430u0434u043eu0432u0430, u0431u0443u0434. 5 u043au0432. 446, u0427u0435u0440u043du0456u0433u0456u0432, 76701"
    },
    {
        "state": "UK",
        "name": "Hambrook",
        "city": "Mangotsfield",
        "prov": "England",
        "region": "South Gloucestershire",
        "latt": "51.50806",
        "longt": "-2.52056",
        "address": "u0432u0443u043bu0438u0446u044f u0410u043cu0431u0443u043bu0430u0442u043eu0440u043du0438u0439 1-u0439, u0431u0443u0434. 7 u043au0432. 21, u041eu0432u0440u0443u0447, 61555"
    },
    {
        "state": "UK",
        "name": "Hambrook",
        "city": "Mangotsfield",
        "prov": "England",
        "region": "South Gloucestershire",
        "latt": "51.50806",
        "longt": "-2.52056",
        "address": "u043fu0430u0440u043a u041eu0441u0442u0430u043fu0430 u0412u0438u0448u043du0456, u0431u0443u0434. 791, u0413u043eu0440u043eu0434u0438u0449u0435 , 03790"
    },
    {
        "state": "UK",
        "name": "Huntspill",
        "city": "Burnham-on-Sea",
        "prov": "England",
        "region": "Somerset",
        "latt": "51.20562",
        "longt": "-2.98735",
        "address": "u0448u043eu0441u0435 u0417u0430u0440u0456u0447u043du0430, u0431u0443u0434. 37 u043au0432. 869, u0406u0440u0448u0430u0432u0430, 03481"
    },
    {
        "state": "UK",
        "name": "Middlecross Ringwork",
        "city": "Barry",
        "prov": "Wales",
        "region": "Vale of Glamorgan",
        "latt": "51.42105",
        "longt": "-3.37269",
        "address": "u0448u043eu0441u0435 u0421u043cu043eu043bu0435u043du0441u044cu043au0430, u0431u0443u0434. 35 u043au0432. 40, u041au0430u043cu0456u043du044c-u041au0430u0448u0438u0440u0441u044cu043au0438u0439, 85686"
    },
    {
        "state": "UK",
        "name": "Coalbrookdale",
        "city": "Telford",
        "prov": "England",
        "region": "Telford and Wrekin",
        "latt": "52.63821",
        "longt": "-2.49174",
        "address": "u043fu0440u043eu0432u0443u043bu043eu043a u041au043eu0441u043cu043eu043du0430u0432u0442u0456u0432, u0431u0443u0434. 6, u0428u043eu0441u0442u043au0430, 107602"
    },
    {
        "state": "UK",
        "name": "Cocker Street",
        "city": "Blackpool",
        "prov": "England",
        "region": "Blackpool",
        "latt": "53.82267",
        "longt": "-3.05547",
        "address": "u043fu0440u043eu0432u0443u043bu043eu043a u041au0432u0456u0442u043au043eu0432u0430, u0431u0443u0434. 2 u043au0432. 537, u0421u0430u0440u043du0438, 102541"
    },
    {
        "state": "UK",
        "name": "Cader Idris",
        "city": "Dolgellau",
        "prov": "Wales",
        "region": "Gwynedd",
        "latt": "52.7",
        "longt": "-3.9",
        "address": "u0441u043au0432u0435u0440 u0421u043eu0431u0456u043du043eu0432u0430, u0431u0443u0434. 55, u041du0456u0436u0438u043d, 86973"
    },
    {
        "state": "UK",
        "name": "Parc Henbias",
        "city": "Llangefni",
        "prov": "Wales",
        "region": "Anglesey",
        "latt": "53.22495",
        "longt": "-4.36172",
        "address": "u0441u043au0432u0435u0440 u0417u043cu0456u0454u043du043au0430 u0412u0441u0435u0432u043eu043bu043eu0434u0430, u0431u0443u0434. 93, u0422u0435u043fu043bu043eu0434u0430u0440, 102580"
    },
    {
        "state": "UK",
        "name": "Kirkmichael",
        "city": "Kirkmichael",
        "prov": "Scotland",
        "region": "Perth and Kinross",
        "latt": "56.72363",
        "longt": "-3.50472",
        "address": "u0443u0437u0432u0456u0437 16-u0442u0430 u041bu0456u043du0456u044f 6-u0439 u0441u0442. u041bu044eu0441u0442u0434u043eu0440u0444u0441u044cu043au043eu0457 u0434u043eu0440u043eu0433u0438, u0431u0443u0434. 0, u041du043eu0432u043eu0430u0437u043eu0432u0441u044cu043a, 15941"
    },
    {
        "state": "UK",
        "name": "Craggan Rocks",
        "city": "Lizard",
        "prov": "England",
        "region": "Cornwall",
        "latt": "49.96667",
        "longt": "-5.15",
        "address": "u0448u043eu0441u0435 u0422u0435u0445u043du0456u0447u043du0438u0439, u0431u0443u0434. 923, u0420u0436u0438u0449u0456u0432, 28277"
    },
    {
        "state": "UK",
        "name": "King's Cross",
        "city": "London",
        "prov": "England",
        "region": "Greater London",
        "latt": "51.53067",
        "longt": "-0.12308",
        "address": "u043fu043bu043eu0449u0430 8-u043cu0430 u041bu0456u043du0456u044f 6-u0439 u0441u0442. u041bu044eu0441u0442u0434u043eu0440u0444u0441u044cu043au043eu0457 u0434u043eu0440u043eu0433u0438, u0431u0443u0434. 6 u043au0432. 555, u041cu043eu0441u043fu0438u043du0435, 66457"
    },
    {
        "state": "UK",
        "name": "West Drayton",
        "city": "Retford",
        "prov": "England",
        "region": "Nottinghamshire",
        "latt": "53.26667",
        "longt": "-0.93333",
        "address": "u0443u0437u0432u0456u0437 u041bu043eu043au043eu043cu043eu0442u0438u0432u043du0438u0439 2-u0439, u0431u0443u0434. 08 u043au0432. 2, u0420u043eu0436u0438u0449u0435, 38246"
    },
    {
        "state": "UK",
        "name": "Milton-under-Wychwood",
        "city": "Shipton under Wychwood",
        "prov": "England",
        "region": "Oxfordshire",
        "latt": "51.85364",
        "longt": "-1.63216",
        "address": "u043du0430u0431u0435u0440u0435u0436u043du0430 u041fu0435u0440u0435u0441u0438u043fu0441u044cu043au0430 3-u0442u044f, u0431u0443u0434. 20 u043au0432. 407, u041eu043bu0435u043au0441u0430u043du0434u0440u0456u0432u0441u044cu043a, 87572"
    },
    {
        "state": "UK",
        "name": "Hambrook",
        "city": "Mangotsfield",
        "prov": "England",
        "region": "South Gloucestershire",
        "latt": "51.50806",
        "longt": "-2.52056",
        "address": "u043fu0440u043eu0432u0443u043bu043eu043a u041bu0456u043du0456u044f 48-u043cu0430, u0431u0443u0434. 59 u043au0432. 617, u041eu043bu0435u0448u043au0438, 102114"
    },
    {
        "state": "UK",
        "name": "Bowermadden",
        "city": "Bowermadden",
        "prov": "Scotland",
        "region": "Highland",
        "latt": "58.55654",
        "longt": "-3.30265",
        "address": "u0432u0443u043bu0438u0446u044f u0410u043cu0443u0440u0441u044cu043au0438u0439 4-u0439, u0431u0443u0434. 04 u043au0432. 345, u041du0435u043cu0438u0440u0456u0432, 14906"
    },
    {
        "state": "UK",
        "name": "Eastham",
        "city": "Ellesmere Port",
        "prov": "England",
        "region": "Metropolitan Borough of Wirral",
        "latt": "53.31406",
        "longt": "-2.97077",
        "address": "u0448u043eu0441u0435 u042fu0431u043bu0443u043du0435u0432u0430, u0431u0443u0434. 069 u043au0432. 393, u0411u0430u0445u043cu0443u0442, 51721"
    },
    {
        "state": "UK",
        "name": "Ness of Haggrister",
        "city": "Brae",
        "prov": "Scotland",
        "region": "Shetland Islands",
        "latt": "60.416667",
        "longt": "-1.366667",
        "address": "u0441u043au0432u0435u0440 u0414u0435u043cu2019u044fu043du043eu0432u0430, u0431u0443u0434. 45, u0421u0435u0432u0430u0441u0442u043eu043fu043eu043bu044c, 13483"
    },
    {
        "state": "UK",
        "name": "Barford St Martin",
        "city": "Barford St Martin",
        "prov": "England",
        "region": "Wiltshire",
        "latt": "51.08322",
        "longt": "-1.92224",
        "address": "u043du0430u0431u0435u0440u0435u0436u043du0430 u0420u0456u0432u043du043eu0441u0442u0456 2-u0439, u0431u0443u0434. 12, u0412u043eu0440u043eu0436u0431u0430, 99070"
    },
    {
        "state": "UK",
        "name": "Capel Llandurry",
        "city": "Burry Port",
        "prov": "Wales",
        "region": "Carmarthenshire",
        "latt": "51.716667",
        "longt": "-4.266667",
        "address": "u043fu043bu043eu0449u0430 u0411u0435u0440u0435u0437u043eu0432u0430, u0431u0443u0434. 215, u041fu043eu043au0440u043eu0432u0441u044cu043a, 02567"
    },
    {
        "state": "UK",
        "name": "Glencallum Bay",
        "city": "Millport",
        "prov": "Scotland",
        "region": "North Ayrshire",
        "latt": "55.72912",
        "longt": "-5.00663",
        "address": "u0441u043au0432u0435u0440 u041cu0435u0447u043du0438u043au043eu0432u0430, u0431u0443u0434. 886 u043au0432. 54, u041au043eu0440u0435u0446u044c, 81472"
    },
    {
        "state": "UK",
        "name": "Lye's Green",
        "city": "Frome",
        "prov": "England",
        "region": "Wiltshire",
        "latt": "51.21557",
        "longt": "-2.25773",
        "address": "u043fu043bu043eu0449u0430 u041au0432u0456u0442u043au043eu0432u0438u0439, u0431u0443u0434. 022 u043au0432. 3, u041du043eu0432u0430 u041eu0434u0435u0441u0430, 52326"
    },
    {
        "state": "UK",
        "name": "Prestatyn Community",
        "city": "Prestatyn",
        "prov": "Wales",
        "region": "Denbighshire",
        "latt": "53.32632",
        "longt": "-3.40184",
        "address": "u043fu0430u0440u043a u0414u043du0456u0441u0442u0440u043eu0432u0441u044cu043au0430, u0431u0443u0434. 95 u043au0432. 67, u0420u0430u0434u0435u0445u0456u0432, 107646"
    },
    {
        "state": "UK",
        "name": "Gorseinon",
        "city": "Gorseinon",
        "prov": "Wales",
        "region": "City and County of Swansea",
        "latt": "51.66931",
        "longt": "-4.04163",
        "address": "u043fu0430u0440u043a u041au043bu0430u0434u043eu0432u0438u0449u0435u043du0441u044cu043au0430, u0431u0443u0434. 09, u0412u0430u043bu043au0438 , 65871"
    },
    {
        "state": "UK",
        "name": "Rowland",
        "city": "Bakewell",
        "prov": "England",
        "region": "Derbyshire",
        "latt": "53.24451",
        "longt": "-1.68227",
        "address": "u0443u0437u0432u0456u0437 u0413u0435u043du0430 u0406u043eu0433u0430u043du043du0430, u0431u0443u0434. 7 u043au0432. 304, u0414u0443u0431u043du043e, 13024"
    },
    {
        "state": "UK",
        "name": "Hindlip",
        "city": "Worcester",
        "prov": "England",
        "region": "Worcestershire",
        "latt": "52.22411",
        "longt": "-2.18207",
        "address": "u043fu0440u043eu0441u043fu0435u043au0442 u0412u043eu0441u044cu043cu043eu0433u043e u0431u0435u0440u0435u0437u043du044f 1-u0439, u0431u0443u0434. 927 u043au0432. 56, u041fu0440u0438u043bu0443u043au0438, 23359"
    },
    {
        "state": "UK",
        "name": "Ulbster",
        "city": "Ulbster",
        "prov": "Scotland",
        "region": "Highland",
        "latt": "58.35423",
        "longt": "-3.15678",
        "address": "u0448u043eu0441u0435 u0423u0433u043eu0440u0441u044cu043au0430, u0431u0443u0434. 491 u043au0432. 14, u041du043eu0432u0435 u0414u0430u0432u0438u0434u043au043eu0432u043e, 06703"
    },
    {
        "state": "UK",
        "name": "Whitwell Railway Station",
        "city": "Worksop",
        "prov": "England",
        "region": "Derbyshire",
        "latt": "53.28",
        "longt": "-1.20056",
        "address": "u043fu0440u043eu0432u0443u043bu043eu043a u0410u043au0430u0434u0435u043cu0456u043au0430 u0424u0456u043bu0430u0442u043eu0432u0430, u0431u0443u0434. 286, u041cu0430u0440u0456u0443u043fu043eu043bu044c, 77333"
    },
    {
        "state": "UK",
        "name": "Lower Shiplake",
        "city": "Henley on Thames",
        "prov": "England",
        "region": "Oxfordshire",
        "latt": "51.51031",
        "longt": "-0.89045",
        "address": "u0432u0443u043bu0438u0446u044f u041cu0430u0440u0430u0442u0430 1-u0439, u0431u0443u0434. 0, u041cu043eu0441u0442u0438u0441u044cu043au0430, 55098"
    },
    {
        "state": "UK",
        "name": "Ufton",
        "city": "Royal Leamington Spa",
        "prov": "England",
        "region": "Warwickshire",
        "latt": "52.25607",
        "longt": "-1.44693",
        "address": "u0448u043eu0441u0435 u0417u0430u0432u043eu0434u0441u044cu043au0430 3-u0442u044f, u0431u0443u0434. 53, u041fu0435u0440u0435u0449u0435u043fu0438u043du0435, 25164"
    },
    {
        "state": "UK",
        "name": "Skyreburn Bay",
        "city": "Gatehouse of Fleet",
        "prov": "Scotland",
        "region": "Dumfries and Galloway",
        "latt": "54.86327",
        "longt": "-4.21935",
        "address": "u0443u0437u0432u0456u0437 u0422u043eu043bu0431u0443u0445u0456u043du0430, u0431u0443u0434. 917, u0423u0437u0438u043d, 105365"
    },
    {
        "state": "UK",
        "name": "Carines",
        "city": "Newquay",
        "prov": "England",
        "region": "Cornwall",
        "latt": "50.38975",
        "longt": "-5.11105",
        "address": "u0432u0443u043bu0438u0446u044f u0411u0430u043bu043au0456u0432u0441u044cu043au0430, u0431u0443u0434. 4, u0428u0430u0440u0433u043eu0440u043eu0434, 79754"
    },
    {
        "state": "UK",
        "name": "Blyth",
        "city": "Blyth",
        "prov": "England",
        "region": "Northumberland",
        "latt": "55.11775",
        "longt": "-1.53835",
        "address": "u0432u0443u043bu0438u0446u044f u0422u0438u043cu0456u0440u044fu0437u0454u0432u0430 3-u0439, u0431u0443u0434. 01, u041fu043eu043bu043eu043du043du0435, 107516"
    },
    {
        "state": "UK",
        "name": "Ditchingham",
        "city": "Ditchingham",
        "prov": "England",
        "region": "Norfolk",
        "latt": "52.46729",
        "longt": "1.4437",
        "address": "u043du0430u0431u0435u0440u0435u0436u043du0430 u0411u0430u0441u0435u0439u043du0438u0439 3-u0439, u0431u0443u0434. 80 u043au0432. 95, u0406u0432u0430u043du043e-u0424u0440u0430u043du043au0456u0432u0441u044cu043a, 29919"
    },
    {
        "state": "UK",
        "name": "Venn Ottery",
        "city": "Sidmouth",
        "prov": "England",
        "region": "Devon",
        "latt": "50.71312",
        "longt": "-3.30489",
        "address": "u043fu0440u043eu0432u0443u043bu043eu043a u0421u043eu0446u0456u0430u043bu044cu043du0430, u0431u0443u0434. 9 u043au0432. 8, u0410u043bu0443u043fu043au0430, 47293"
    },
    {
        "state": "UK",
        "name": "Motray Water",
        "city": "Leuchars",
        "prov": "Scotland",
        "region": "Fife",
        "latt": "56.36667",
        "longt": "-2.9",
        "address": "u0443u0437u0432u0456u0437 u041eu0432u0456u0434u0456u043eu043fu043eu043bu044cu0441u044cu043au0430, u0431u0443u0434. 8, u041cu0438u0440u043eu043du0456u0432u043au0430, 25666"
    },
    {
        "state": "UK",
        "name": "East-The-Water",
        "city": "Bideford",
        "prov": "England",
        "region": "Devon",
        "latt": "51.01594",
        "longt": "-4.20004",
        "address": "u043fu0430u0440u043a u0423u0447u0438u0442u0435u043bu044cu0441u044cu043au0438u0439, u0431u0443u0434. 306 u043au0432. 83, u0427u043eu0440u043du043eu0431u0438u043bu044c, 28311"
    },
    {
        "state": "UK",
        "name": "Chelvey",
        "city": "Nailsea",
        "prov": "England",
        "region": "North Somerset",
        "latt": "51.41138",
        "longt": "-2.76876",
        "address": "u0448u043eu0441u0435 u041au043eu0440u043eu0442u043au0438u0439, u0431u0443u0434. 832, u041au0430u043c'u044fu043du043au0430 (u0427u0435u0440u043au0430u0441u044cu043au0430 u043eu0431u043bu0430u0441u0442u044c), 104282"
    },
    {
        "state": "UK",
        "name": "Coll",
        "city": "Isle of Lewis",
        "prov": "Scotland",
        "region": "Eilean Siar",
        "latt": "58.26685",
        "longt": "-6.32562",
        "address": "u043fu0440u043eu0432u0443u043bu043eu043a u041fu0440u043eu0435u043au0442u043eu0432u0430u043du0438u0439 3-u0439, u0431u0443u0434. 86, u0411u043eu043au043eu0432u043e-u0425u0440u0443u0441u0442u0430u043bu044cu043du0435, 51732"
    },
    {
        "state": "UK",
        "name": "Motray Water",
        "city": "Leuchars",
        "prov": "Scotland",
        "region": "Fife",
        "latt": "56.36667",
        "longt": "-2.9",
        "address": "u0443u0437u0432u0456u0437 12-u0442u0430 u041bu0456u043du0456u044f 6-u0439 u0441u0442. u041bu044eu0441u0442u0434u043eu0440u0444u0441u044cu043au043eu0457 u0434u043eu0440u043eu0433u0438, u0431u0443u0434. 1 u043au0432. 1, u0415u043du0435u0440u0433u043eu0434u0430u0440, 29078"
    },
    {
        "state": "UK",
        "name": "Ardmenish",
        "city": "Ardmenish",
        "prov": "Scotland",
        "region": "Argyll and Bute",
        "latt": "55.88333",
        "longt": "-5.88333",
        "address": "u043fu0440u043eu0441u043fu0435u043au0442 u041bu0456u043du0456u044f 52-u0433u0430, u0431u0443u0434. 928, u0411u0435u0440u0434u044fu043du0441u044cu043a, 24310"
    },
    {
        "state": "UK",
        "name": "Quarrington Hill",
        "city": "Coxhoe",
        "prov": "England",
        "region": "County Durham",
        "latt": "54.7293",
        "longt": "-1.48102",
        "address": "u043fu0440u043eu0432u0443u043bu043eu043a u0422u043eu043fu043eu043bu044cu0441u044cu043au043eu0433u043e, u0431u0443u0434. 726, u0420u0435u043du0456, 48364"
    },
    {
        "state": "UK",
        "name": "Asterley",
        "city": "Minsterley",
        "prov": "England",
        "region": "Shropshire",
        "latt": "52.65757",
        "longt": "-2.92562",
        "address": "u0441u043au0432u0435u0440 u041eu043bu0435u043au0441u0430u043du0434u0440u0430 u041cu0430u0442u0440u043eu0441u043eu0432u0430, u0431u0443u0434. 6 u043au0432. 61, u041cu0443u043au0430u0447u0435u0432u043e, 12311"
    },
    {
        "state": "UK",
        "name": "Fazerkeley Hall Recreational Ground",
        "city": "Kirkby",
        "prov": "England",
        "region": "Liverpool",
        "latt": "53.46429",
        "longt": "-2.92211",
        "address": "u043du0430u0431u0435u0440u0435u0436u043du0430 u041fu0430u0440u043au043eu0432u0430, u0431u0443u0434. 31, u0411u0435u0440u0434u044fu043du0441u044cu043a, 51954"
    },
    {
        "state": "UK",
        "name": "Tarff Water",
        "city": "Kirkcudbright",
        "prov": "Scotland",
        "region": "Dumfries and Galloway",
        "latt": "54.86667",
        "longt": "-4.05",
        "address": "u043du0430u0431u0435u0440u0435u0436u043du0430 u0412u043eu043bu0437u044cu043au0438u0439, u0431u0443u0434. 2 u043au0432. 72, u041cu0443u043au0430u0447u0435u0432u043e, 47515"
    },
    {
        "state": "UK",
        "name": "Lower Shiplake",
        "city": "Henley on Thames",
        "prov": "England",
        "region": "Oxfordshire",
        "latt": "51.51031",
        "longt": "-0.89045",
        "address": "u043du0430u0431u0435u0440u0435u0436u043du0430 u0412u0430u0442u043cu0430u043du0441u044cu043au0438u0439, u0431u0443u0434. 97 u043au0432. 432, u0410u043bu043cu0430u0437u043du0430, 41138"
    },
    {
        "state": "UK",
        "name": "Tythby",
        "city": "Bingham",
        "prov": "England",
        "region": "Nottinghamshire",
        "latt": "52.916667",
        "longt": "-0.95",
        "address": "u043fu0440u043eu0441u043fu0435u043au0442 u041au0430u043fu0456u0442u0430u043du0430 u041au0443u0437u043du0435u0446u043eu0432u0430, u0431u0443u0434. 707, u0422u0443u0440u043au0430, 07702"
    },
    {
        "state": "UK",
        "name": "Rewley Abbey",
        "city": "Oxford",
        "prov": "England",
        "region": "Oxfordshire",
        "latt": "51.75424",
        "longt": "-1.26792",
        "address": "u043du0430u0431u0435u0440u0435u0436u043du0430 u0421u043eu0446u0456u0430u043bu044cu043du0430, u0431u0443u0434. 5, u041du043eu0432u043eu0432u043eu043bu0438u043du0441u044cu043a, 68550"
    },
    {
        "state": "UK",
        "name": "Drumbeg",
        "city": "Drumbeg",
        "prov": "Scotland",
        "region": "Highland",
        "latt": "58.24144",
        "longt": "-5.19903",
        "address": "u043fu0430u0440u043a u0412u0454u0442u0440u043eu0433u043eu043du043eu0432u0430, u0431u0443u0434. 5, u0421u0432u0456u0442u043bu043eu0432u043eu0434u0441u044cu043a, 23416"
    },
    {
        "state": "UK",
        "name": "Wester Kinleith",
        "city": "Currie",
        "prov": "Scotland",
        "region": "Edinburgh",
        "latt": "55.88567",
        "longt": "-3.30539",
        "address": "u0443u0437u0432u0456u0437 u041bu0456u043du0456u044f 43-u0442u044f, u0431u0443u0434. 11 u043au0432. 32, u041au043eu0440u0441u0443u043du044c-u0428u0435u0432u0447u0435u043du043au0456u0432u0441u044cu043au0438u0439, 35504"
    },
    {
        "state": "UK",
        "name": "Manafon",
        "city": "Manafon",
        "prov": "Wales",
        "region": "Sir Powys",
        "latt": "52.61238",
        "longt": "-3.31184",
        "address": "u0441u043au0432u0435u0440 u0411u0430u043bu0442u0441u044cu043au0438u0439 6-u0439, u0431u0443u0434. 84, u0427u0435u0440u043du0456u0432u0446u0456, 58405"
    },
    {
        "state": "UK",
        "name": "Topcliffe Maidens Bower",
        "city": "Thirsk",
        "prov": "England",
        "region": "North Yorkshire",
        "latt": "54.16918",
        "longt": "-1.37349",
        "address": "u043fu0430u0440u043a u041au043eu0441u0432u0435u043du0430, u0431u0443u0434. 102 u043au0432. 759, u0421u0442u0435u0431u043du0438u043a, 91288"
    },
    {
        "state": "UK",
        "name": "Ditchingham",
        "city": "Ditchingham",
        "prov": "England",
        "region": "Norfolk",
        "latt": "52.46729",
        "longt": "1.4437",
        "address": "u0441u043au0432u0435u0440 u0412u0456u0442u0447u0438u0437u043du044fu043du0430, u0431u0443u0434. 453 u043au0432. 586, u041du043eu0432u0435 u0414u0430u0432u0438u0434u043au043eu0432u043e, 68769"
    },
    {
        "state": "UK",
        "name": "Kincardine Ou2019Neil",
        "city": "Kincardine O'Neil",
        "prov": "Scotland",
        "region": "Aberdeenshire",
        "latt": "57.0859",
        "longt": "-2.67895",
        "address": "u043fu0440u043eu0441u043fu0435u043au0442 u041au0435u0440u0447u0435u043du0441u044cu043au0438u0439 2-u0439, u0431u0443u0434. 271, u0414u0440u0443u0436u043au0456u0432u043au0430, 105844"
    },
    {
        "state": "UK",
        "name": "Tayside Region",
        "city": "Almondbank",
        "prov": "Scotland",
        "region": "Perth and Kinross",
        "latt": "56.41667",
        "longt": "-3.53333",
        "address": "u0441u043au0432u0435u0440 u041au0430u043fu0456u0442u0430u043du0430 u041au0443u0437u043du0435u0446u043eu0432u0430, u0431u0443u0434. 119 u043au0432. 31, u0412u043eu043bu043eu0447u0438u0441u044cu043a, 41713"
    },
    {
        "state": "UK",
        "name": "An Garbh-eilean",
        "city": "Reraig",
        "prov": "Scotland",
        "region": "Highland",
        "latt": "57.36667",
        "longt": "-5.65",
        "address": "u043fu0440u043eu0441u043fu0435u043au0442 u0411u043eu043bu0433u0430u0440u0441u044cu043au0430, u0431u0443u0434. 379, u0417u0438u043cu043eu0433u0456u0440'u044f, 79429"
    },
    {
        "state": "UK",
        "name": "Crook Burn",
        "city": "Humshaugh",
        "prov": "England",
        "region": "Northumberland",
        "latt": "55.05",
        "longt": "-2.16667",
        "address": "u0432u0443u043bu0438u0446u044f u041bu0456u0442u0430u043au043eu0432u0430, u0431u0443u0434. 8 u043au0432. 8, u0411u043eu0440u0437u043du0430, 106026"
    },
    {
        "state": "UK",
        "name": "Quernmore Park",
        "city": "Lancaster",
        "prov": "England",
        "region": "Lancashire",
        "latt": "54.06443",
        "longt": "-2.74019",
        "address": "u0441u043au0432u0435u0440 u0422u0435u043bu0456u0433u0438 u041eu043bu0435u043du0438, u0431u0443u0434. 0, u041cu0430u043au0456u0457u0432u043au0430, 27899"
    },
    {
        "state": "UK",
        "name": "Loveston",
        "city": "Saundersfoot",
        "prov": "Wales",
        "region": "Pembrokeshire",
        "latt": "51.7425",
        "longt": "-4.77667",
        "address": "u043fu0430u0440u043a u041au043eu0440u043eu043bu0435u043du043au0430, u0431u0443u0434. 386, u0421u0432u044fu0442u043eu0433u0456u0440u0441u044cu043a, 52528"
    },
    {
        "state": "UK",
        "name": "Haigh",
        "city": "Horwich",
        "prov": "England",
        "region": "Borough of Wigan",
        "latt": "53.6",
        "longt": "-2.58333",
        "address": "u043fu043bu043eu0449u0430 u0411u0456u0442u0443u043cu043du0430, u0431u0443u0434. 4, u0412u0430u0448u043au0456u0432u0446u0456, 02213"
    },
    {
        "state": "UK",
        "name": "Ballyeaston",
        "city": "Ballyclare",
        "prov": "Northern Ireland",
        "region": "Antrim and Newtownabbey",
        "latt": "54.76667",
        "longt": "-6",
        "address": "u0448u043eu0441u0435 u0414u0430u0447u043du0438u0439 1-u0439, u0431u0443u0434. 33, u0412u0430u043bu043au0438 , 29999"
    },
    {
        "state": "UK",
        "name": "Richmond",
        "city": "Richmond",
        "prov": "England",
        "region": "Greater London",
        "latt": "51.46171",
        "longt": "-0.30633",
        "address": "u043du0430u0431u0435u0440u0435u0436u043du0430 u0410u0435u0440u043eu0434u0440u043eu043cu043du0438u0439 1-u0439, u0431u0443u0434. 9, u0427u043eu0440u043du043eu0431u0438u043bu044c, 99250"
    },
    {
        "state": "UK",
        "name": "An Garbh-eilean",
        "city": "Reraig",
        "prov": "Scotland",
        "region": "Highland",
        "latt": "57.36667",
        "longt": "-5.65",
        "address": "u043fu0440u043eu0441u043fu0435u043au0442 u0427u0435u0440u0435u043fu0430u043du043eu0432u0438u0445 2-u0439, u0431u0443u0434. 219, u041du043eu0432u043eu043cu0438u0440u0433u043eu0440u043eu0434, 54358"
    },
    {
        "state": "UK",
        "name": "Washingborough",
        "city": "Lincoln",
        "prov": "England",
        "region": "Lincolnshire",
        "latt": "53.22034",
        "longt": "-0.44993",
        "address": "u043du0430u0431u0435u0440u0435u0436u043du0430 u041fu043eu043bu044cu043eu0432u0430, u0431u0443u0434. 44, u041fu043eu043au0440u043eu0432, 61890"
    },
    {
        "state": "UK",
        "name": "Croft",
        "city": "Leominster",
        "prov": "England",
        "region": "Herefordshire",
        "latt": "52.28333",
        "longt": "-2.8",
        "address": "u043fu0440u043eu0441u043fu0435u043au0442 u041fu0443u0448u043au0456u043du0441u044cu043au0430, u0431u0443u0434. 8, u041eu0434u0435u0441u0430, 78649"
    },
    {
        "state": "UK",
        "name": "Seven Kings",
        "city": "Becontree",
        "prov": "England",
        "region": "Greater London",
        "latt": "51.56404",
        "longt": "0.09631",
        "address": "u0441u043au0432u0435u0440 u0422u0435u043au0441u0442u0438u043bu044cu043du0438u043au0456u0432, u0431u0443u0434. 66 u043au0432. 92, u0414u0443u043du0430u0457u0432u0446u0456, 66228"
    },
    {
        "state": "UK",
        "name": "King's Cross",
        "city": "London",
        "prov": "England",
        "region": "Greater London",
        "latt": "51.53067",
        "longt": "-0.12308",
        "address": "u0443u0437u0432u0456u0437 u041au0430u0440u2019u0454u0440u043du0430, u0431u0443u0434. 8 u043au0432. 67, u0417u0430u0432u043eu0434u0441u044cu043au0435, 83838"
    },
    {
        "state": "UK",
        "name": "Croft",
        "city": "Leominster",
        "prov": "England",
        "region": "Herefordshire",
        "latt": "52.28333",
        "longt": "-2.8",
        "address": "u0443u0437u0432u0456u0437 u041au0438u043bu0438u043cu043eu0432u0438u0439, u0431u0443u0434. 200 u043au0432. 5, u0416u0430u0448u043au0456u0432, 49314"
    },
    {
        "state": "UK",
        "name": "Loch Achanalt",
        "city": "Achanalt",
        "prov": "Scotland",
        "region": "Highland",
        "latt": "57.6",
        "longt": "-4.88333",
        "address": "u043fu0440u043eu0441u043fu0435u043au0442 u041fu0438u0441u0430u0440u0435u0432u0430, u0431u0443u0434. 81, u0425u043eu0440u043eu043b , 19828"
    },
    {
        "state": "UK",
        "name": "Leanchoil Hospital",
        "city": "Forres",
        "prov": "Scotland",
        "region": "Moray",
        "latt": "57.60293",
        "longt": "-3.58898",
        "address": "u043fu0440u043eu0441u043fu0435u043au0442 u0411u043bu0430u0433u043eu0432u0438u0434u043eu0432u043eu0457, u0431u0443u0434. 3, u041fu0440u0438u043f'u044fu0442u044c , 79356"
    },
    {
        "state": "UK",
        "name": "Londubh",
        "city": "Londubh",
        "prov": "Scotland",
        "region": "Highland",
        "latt": "57.76836",
        "longt": "-5.59955",
        "address": "u0448u043eu0441u0435 u0421u043au0438u0434u0430u043du043eu0432u0441u044cu043au0430, u0431u0443u0434. 096 u043au0432. 44, u041au0456u0446u043cu0430u043du044c, 25586"
    },
    {
        "state": "UK",
        "name": "Romaldkirk",
        "city": "Middleton in Teesdale",
        "prov": "England",
        "region": "County Durham",
        "latt": "54.58922",
        "longt": "-2.05431",
        "address": "u0448u043eu0441u0435 u041au043eu0441u0438u0439, u0431u0443u0434. 476 u043au0432. 774, u041au0430u0440u043bu0456u0432u043au0430, 11032"
    },
    {
        "state": "UK",
        "name": "Ringway Golf Club",
        "city": "Altrincham",
        "prov": "England",
        "region": "Trafford",
        "latt": "53.37089",
        "longt": "-2.31481",
        "address": "u043fu0430u0440u043a u041cu0430u0433u0456u0441u0442u0440u0430u043bu044cu043du0430, u0431u0443u0434. 95, u041fu043eu043au0440u043eu0432u0441u044cu043a, 42985"
    },
    {
        "state": "UK",
        "name": "Inganess Bay",
        "city": "Orkney",
        "prov": "Scotland",
        "region": "Orkney Islands",
        "latt": "58.98333",
        "longt": "-2.88333",
        "address": "u043fu0430u0440u043a u0410u043cu0443u0440u0441u044cu043au0438u0439 1-u0439, u0431u0443u0434. 4 u043au0432. 68, u0421u0443u0434u0430u043a , 34721"
    },
    {
        "state": "UK",
        "name": "Ballywillwill House",
        "city": "Castlewellan",
        "prov": "Northern Ireland",
        "region": "Newry Mourne and Down",
        "latt": "54.2987",
        "longt": "-5.92137",
        "address": "u043fu0440u043eu0432u0443u043bu043eu043a u0410u043du0434u0440u0456u0439u0446u044f u041eu043bu0435u0433u0430, u0431u0443u0434. 38 u043au0432. 039, u0411u0435u0440u0448u0430u0434u044c, 47525"
    },
    {
        "state": "UK",
        "name": "Marriott Breadsall Priory Hotel And Country Club",
        "city": "Derby",
        "prov": "England",
        "region": "Derby",
        "latt": "52.9111",
        "longt": "-1.4257",
        "address": "u0448u043eu0441u0435 u041au0430u0441u0438u043cu0430 u042eu0440u0456u044f, u0431u0443u0434. 84 u043au0432. 786, u041fu043eu043au0440u043eu0432u0441u044cu043a, 89305"
    },
    {
        "state": "UK",
        "name": "Lower Shiplake",
        "city": "Henley on Thames",
        "prov": "England",
        "region": "Oxfordshire",
        "latt": "51.51031",
        "longt": "-0.89045",
        "address": "u043fu0440u043eu0432u0443u043bu043eu043a u0410u0432u0456u0430u0442u043eu0440u0456u0432, u0431u0443u0434. 0, u041au0435u0440u0447, 29511"
    },
    {
        "state": "UK",
        "name": "Waterloo",
        "city": "Waterlooville",
        "prov": "England",
        "region": "Hampshire",
        "latt": "50.866667",
        "longt": "-1.016667",
        "address": "u0443u0437u0432u0456u0437 u0417u0430u0432u043eu0434u0441u044cu043au0430 3-u0442u044f, u0431u0443u0434. 4, u0413u0430u0439u0432u043eu0440u043eu043d, 79468"
    },
    {
        "state": "UK",
        "name": "Caludon Castle",
        "city": "Coventry",
        "prov": "England",
        "region": "Coventry",
        "latt": "52.41809",
        "longt": "-1.4518",
        "address": "u0432u0443u043bu0438u0446u044f u041du043eu0432u0433u043eu0440u043eu0434u0441u044cu043au0430, u0431u0443u0434. 4 u043au0432. 68, u0411u0435u0440u0435u0441u0442u0435u0447u043au043e, 71594"
    },
    {
        "state": "UK",
        "name": "Crumlin",
        "city": "Crumlin",
        "prov": "Wales",
        "region": "Caerphilly County Borough",
        "latt": "51.67778",
        "longt": "-3.13528",
        "address": "u0441u043au0432u0435u0440 u041eu0444u0456u0446u0435u0440u0441u044cu043au0438u0439 2-u0439, u0431u0443u0434. 233, u041cu043eu043bu043eu0447u0430u043du0441u044cu043a, 47072"
    },
    {
        "state": "UK",
        "name": "Milton-under-Wychwood",
        "city": "Shipton under Wychwood",
        "prov": "England",
        "region": "Oxfordshire",
        "latt": "51.85364",
        "longt": "-1.63216",
        "address": "u0448u043eu0441u0435 u042eu0445u0438u043cu0430 u0424u0435u0441u0435u043du043au0430, u0431u0443u0434. 5, u041fu0435u0440u0435u0432u0430u043bu044cu0441u044cu043a, 74743"
    },
    {
        "state": "UK",
        "name": "Black Mount",
        "city": "Black Mount",
        "prov": "Scotland",
        "region": "Argyll and Bute",
        "latt": "56.54441",
        "longt": "-4.79725",
        "address": "u043fu0440u043eu0432u0443u043bu043eu043a u041bu0438u043f u0406u0432u0430u043du0430 u0442u0430 u042eu0440u0456u044f, u0431u0443u0434. 5 u043au0432. 241, u0417u0430u0432u043eu0434u0441u044cu043au0435, 86716"
    },
    {
        "state": "UK",
        "name": "Lye's Green",
        "city": "Frome",
        "prov": "England",
        "region": "Wiltshire",
        "latt": "51.21557",
        "longt": "-2.25773",
        "address": "u0441u043au0432u0435u0440 u0424u043bu043eu0442u0441u044cu043au0438u0439 1-u0439, u0431u0443u0434. 77 u043au0432. 171, u041du043eu0432u0438u0439 u0420u043eu0437u0434u0456u043b, 56869"
    },
    {
        "state": "UK",
        "name": "Cleuch Burn",
        "city": "Catrine",
        "prov": "Scotland",
        "region": "East Ayrshire",
        "latt": "55.51667",
        "longt": "-4.3",
        "address": "u043du0430u0431u0435u0440u0435u0436u043du0430 u0422u0438u043cu0456u0440u044fu0437u0454u0432u0430, u0431u0443u0434. 1, u0411u0456u043bu044fu0457u0432u043au0430, 42172"
    },
    {
        "state": "UK",
        "name": "Radcliffe Tower",
        "city": "Radcliffe",
        "prov": "England",
        "region": "Borough of Bury",
        "latt": "53.56382",
        "longt": "-2.30977",
        "address": "u0443u0437u0432u0456u0437 u041du043eu0432u0438u043au043eu0432 u043cu0456u0441u0442, u0431u0443u0434. 1, u0422u0430u0432u0440u0456u0439u0441u044cu043a, 46321"
    },
    {
        "state": "UK",
        "name": "Levington",
        "city": "Kesgrave",
        "prov": "England",
        "region": "Suffolk",
        "latt": "52.00593",
        "longt": "1.25233",
        "address": "u043du0430u0431u0435u0440u0435u0436u043du0430 u041au0443u0440u0441u044cu043au0430, u0431u0443u0434. 15, u0417u0431u0430u0440u0430u0436, 28303"
    },
    {
        "state": "UK",
        "name": "Nethermill",
        "city": "Nethermill",
        "prov": "Scotland",
        "region": "Dumfries and Galloway",
        "latt": "55.17149",
        "longt": "-3.49992",
        "address": "u0443u0437u0432u0456u0437 u041au0456u043bu044cu0446u0435u0432u0430, u0431u0443u0434. 4, u0412u0438u0436u043du0438u0446u044f, 92976"
    },
    {
        "state": "UK",
        "name": "Hawthorn",
        "city": "Neston",
        "prov": "England",
        "region": "Wiltshire",
        "latt": "51.42417",
        "longt": "-2.22361",
        "address": "u043fu0440u043eu0432u0443u043bu043eu043a u041cu0456u0441u044fu0447u043du0430, u0431u0443u0434. 161, u0413u043bu0443u0445u0456u0432, 47992"
    },
    {
        "state": "UK",
        "name": "Llanfihangel-Glyn-Myfyr",
        "city": "Cerrigydrudion",
        "prov": "Wales",
        "region": "Conwy",
        "latt": "53.01667",
        "longt": "-3.5",
        "address": "u043fu0440u043eu0441u043fu0435u043au0442 u041bu044eu0442u0435u0440u0430u043du0441u044cu043au0438u0439, u0431u0443u0434. 50, u0422u043bu0443u043cu0430u0447, 109128"
    },
    {
        "state": "UK",
        "name": "Borough Green",
        "city": "Borough Green",
        "prov": "England",
        "region": "Kent",
        "latt": "51.29158",
        "longt": "0.30478",
        "address": "u0448u043eu0441u0435 u0422u0440u0443u0434u043eu0432u0438u0445 u0440u0435u0437u0435u0440u0432u0456u0432, u0431u0443u0434. 322, u041bu0438u043cu0430u043d , 62669"
    },
    {
        "state": "UK",
        "name": "Heath Cottage",
        "city": "Dewsbury",
        "prov": "England",
        "region": "Kirklees",
        "latt": "53.6922",
        "longt": "-1.6075",
        "address": "u0432u0443u043bu0438u0446u044f u0411u0430u0441u0435u0439u043du0438u0439 2-u0439, u0431u0443u0434. 0, u0411u0443u0447u0430u0447, 06769"
    },
    {
        "state": "UK",
        "name": "Milton",
        "city": "New Milton",
        "prov": "England",
        "region": "Hampshire",
        "latt": "50.73333",
        "longt": "-1.65",
        "address": "u043du0430u0431u0435u0440u0435u0436u043du0430 u041fu0440u043eu0435u043au0442u043du0438u0439 5-u0439, u0431u0443u0434. 552, u0424u0435u0434u043eu0440u0456u0432u043au0430, 21410"
    },
    {
        "state": "UK",
        "name": "Steppingley Hospital",
        "city": "Ampthill",
        "prov": "England",
        "region": "Central Bedfordshire",
        "latt": "52.01133",
        "longt": "-0.51363",
        "address": "u0432u0443u043bu0438u0446u044f u0410u043cu0443u0440u0441u044cu043au0438u0439 2-u0439, u0431u0443u0434. 8 u043au0432. 3, u0421u0430u043au0438 , 02290"
    },
    {
        "state": "UK",
        "name": "Best Western Whitworth Hall Country Park Hotel",
        "city": "Spennymoor",
        "prov": "England",
        "region": "County Durham",
        "latt": "54.70704",
        "longt": "-1.63692",
        "address": "u0443u0437u0432u0456u0437 u0421u0443u0440u0438u043au043eu0432u0430 2-u0439, u0431u0443u0434. 031 u043au0432. 673, u041au0440u0435u043cu0435u043du0435u0446u044c, 23394"
    },
    {
        "state": "UK",
        "name": "Marriott Breadsall Priory Hotel And Country Club",
        "city": "Derby",
        "prov": "England",
        "region": "Derby",
        "latt": "52.9111",
        "longt": "-1.4257",
        "address": "u043du0430u0431u0435u0440u0435u0436u043du0430 u041cu0438u043au043eu043bu0438 u0411u043eu0440u043eu0432u0441u044cu043au043eu0433u043e, u0431u0443u0434. 9 u043au0432. 018, u0406u0447u043du044f, 78042"
    },
    {
        "state": "UK",
        "name": "Hindlip",
        "city": "Worcester",
        "prov": "England",
        "region": "Worcestershire",
        "latt": "52.22411",
        "longt": "-2.18207",
        "address": "u043fu0440u043eu0441u043fu0435u043au0442 u041au0443u0437u043du0435u0447u043du0430, u0431u0443u0434. 938 u043au0432. 290, u0412u043eu0440u043eu0436u0431u0430, 65879"
    },
    {
        "state": "UK",
        "name": "Crumlin",
        "city": "Crumlin",
        "prov": "Wales",
        "region": "Caerphilly County Borough",
        "latt": "51.67778",
        "longt": "-3.13528",
        "address": "u0443u0437u0432u0456u0437 u041au043bu0438u043du043eu0432u0430, u0431u0443u0434. 64 u043au0432. 38, u0411u0435u043bu0437, 16625"
    },
    {
        "state": "UK",
        "name": "Cleuch Burn",
        "city": "Catrine",
        "prov": "Scotland",
        "region": "East Ayrshire",
        "latt": "55.51667",
        "longt": "-4.3",
        "address": "u0432u0443u043bu0438u0446u044f u041au0456u0441u0435u043bu044cu043eu0432u0430 u0406u0433u043eu0440u044f, u0431u0443u0434. 8, u041bu0443u0446u044cu043a, 12781"
    },
    {
        "state": "UK",
        "name": "Am Bodach",
        "city": "Kinlochleven",
        "prov": "Scotland",
        "region": "Highland",
        "latt": "56.74086",
        "longt": "-4.98394",
        "address": "u043fu0440u043eu0432u0443u043bu043eu043a u041au043eu0441u043cu043eu043du0430u0432u0442u0456u0432, u0431u0443u0434. 772 u043au0432. 3, u0414u043eu043bu0438u043du0430 , 15774"
    },
    {
        "state": "UK",
        "name": "Kilfinan",
        "city": "Tighnabruaich",
        "prov": "Scotland",
        "region": "Argyll and Bute",
        "latt": "55.95823",
        "longt": "-5.31017",
        "address": "u043fu0440u043eu0441u043fu0435u043au0442 u041au0438u0442u043eu0431u0456u0439u043du0438u0439 2-u0439, u0431u0443u0434. 85 u043au0432. 956, u0414u0435u0440u0433u0430u0447u0456, 94068"
    },
    {
        "state": "UK",
        "name": "Venn Ottery",
        "city": "Sidmouth",
        "prov": "England",
        "region": "Devon",
        "latt": "50.71312",
        "longt": "-3.30489",
        "address": "u0448u043eu0441u0435 u0414u0435u0441u0430u043du0442u043du0438u0439, u0431u0443u0434. 17, u0410u043du0430u043du044cu0457u0432, 22955"
    },
    {
        "state": "UK",
        "name": "Dovercourt",
        "city": "Harwich",
        "prov": "England",
        "region": "Essex",
        "latt": "51.93649",
        "longt": "1.27831",
        "address": "u043fu0440u043eu0432u0443u043bu043eu043a u0427u0435u0440u0435u043fu0430u043du043eu0432u0438u0445 2-u0439, u0431u0443u0434. 41, u0420u043eu043cu043du0438, 34877"
    },
    {
        "state": "UK",
        "name": "Beamish",
        "city": "Chester-le-Street",
        "prov": "England",
        "region": "County Durham",
        "latt": "54.87515",
        "longt": "-1.64602",
        "address": "u0441u043au0432u0435u0440 u0422u0435u0449u0438u043d u043cu0456u0441u0442, u0431u0443u0434. 742 u043au0432. 427, u0412u0438u043bu043au043eu0432u0435, 15652"
    },
    {
        "state": "UK",
        "name": "Londubh",
        "city": "Londubh",
        "prov": "Scotland",
        "region": "Highland",
        "latt": "57.76836",
        "longt": "-5.59955",
        "address": "u043fu043bu043eu0449u0430 u041du0435u043au0440u0430u0441u043eu0432u0430, u0431u0443u0434. 795, u0421u0454u0432u0454u0440u043eu0434u043eu043du0435u0446u044cu043a, 109599"
    },
    {
        "state": "UK",
        "name": "Sillees River",
        "city": "Enniskillen",
        "prov": "Northern Ireland",
        "region": "Fermanagh and Omagh",
        "latt": "54.33333",
        "longt": "-7.63333",
        "address": "u0448u043eu0441u0435 u0424u043bu043eu0442u0441u044cu043au0438u0439 3-u0439, u0431u0443u0434. 96, u041cu0438u043au043eu043bu0430u0457u0432u043au0430 , 07201"
    },
    {
        "state": "UK",
        "name": "Ringway Golf Club",
        "city": "Altrincham",
        "prov": "England",
        "region": "Trafford",
        "latt": "53.37089",
        "longt": "-2.31481",
        "address": "u043du0430u0431u0435u0440u0435u0436u043du0430 u041au043eu0431u043bu0435u0432u0441u044cu043au0430, u0431u0443u0434. 025 u043au0432. 0, u0412u0430u043bu043au0438 , 83166"
    },
    {
        "state": "UK",
        "name": "Rosehaugh House",
        "city": "Avoch",
        "prov": "Scotland",
        "region": "Highland",
        "latt": "57.56667",
        "longt": "-4.2",
        "address": "u0441u043au0432u0435u0440 u0412u0435u0440u0435u0449u0430u0433u0456u043du0430, u0431u0443u0434. 1 u043au0432. 625, u041du0435u0442u0456u0448u0438u043d, 22728"
    },
    {
        "state": "UK",
        "name": "Shelswell",
        "city": "Bicester",
        "prov": "England",
        "region": "Oxfordshire",
        "latt": "51.96667",
        "longt": "-1.11667",
        "address": "u043fu0440u043eu0441u043fu0435u043au0442 u0425u0430u0434u0436u0438u0431u0435u0439u0441u044cu043au0438u0439 3-u0439, u0431u0443u0434. 70, u041du0456u0436u0438u043d, 102415"
    },
    {
        "state": "UK",
        "name": "Barningham",
        "city": "Barnard Castle",
        "prov": "England",
        "region": "County Durham",
        "latt": "54.48809",
        "longt": "-1.87008",
        "address": "u043du0430u0431u0435u0440u0435u0436u043du0430 u0427u0430u043fu0430u0454u0432u0430, u0431u0443u0434. 070 u043au0432. 2, u0421u043eu043au0438u0440u044fu043du0438, 01576"
    },
    {
        "state": "UK",
        "name": "Lower Shiplake",
        "city": "Henley on Thames",
        "prov": "England",
        "region": "Oxfordshire",
        "latt": "51.51031",
        "longt": "-0.89045",
        "address": "u0441u043au0432u0435u0440 u041cu043eu043bu043eu043au043eu0432u0430, u0431u0443u0434. 4 u043au0432. 316, u0420u0443u0434u043au0438, 56308"
    },
    {
        "state": "UK",
        "name": "Radcliffe Tower",
        "city": "Radcliffe",
        "prov": "England",
        "region": "Borough of Bury",
        "latt": "53.56382",
        "longt": "-2.30977",
        "address": "u0441u043au0432u0435u0440 u041au043eu043bu0435u043au0442u0438u0432u043du0438u0439, u0431u0443u0434. 553, u0414u0443u0431u043bu044fu043du0438, 19830"
    },
    {
        "state": "UK",
        "name": "Rushbury",
        "city": "Longville in the Dale",
        "prov": "England",
        "region": "Shropshire",
        "latt": "52.53198",
        "longt": "-2.69482",
        "address": "u0448u043eu0441u0435 u0412u0454u0442u0440u043eu0432u0430, u0431u0443u0434. 9 u043au0432. 868, u0424u0435u043eu0434u043eu0441u0456u044f, 52471"
    },
    {
        "state": "UK",
        "name": "Culmstock",
        "city": "Uffculme",
        "prov": "England",
        "region": "Devon",
        "latt": "50.92843",
        "longt": "-3.28411",
        "address": "u0432u0443u043bu0438u0446u044f u0421u0435u043cu0430u0444u043eu0440u043du0438u0439, u0431u0443u0434. 49 u043au0432. 843, u041au0440u043eu043fu0438u0432u043du0438u0446u044cu043au0438u0439, 12614"
    },
    {
        "state": "UK",
        "name": "Itchenor",
        "city": "Emsworth",
        "prov": "England",
        "region": "West Sussex",
        "latt": "50.80561",
        "longt": "-0.86689",
        "address": "u0448u043eu0441u0435 u0420u0456u0432u043du043eu0441u0442u0456 2-u0439, u0431u0443u0434. 853, u041cu0430u0440u0433u0430u043du0435u0446u044c , 43650"
    },
    {
        "state": "UK",
        "name": "Haigh",
        "city": "Horwich",
        "prov": "England",
        "region": "Borough of Wigan",
        "latt": "53.6",
        "longt": "-2.58333",
        "address": "u043fu0440u043eu0441u043fu0435u043au0442 u041cu0430u0442u0435u0440u0456u0430u043bu044cu043du0438u0439 1-u0439, u0431u0443u0434. 748, u0412u043eu0440u043eu0436u0431u0430, 51254"
    },
    {
        "state": "UK",
        "name": "Quarrington Hill",
        "city": "Coxhoe",
        "prov": "England",
        "region": "County Durham",
        "latt": "54.7293",
        "longt": "-1.48102",
        "address": "u043fu0440u043eu0432u0443u043bu043eu043a u0412u043eu0434u043eu043fu0440u043eu0432u0456u0434u043du0438u0439 3-u0439, u0431u0443u0434. 9, u0425u043cu0456u043bu044cu043du0438u043a, 49667"
    },
    {
        "state": "UK",
        "name": "Carlton Husthwaite",
        "city": "Husthwaite",
        "prov": "England",
        "region": "North Yorkshire",
        "latt": "54.18806",
        "longt": "-1.23505",
        "address": "u043fu0440u043eu0432u0443u043bu043eu043a 12-u0442u0430 u0421u0443u0432u043eu0440u043eu0432u0441u044cu043au0430, u0431u0443u0434. 617, u0410u0440u0446u0438u0437, 98589"
    },
    {
        "state": "UK",
        "name": "Crown Hill Down",
        "city": "Plympton",
        "prov": "England",
        "region": "Devon",
        "latt": "50.42184",
        "longt": "-4.01958",
        "address": "u0448u043eu0441u0435 u0417u0430u043du044cu043au043eu0432u0435u0446u044cu043au043eu0457, u0431u0443u0434. 0 u043au0432. 84, u041eu043bu0435u043au0441u0430u043du0434u0440u0456u044f, 14348"
    },
    {
        "state": "UK",
        "name": "Ythsie",
        "city": "Pitmedden",
        "prov": "Scotland",
        "region": "Aberdeenshire",
        "latt": "57.36667",
        "longt": "-2.18333",
        "address": "u0443u0437u0432u0456u0437 u0427u043eu0440u043du043eu043cu043eu0440u0441u044cu043au0438u0439, u0431u0443u0434. 66 u043au0432. 781, u0423u043au0440u0430u0457u043du0441u044cu043a, 107297"
    },
    {
        "state": "UK",
        "name": "Skiddaw",
        "city": "Keswick",
        "prov": "England",
        "region": "Cumbria",
        "latt": "54.65",
        "longt": "-3.116667",
        "address": "u043fu0440u043eu0441u043fu0435u043au0442 u041bu0443u043du043du0438u0439, u0431u0443u0434. 8 u043au0432. 444, u0422u0438u0432u0440u0456u0432, 11137"
    },
    {
        "state": "UK",
        "name": "Kilmartin River",
        "city": "Staffin",
        "prov": "Scotland",
        "region": "Highland",
        "latt": "57.61667",
        "longt": "-6.21667",
        "address": "u0448u043eu0441u0435 u041au0440u0443u0433u043eu0432u0438u0439, u0431u0443u0434. 1, u041au0440u0430u0441u043du043eu043fu0435u0440u0435u043au043eu043fu0441u044cu043a, 08935"
    },
    {
        "state": "UK",
        "name": "Strumpshaw",
        "city": "Brundall",
        "prov": "England",
        "region": "Norfolk",
        "latt": "52.60599",
        "longt": "1.47572",
        "address": "u043fu0440u043eu0432u0443u043bu043eu043a u042fu0445u043du0435u043du043au0430 u0421u0435u043cu0435u043du0430, u0431u0443u0434. 0, u0414u0443u0431u043du043e, 55851"
    },
    {
        "state": "UK",
        "name": "Loch Kildonan",
        "city": "Isle of South Uist",
        "prov": "Scotland",
        "region": "Eilean Siar",
        "latt": "57.25",
        "longt": "-7.41667",
        "address": "u0441u043au0432u0435u0440 u0412u0430u043du0446u0435u0442u0442u0456, u0431u0443u0434. 847 u043au0432. 0, u0421u0435u0440u0435u0434u0438u043du0430-u0411u0443u0434u0430, 15741"
    },
    {
        "state": "UK",
        "name": "Peterchurch",
        "city": "Peterchurch",
        "prov": "England",
        "region": "Herefordshire",
        "latt": "52.04793",
        "longt": "-2.97522",
        "address": "u043du0430u0431u0435u0440u0435u0436u043du0430 u0421u0445u0456u0434u0447u0430u0441u0442u0438u0439 3-u0439, u0431u0443u0434. 11, u0411u0435u0440u0434u044fu043du0441u044cu043a, 24537"
    },
    {
        "state": "UK",
        "name": "Wester Kinleith",
        "city": "Currie",
        "prov": "Scotland",
        "region": "Edinburgh",
        "latt": "55.88567",
        "longt": "-3.30539",
        "address": "u0441u043au0432u0435u0440 u041cu0438u0433u0434u0430u043bu044cu043du0430, u0431u0443u0434. 0 u043au0432. 6, u041bu0438u0441u0438u0447u0430u043du0441u044cu043a, 84985"
    },
    {
        "state": "UK",
        "name": "Rushbury",
        "city": "Longville in the Dale",
        "prov": "England",
        "region": "Shropshire",
        "latt": "52.53198",
        "longt": "-2.69482",
        "address": "u0441u043au0432u0435u0440 u0421u043au0432u043eu0440u0446u043eu0432u0430, u0431u0443u0434. 0, u0421u0430u0440u043du0438, 103250"
    },
    {
        "state": "UK",
        "name": "Whixall",
        "city": "Whitchurch",
        "prov": "England",
        "region": "Shropshire",
        "latt": "52.9069",
        "longt": "-2.7409",
        "address": "u0432u0443u043bu0438u0446u044f u041bu0443u0437u0430u043du0456u0432u0441u044cu043au0438u0439, u0431u0443u0434. 7 u043au0432. 4, u041cu0435u043bu0456u0442u043eu043fu043eu043bu044c, 27785"
    },
    {
        "state": "UK",
        "name": "East-The-Water",
        "city": "Bideford",
        "prov": "England",
        "region": "Devon",
        "latt": "51.01594",
        "longt": "-4.20004",
        "address": "u043du0430u0431u0435u0440u0435u0436u043du0430 u042eu0440u0456u044f u042fu043du043eu0432u0441u044cu043au043eu0433u043e, u0431u0443u0434. 1 u043au0432. 701, u041au0430u043c'u044fu043du043au0430 (u0427u0435u0440u043au0430u0441u044cu043au0430 u043eu0431u043bu0430u0441u0442u044c), 94653"
    },
    {
        "state": "UK",
        "name": "Hay Mills",
        "city": "Birmingham",
        "prov": "England",
        "region": "City and Borough of Birmingham",
        "latt": "52.4636",
        "longt": "-1.83515",
        "address": "u043du0430u0431u0435u0440u0435u0436u043du0430 u041du0430u044fu0432u043du0438u0439 2-u0439, u0431u0443u0434. 28 u043au0432. 980, u0412u0430u043bu043au0438 , 48507"
    },
    {
        "state": "UK",
        "name": "Coll",
        "city": "Isle of Lewis",
        "prov": "Scotland",
        "region": "Eilean Siar",
        "latt": "58.26685",
        "longt": "-6.32562",
        "address": "u0448u043eu0441u0435 u041au043eu0441u0442u0430u043du0434u0456 2-u0439, u0431u0443u0434. 1, u0420u043eu0433u0430u0442u0438u043d, 26173"
    },
    {
        "state": "UK",
        "name": "Mariansleigh",
        "city": "South Molton",
        "prov": "England",
        "region": "Devon",
        "latt": "50.98421",
        "longt": "-3.7903",
        "address": "u043fu043bu043eu0449u0430 u041eu0441u0456u043du043du044f, u0431u0443u0434. 75, u0413u043eu0440u043eu0445u0456u0432, 07928"
    },
    {
        "state": "UK",
        "name": "Barningham",
        "city": "Barnard Castle",
        "prov": "England",
        "region": "County Durham",
        "latt": "54.48809",
        "longt": "-1.87008",
        "address": "u043du0430u0431u0435u0440u0435u0436u043du0430 u0423u0440u043eu0436u0430u0439u043du0430, u0431u0443u0434. 71 u043au0432. 0, u041au0443u0440u0430u0445u043eu0432u0435, 31604"
    },
    {
        "state": "UK",
        "name": "Llangranwg",
        "city": "Aberporth",
        "prov": "Wales",
        "region": "County of Ceredigion",
        "latt": "52.15",
        "longt": "-4.483333",
        "address": "u043fu0440u043eu0432u0443u043bu043eu043a u041au0430u0440u0430u043du0442u0438u043du043du0430, u0431u0443u0434. 0 u043au0432. 8, u041fu0435u0440u0435u043cu0438u0448u043bu044fu043du0438, 104325"
    },
    {
        "state": "UK",
        "name": "Hay Mills",
        "city": "Birmingham",
        "prov": "England",
        "region": "City and Borough of Birmingham",
        "latt": "52.4636",
        "longt": "-1.83515",
        "address": "u0443u0437u0432u0456u0437 u0426u0435u0433u043bu044fu043du0430, u0431u0443u0434. 2 u043au0432. 1, u0410u043bu043cu0430u0437u043du0430, 51079"
    },
    {
        "state": "UK",
        "name": "Lochawe",
        "city": "Lochawe",
        "prov": "Scotland",
        "region": "Argyll and Bute",
        "latt": "56.40139",
        "longt": "-5.04363",
        "address": "u0443u0437u0432u0456u0437 u041cu0456u0447u0443u0440u0456u043du0430, u0431u0443u0434. 566 u043au0432. 0, u0413u0456u0440u043du0438u043a , 95908"
    },
    {
        "state": "UK",
        "name": "Neaton",
        "city": "Watton",
        "prov": "England",
        "region": "Norfolk",
        "latt": "52.56667",
        "longt": "0.81667",
        "address": "u043du0430u0431u0435u0440u0435u0436u043du0430 u041cu0430u043bu0430, u0431u0443u0434. 621, u0420u0430u0434u043eu043cu0438u0448u043bu044c, 14605"
    },
    {
        "state": "UK",
        "name": "Carlton",
        "city": "Helmsley",
        "prov": "England",
        "region": "North Yorkshire",
        "latt": "54.26667",
        "longt": "-1.06667",
        "address": "u043du0430u0431u0435u0440u0435u0436u043du0430 u0427u043eu0440u043du043eu043cu043eu0440u0441u044cu043au0438u0439, u0431u0443u0434. 532, u041fu0435u0440u0448u043eu0442u0440u0430u0432u0435u043du0441u044cu043a, 96811"
    },
    {
        "state": "UK",
        "name": "West Drayton",
        "city": "Retford",
        "prov": "England",
        "region": "Nottinghamshire",
        "latt": "53.26667",
        "longt": "-0.93333",
        "address": "u043fu0430u0440u043a u0421u043fu043eu0440u0442u0438u0432u043du0430, u0431u0443u0434. 3, u041cu0435u0440u0435u0444u0430, 65732"
    },
    {
        "state": "UK",
        "name": "Seven Kings",
        "city": "Becontree",
        "prov": "England",
        "region": "Greater London",
        "latt": "51.56404",
        "longt": "0.09631",
        "address": "u0441u043au0432u0435u0440 u0410u043cu0443u0440u0441u044cu043au0438u0439 2-u0439, u0431u0443u0434. 44 u043au0432. 5, u0425u0435u0440u0441u043eu043d, 104737"
    },
    {
        "state": "UK",
        "name": "Hawthorn",
        "city": "Neston",
        "prov": "England",
        "region": "Wiltshire",
        "latt": "51.42417",
        "longt": "-2.22361",
        "address": "u043fu0440u043eu0441u043fu0435u043au0442 u0421u0443u0434u043du043eu0431u0443u0434u0456u0432u043du0430, u0431u0443u0434. 8, u041cu0435u043bu0456u0442u043eu043fu043eu043bu044c, 04174"
    },
    {
        "state": "UK",
        "name": "Macharioch Bay",
        "city": "Southend",
        "prov": "Scotland",
        "region": null,
        "latt": "55.32136",
        "longt": "-5.56633",
        "address": "u0443u0437u0432u0456u0437 u041fu0456u0434u0439u043eu043cu043du0438u0439, u0431u0443u0434. 5, u042fu0433u043eu0442u0438u043d, 65707"
    },
    {
        "state": "UK",
        "name": "Newton Abbot Racecourse",
        "city": "Newton Abbot",
        "prov": "England",
        "region": "Devon",
        "latt": "50.5386",
        "longt": "-3.5978",
        "address": "u0441u043au0432u0435u0440 u041au0440u0430u0441u0438u0432u0430, u0431u0443u0434. 04, u0412u043eu0437u043du0435u0441u0435u043du0456u0432u043au0430, 101925"
    },
    {
        "state": "UK",
        "name": "Waterloo",
        "city": "Waterlooville",
        "prov": "England",
        "region": "Hampshire",
        "latt": "50.866667",
        "longt": "-1.016667",
        "address": "u043fu043bu043eu0449u0430 u0427u0435u0442u0432u0435u0440u0442u0430, u0431u0443u0434. 50, u0412u043eu043bu043eu0434u0438u043cu0438u0440-u0412u043eu043bu0438u043du0441u044cu043au0438u0439, 37690"
    },
    {
        "state": "UK",
        "name": "Gaul / Camusnagaul",
        "city": "Fort William",
        "prov": "Scotland",
        "region": "Highland",
        "latt": "56.82756",
        "longt": "-5.12435",
        "address": "u043du0430u0431u0435u0440u0435u0436u043du0430 u0425u043bu0456u0431u043du0430 u0433u0430u0432u0430u043du044c, u0431u0443u0434. 77 u043au0432. 191, u0412u0456u043du043du0438u0446u044f, 22147"
    },
    {
        "state": "UK",
        "name": "Hassocks",
        "city": "Hassocks",
        "prov": "England",
        "region": "West Sussex",
        "latt": "50.92814",
        "longt": "-0.16617",
        "address": "u0432u0443u043bu0438u0446u044f u0414u0435u0440u0435u0432u043eu043eu0431u0440u043eu0431u043du0430, u0431u0443u0434. 155, u041cu0456u0443u0441u0438u043du0441u044cu043a, 79735"
    },
    {
        "state": "UK",
        "name": "Newgale",
        "city": "Newgale",
        "prov": "Wales",
        "region": "Pembrokeshire",
        "latt": "51.85785",
        "longt": "-5.12673",
        "address": "u043fu043bu043eu0449u0430 u041bu0430u0437u0443u0440u043du0438u0439 2-u0439, u0431u0443u0434. 754, u0412u0430u043bu043au0438 , 37646"
    },
    {
        "state": "UK",
        "name": "Higham Ferrers",
        "city": "Rushden",
        "prov": "England",
        "region": "Northamptonshire",
        "latt": "52.30596",
        "longt": "-0.59342",
        "address": "u0443u0437u0432u0456u0437 u0413u0430u0440u0448u0438u043du0430, u0431u0443u0434. 8 u043au0432. 411, u0421u0442u0435u0431u043du0438u043a, 84127"
    },
    {
        "state": "UK",
        "name": "Cader Idris",
        "city": "Dolgellau",
        "prov": "Wales",
        "region": "Gwynedd",
        "latt": "52.7",
        "longt": "-3.9",
        "address": "u043fu0440u043eu0441u043fu0435u043au0442 u0417u0430u043du044cu043au043eu0432u0435u0446u044cu043au043eu0457, u0431u0443u0434. 4, u0421u043au043eu043bu0435, 105376"
    },
    {
        "state": "UK",
        "name": "Colney Heath",
        "city": "St Albans",
        "prov": "England",
        "region": "Hertfordshire",
        "latt": "51.73794",
        "longt": "-0.25387",
        "address": "u043fu0430u0440u043a u0427u0435u0440u043du0456u0433u0456u0432u0441u044cu043au0438u0439, u0431u0443u0434. 90 u043au0432. 2, u041fu0456u0432u0434u0435u043du043du0435 , 78825"
    },
    {
        "state": "UK",
        "name": "Coalbrookdale",
        "city": "Telford",
        "prov": "England",
        "region": "Telford and Wrekin",
        "latt": "52.63821",
        "longt": "-2.49174",
        "address": "u043fu0430u0440u043a u041au0430u0447u0430u043bu043eu0432u0430, u0431u0443u0434. 672, u0421u043du044fu0442u0438u043d, 84261"
    },
    {
        "state": "UK",
        "name": "Ballywillwill House",
        "city": "Castlewellan",
        "prov": "Northern Ireland",
        "region": "Newry Mourne and Down",
        "latt": "54.2987",
        "longt": "-5.92137",
        "address": "u0443u0437u0432u0456u0437 u0410u043cu0431u0443u043bu0430u0442u043eu0440u043du0438u0439 1-u0439, u0431u0443u0434. 8, u0411u043eu0433u0443u0441u043bu0430u0432, 83254"
    },
    {
        "state": "UK",
        "name": "Dalvina Lodge",
        "city": "Syre",
        "prov": "Scotland",
        "region": "Highland",
        "latt": "58.36667",
        "longt": "-4.21667",
        "address": "u043du0430u0431u0435u0440u0435u0436u043du0430 u0410u043cu0431u0443u043bu0430u0442u043eu0440u043du0438u0439 1-u0439, u0431u0443u0434. 6 u043au0432. 67, u0417u043eu043bu043eu0442u043eu043du043eu0448u0430, 24693"
    },
    {
        "state": "UK",
        "name": "King's Cross",
        "city": "London",
        "prov": "England",
        "region": "Greater London",
        "latt": "51.53067",
        "longt": "-0.12308",
        "address": "u0448u043eu0441u0435 u0414u0430u043du0438u043bu0430 u041au0440u0438u0436u0430u043du0456u0432u0441u044cu043au043eu0433u043e, u0431u0443u0434. 41, u0422u043eu0440u0435u0446u044cu043a, 47095"
    },
    {
        "state": "UK",
        "name": "Skipi Geo",
        "city": "Birsay",
        "prov": "Scotland",
        "region": "Orkney Islands",
        "latt": "59.13333",
        "longt": "-3.31667",
        "address": "u0443u0437u0432u0456u0437 u0420u0435u0433u0435u043du0441u0431u0443u0440u0433, u0431u0443u0434. 183 u043au0432. 702, u0427u0443u0433u0443u0457u0432, 94158"
    },
    {
        "state": "UK",
        "name": "Macdonald Frimley Hall",
        "city": "Camberley",
        "prov": "England",
        "region": "Surrey",
        "latt": "51.3421",
        "longt": "-0.7184",
        "address": "u0443u0437u0432u0456u0437 u0413u0440u0435u0446u044cu043au0430, u0431u0443u0434. 751, u041au043eu0440u0435u0446u044c, 78779"
    },
    {
        "state": "UK",
        "name": "Stony Stratford",
        "city": "Milton Keynes",
        "prov": "England",
        "region": "Milton Keynes",
        "latt": "52.05682",
        "longt": "-0.85281",
        "address": "u043fu0430u0440u043a u041cu043eu0442u043eu0440u043du0430, u0431u0443u0434. 233, u0413u0456u0440u0441u044cu043au0435, 45864"
    },
    {
        "state": "UK",
        "name": "Mochdre",
        "city": "Newtown",
        "prov": "Wales",
        "region": "Sir Powys",
        "latt": "52.47783",
        "longt": "-3.37892",
        "address": "u043fu0430u0440u043a u041cu0438u043au043eu043bu0438 u0412u043eu0440u043eu043du043eu0433u043e, u0431u0443u0434. 895 u043au0432. 6, u0411u0440u043eu0432u0430u0440u0438, 84983"
    },
    {
        "state": "UK",
        "name": "Benfleet Hospital Ltd",
        "city": "South Benfleet",
        "prov": "England",
        "region": "Essex",
        "latt": "51.56614",
        "longt": "0.5672",
        "address": "u0448u043eu0441u0435 u041du0435u0441u043au0443u0447u043du0430, u0431u0443u0434. 93, u0410u0440u043cu044fu043du0441u044cu043a, 23374"
    },
    {
        "state": "UK",
        "name": "East-The-Water",
        "city": "Bideford",
        "prov": "England",
        "region": "Devon",
        "latt": "51.01594",
        "longt": "-4.20004",
        "address": "u0432u0443u043bu0438u0446u044f u041eu043bu0435u043au0441u0430u043du0434u0440u0430 u041du0435u0432u0441u044cu043au043eu0433u043e, u0431u0443u0434. 9, u041au0440u0430u043cu0430u0442u043eu0440u0441u044cu043a, 25364"
    },
    {
        "state": "UK",
        "name": "Unish",
        "city": "Unish",
        "prov": "Scotland",
        "region": "Highland",
        "latt": "57.6",
        "longt": "-6.63333",
        "address": "u043fu043bu043eu0449u0430 u0410u0441u0442u0440u043eu043du043eu043cu0456u0447u043du0430, u0431u0443u0434. 14, u0411u0435u0440u0434u044fu043du0441u044cu043a, 44360"
    },
    {
        "state": "UK",
        "name": "Washingborough",
        "city": "Lincoln",
        "prov": "England",
        "region": "Lincolnshire",
        "latt": "53.22034",
        "longt": "-0.44993",
        "address": "u043du0430u0431u0435u0440u0435u0436u043du0430 u0411u0430u043bu0442u0441u044cu043au0438u0439 1-u0439, u0431u0443u0434. 3, u0412u0430u0441u0438u043bu044cu043au0456u0432, 29591"
    },
    {
        "state": "UK",
        "name": "Londubh",
        "city": "Londubh",
        "prov": "Scotland",
        "region": "Highland",
        "latt": "57.76836",
        "longt": "-5.59955",
        "address": "u0441u043au0432u0435u0440 u0421u0454u0440u043eu0433u043eu0434u0441u044cu043au043eu0433u043e, u0431u0443u0434. 277 u043au0432. 398, u041fu043eu043au0440u043eu0432, 93083"
    },
    {
        "state": "UK",
        "name": "Colney Heath",
        "city": "St Albans",
        "prov": "England",
        "region": "Hertfordshire",
        "latt": "51.73794",
        "longt": "-0.25387",
        "address": "u0432u0443u043bu0438u0446u044f u0422u0430u043du0444u0456u043bu044cu0454u0432u0430, u0431u0443u0434. 707 u043au0432. 539, u0411u043eu0440u0437u043du0430, 85734"
    },
    {
        "state": "UK",
        "name": "Whitwell Railway Station",
        "city": "Worksop",
        "prov": "England",
        "region": "Derbyshire",
        "latt": "53.28",
        "longt": "-1.20056",
        "address": "u043fu0440u043eu0432u0443u043bu043eu043a u0421u043cu043eu043bu0435u043du0441u044cu043au0430, u0431u0443u0434. 2 u043au0432. 449, u041au0440u0435u043cu0456u043du043du0430, 05487"
    },
    {
        "state": "UK",
        "name": "Legion Cross",
        "city": "Legion Cross",
        "prov": "England",
        "region": "Herefordshire",
        "latt": "52.21667",
        "longt": "-2.85",
        "address": "u043fu043bu043eu0449u0430 u0406u043bu044cu0444u0430 u0456 u041fu0435u0442u0440u043eu0432u0430, u0431u0443u0434. 674, u0410u0440u043cu044fu043du0441u044cu043a, 67875"
    },
    {
        "state": "UK",
        "name": "Richmond",
        "city": "Richmond",
        "prov": "England",
        "region": "Greater London",
        "latt": "51.46171",
        "longt": "-0.30633",
        "address": "u0443u0437u0432u0456u0437 u041fu043eu0434u0456u043bu044cu0441u044cu043au0430, u0431u0443u0434. 503, u041au043eu0440u043eu0441u0442u0438u0448u0456u0432, 104902"
    },
    {
        "state": "UK",
        "name": "Pont-rhyd-y-groes",
        "city": "Pontrhydfendigaid",
        "prov": "Wales",
        "region": "County of Ceredigion",
        "latt": "52.33333",
        "longt": "-3.85",
        "address": "u0441u043au0432u0435u0440 u041au0440u0438u0448u0442u0430u043bu0435u0432u0430, u0431u0443u0434. 2 u043au0432. 442, u0428u0443u043cu0441u044cu043a, 102536"
    },
    {
        "state": "UK",
        "name": "Scotton",
        "city": "Scotter",
        "prov": "England",
        "region": "Lincolnshire",
        "latt": "53.47977",
        "longt": "-0.66519",
        "address": "u043fu0440u043eu0441u043fu0435u043au0442 u041fu0440u043eu0435u043au0442u043du0438u0439 5-u0439, u0431u0443u0434. 164 u043au0432. 29, u0421u0443u0434u0430u043a , 99794"
    },
    {
        "state": "UK",
        "name": "Richmond",
        "city": "Richmond",
        "prov": "England",
        "region": "Greater London",
        "latt": "51.46171",
        "longt": "-0.30633",
        "address": "u043fu0430u0440u043a u0411u0430u043bu0442u0441u044cu043au0438u0439 6-u0439, u0431u0443u0434. 67, u0412u043eu0437u043du0435u0441u0435u043du0441u044cu043a, 78769"
    },
    {
        "state": "UK",
        "name": "Llantrisant Forest",
        "city": "Llantrisant",
        "prov": "Wales",
        "region": "Rhondda Cynon Taf",
        "latt": "51.55266",
        "longt": "-3.40862",
        "address": "u043du0430u0431u0435u0440u0435u0436u043du0430 u0410u043cu0443u0440u0441u044cu043au0430, u0431u0443u0434. 66 u043au0432. 3, u0422u043bu0443u043cu0430u0447, 15393"
    },
    {
        "state": "UK",
        "name": "King's Cross",
        "city": "London",
        "prov": "England",
        "region": "Greater London",
        "latt": "51.53067",
        "longt": "-0.12308",
        "address": "u0448u043eu0441u0435 u041bu043eu0434u043eu0447u043du0438u0439, u0431u0443u0434. 94 u043au0432. 85, u042fu0432u043eu0440u0456u0432, 78737"
    },
    {
        "state": "UK",
        "name": "Prosen Water",
        "city": "Kirriemuir",
        "prov": "Scotland",
        "region": "Angus",
        "latt": "56.71667",
        "longt": "-2.96667",
        "address": "u0432u0443u043bu0438u0446u044f u0414u0435u0440u0435u0432u043eu043eu0431u0440u043eu0431u043du0430, u0431u0443u0434. 691 u043au0432. 5, u041eu043bu0435u043au0441u0430u043du0434u0440u0456u044f, 86055"
    },
    {
        "state": "UK",
        "name": "Brinsley",
        "city": "Heanor",
        "prov": "England",
        "region": "Nottinghamshire",
        "latt": "53.03461",
        "longt": "-1.31274",
        "address": "u0443u0437u0432u0456u0437 u0416u0438u0442u043eu043cu0438u0440u0441u044cu043au0438u0439 4-u0439, u0431u0443u0434. 593 u043au0432. 554, u042eu0436u043du0435, 25463"
    },
    {
        "state": "UK",
        "name": "Little Witchingham",
        "city": "Reepham",
        "prov": "England",
        "region": "Norfolk",
        "latt": "52.74112",
        "longt": "1.13846",
        "address": "u043du0430u0431u0435u0440u0435u0436u043du0430 u0425u0430u0434u0436u0438u0431u0435u0439u0441u044cu043au0438u0439 1-u0439, u0431u0443u0434. 4, u0421u0430u043cu0431u0456u0440, 95855"
    },
    {
        "state": "UK",
        "name": "Horkstow",
        "city": "Barton upon Humber",
        "prov": "England",
        "region": "North Lincolnshire",
        "latt": "53.65321",
        "longt": "-0.5085",
        "address": "u043du0430u0431u0435u0440u0435u0436u043du0430 u041fu0443u0442u044cu043eu0432u0430, u0431u0443u0434. 555, u0413u0430u0434u044fu0447, 105606"
    },
    {
        "state": "UK",
        "name": "Polruan",
        "city": "Par",
        "prov": "England",
        "region": "Cornwall",
        "latt": "50.32689",
        "longt": "-4.63144",
        "address": "u0441u043au0432u0435u0440 u041bu044eu0442u043du0435u0432u0430, u0431u0443u0434. 2, u0413u043du0456u0432u0430u043du044c, 21100"
    },
    {
        "state": "UK",
        "name": "Hay Mills",
        "city": "Birmingham",
        "prov": "England",
        "region": "City and Borough of Birmingham",
        "latt": "52.4636",
        "longt": "-1.83515",
        "address": "u0443u0437u0432u0456u0437 u0421u0430u0431u0430u043du0441u044cu043au0438u0439, u0431u0443u0434. 89, u041du043eu0432u0438u0439 u041au0430u043bu0438u043du0456u0432, 33747"
    },
    {
        "state": "UK",
        "name": "South Luffenham",
        "city": "South Luffenham",
        "prov": "England",
        "region": "District of Rutland",
        "latt": "52.60513",
        "longt": "-0.60392",
        "address": "u0441u043au0432u0435u0440 u0414u0435u043bu044cu0444u0456u043d, u0431u0443u0434. 40 u043au0432. 69, u041fu0435u0440u0435u043cu0438u0448u043bu044fu043du0438, 55827"
    },
    {
        "state": "UK",
        "name": "Nuns Pass",
        "city": "Carsaig",
        "prov": "Scotland",
        "region": "Argyll and Bute",
        "latt": "56.31667",
        "longt": "-6.01667",
        "address": "u0448u043eu0441u0435 u0428u043eu0441u0442u0430, u0431u0443u0434. 95 u043au0432. 00, u0414u0440u0443u0436u043au0456u0432u043au0430, 44300"
    },
    {
        "state": "UK",
        "name": "Shelswell",
        "city": "Bicester",
        "prov": "England",
        "region": "Oxfordshire",
        "latt": "51.96667",
        "longt": "-1.11667",
        "address": "u0443u0437u0432u0456u0437 u041eu0432u0456u0434u0456u043eu043fu043eu043bu044cu0441u044cu043au0438u0439, u0431u0443u0434. 000 u043au0432. 3, u041au0440u0435u043cu0435u043du0447u0443u043a, 61291"
    },
    {
        "state": "UK",
        "name": "Abbeymead",
        "city": "Gloucester",
        "prov": "England",
        "region": "Gloucestershire",
        "latt": "51.84893",
        "longt": "-2.2004",
        "address": "u0432u0443u043bu0438u0446u044f u0427u0430u0439u043au043eu0432u0441u044cu043au043eu0433u043e, u0431u0443u0434. 49 u043au0432. 5, u041eu0441u0442u0440u043eu0433, 105650"
    },
    {
        "state": "UK",
        "name": "Kirkoswald",
        "city": "Maybole",
        "prov": "Scotland",
        "region": "South Ayrshire",
        "latt": "55.31667",
        "longt": "-4.76667",
        "address": "u043du0430u0431u0435u0440u0435u0436u043du0430 u041cu043eu043bu043eu0434u0456, u0431u0443u0434. 8, u0412u0438u043du043eu0433u0440u0430u0434u0456u0432, 22536"
    },
    {
        "state": "UK",
        "name": "Jameston",
        "city": "Jameston",
        "prov": "Wales",
        "region": "Pembrokeshire",
        "latt": "51.65642",
        "longt": "-4.81304",
        "address": "u043fu0430u0440u043a u0426u0435u0440u043au043eu0432u043du0430, u0431u0443u0434. 779 u043au0432. 9, u041au0430u043du0456u0432, 101668"
    },
    {
        "state": "UK",
        "name": "Barningham",
        "city": "Barnard Castle",
        "prov": "England",
        "region": "County Durham",
        "latt": "54.48809",
        "longt": "-1.87008",
        "address": "u0443u0437u0432u0456u0437 u0421u0456u043bu044cu0441u044cu043au043eu0433u043eu0441u043fu043eu0434u0430u0440u0441u044cu043au0438u0439, u0431u0443u0434. 737 u043au0432. 460, u041fu0440u0438u0432u0456u043bu043bu044f, 99219"
    },
    {
        "state": "UK",
        "name": "Graveney",
        "city": "Faversham",
        "prov": "England",
        "region": "Kent",
        "latt": "51.32796",
        "longt": "0.94697",
        "address": "u043fu0440u043eu0432u0443u043bu043eu043a u0412u0456u0440u0438 u0406u043du0431u0435u0440, u0431u0443u0434. 864, u041eu043bu0435u0448u043au0438, 23797"
    },
    {
        "state": "UK",
        "name": "Struan",
        "city": "Struan",
        "prov": "Scotland",
        "region": "Highland",
        "latt": "57.35496",
        "longt": "-6.41911",
        "address": "u0432u0443u043bu0438u0446u044f u0420u043eu0437u0443u043cu043eu0432u0441u044cu043au0438u0439 2-u0439, u0431u0443u0434. 8, u041eu0440u0456u0445u0456u0432, 63537"
    },
    {
        "state": "UK",
        "name": "Hay Mills",
        "city": "Birmingham",
        "prov": "England",
        "region": "City and Borough of Birmingham",
        "latt": "52.4636",
        "longt": "-1.83515",
        "address": "u043fu0440u043eu0432u0443u043bu043eu043a u041bu0456u043du0456u044f 49-u0442u0430, u0431u0443u0434. 99 u043au0432. 9, u041au043eu0434u0438u043cu0430, 41702"
    },
    {
        "state": "UK",
        "name": "Cattewater",
        "city": "Plymouth",
        "prov": "England",
        "region": "Plymouth",
        "latt": "50.36667",
        "longt": "-4.11667",
        "address": "u0443u0437u0432u0456u0437 u0417u0430u0432u043eu0434u0441u044cu043au0430, u0431u0443u0434. 2 u043au0432. 5, u041du0430u0434u0432u0456u0440u043du0430, 67147"
    },
    {
        "state": "UK",
        "name": "Lingay",
        "city": "Port nan Long",
        "prov": "Scotland",
        "region": "Eilean Siar",
        "latt": "57.68333",
        "longt": "-7.25",
        "address": "u043fu0430u0440u043a u041du043eu0432u0438u0439, u0431u0443u0434. 04 u043au0432. 4, u0411u0443u0440u0448u0442u0438u043d , 69287"
    },
    {
        "state": "UK",
        "name": "New Monkland",
        "city": "Airdrie",
        "prov": "Scotland",
        "region": "North Lanarkshire",
        "latt": "55.88333",
        "longt": "-4",
        "address": "u043fu0440u043eu0432u0443u043bu043eu043a u0421u0442u0430u043du0446u0456u0439u043du0430 1-u0448u0430, u0431u0443u0434. 1, u0412u0438u043du043du0438u043au0438, 41310"
    },
    {
        "state": "UK",
        "name": "Benfleet Hospital Ltd",
        "city": "South Benfleet",
        "prov": "England",
        "region": "Essex",
        "latt": "51.56614",
        "longt": "0.5672",
        "address": "u0443u0437u0432u0456u0437 u0424. u041fu0456u0448u0435u043du0456u043du0430, u0431u0443u0434. 8 u043au0432. 233, u0412u0438u043du043eu0433u0440u0430u0434u0456u0432, 16209"
    },
    {
        "state": "UK",
        "name": "Duffs Loch",
        "city": "Dalbeattie",
        "prov": "Scotland",
        "region": "Dumfries and Galloway",
        "latt": "54.88333",
        "longt": "-3.8",
        "address": "u0448u043eu0441u0435 u0427u043eu0440u043du043eu043cu043eu0440u0441u044cu043au0438u0439 4-u0439, u0431u0443u0434. 21, u041du043eu0432u0433u043eu0440u043eu0434-u0421u0456u0432u0435u0440u0441u044cu043au0438u0439, 08180"
    },
    {
        "state": "UK",
        "name": "Castleton",
        "city": "Castleton",
        "prov": "Scotland",
        "region": "The Scottish Borders",
        "latt": "55.2",
        "longt": "-2.76667",
        "address": "u043fu0440u043eu0432u0443u043bu043eu043a u0421u0442u043eu0440u043eu0436u0435u043du043au0430 u041eu043bu0435u0433u0430, u0431u0443u0434. 79 u043au0432. 92, u041eu0432u0440u0443u0447, 71287"
    },
    {
        "state": "UK",
        "name": "Toy Ness Jetty",
        "city": "Orphir",
        "prov": "Scotland",
        "region": "Orkney Islands",
        "latt": "58.9227",
        "longt": "-3.12032",
        "address": "u043fu0440u043eu0441u043fu0435u043au0442 u041fu0430u0440u043au043eu0432u0430, u0431u0443u0434. 8, u0425u043cu0435u043bu044cu043du0438u0446u044cu043au0438u0439, 25667"
    },
    {
        "state": "UK",
        "name": "Wester Kinleith",
        "city": "Currie",
        "prov": "Scotland",
        "region": "Edinburgh",
        "latt": "55.88567",
        "longt": "-3.30539",
        "address": "u0441u043au0432u0435u0440 u0421u0432u044fu0442u043eu0441u043bu0430u0432u0430 u0420u0456u0445u0442u0435u0440u0430, u0431u0443u0434. 6, u041cu0435u043bu0456u0442u043eu043fu043eu043bu044c, 45500"
    },
    {
        "state": "UK",
        "name": "Easter Gledstane",
        "city": "Biggar",
        "prov": "Scotland",
        "region": "South Lanarkshire",
        "latt": "55.666667",
        "longt": "-3.533333",
        "address": "u0443u0437u0432u0456u0437 u0413u0440u0443u0437u043eu0432u0438u0439, u0431u0443u0434. 88, u0413u043eu0440u043eu0445u0456u0432, 105330"
    },